%time,field.header.seq,field.header.stamp,field.header.frame_id,field.vector.x,field.vector.y,field.vector.z
1505434021265515943,8260,1505434021265175429,0.94187349081,0.11960298568,-0.313957840204
1505434021272577220,8261,1505434021272373874,0.94187349081,0.11960298568,-0.313957840204
1505434021272759189,8262,1505434021272401744,0.937889873981,0.127553015947,-0.322634100914
1505434021272763637,8263,1505434021272460393,0.937889873981,0.127553015947,-0.322634100914
1505434021281531867,8264,1505434021281242643,0.941787660122,0.132438883185,-0.309024065733
1505434021282954651,8265,1505434021282762543,0.941787660122,0.132438883185,-0.309024065733
1505434021290706100,8266,1505434021290522914,0.936044812202,0.129372045398,-0.32723519206
1505434021292163001,8267,1505434021292043707,0.936044812202,0.129372045398,-0.32723519206
1505434021297301638,8268,1505434021297112741,0.952045142651,0.0921334028244,-0.291755765676
1505434021311021536,8269,1505434021310820996,0.952045142651,0.0921334028244,-0.291755765676
1505434021336189575,8270,1505434021335994480,0.937812209129,0.140302613378,-0.317526966333
1505434021337184105,8271,1505434021336969909,0.937812209129,0.140302613378,-0.317526966333
1505434021338064232,8272,1505434021337868231,0.942397296429,0.114926494658,-0.314132422209
1505434021339250196,8273,1505434021339061709,0.942397296429,0.114926494658,-0.314132422209
1505434021341987026,8274,1505434021341741099,0.912687003613,0.164582908154,-0.374052047729
1505434021345689844,8275,1505434021345393272,0.912687003613,0.164582908154,-0.374052047729
1505434021345698164,8276,1505434021345423341,0.925320804119,0.101085461676,-0.365462839603
1505434021346451343,8277,1505434021346311967,0.925320804119,0.101085461676,-0.365462839603
1505434021347665419,8278,1505434021347304550,0.919607877731,0.133618235588,-0.369415134192
1505434021355453709,8279,1505434021355192255,0.919607877731,0.133618235588,-0.369415134192
1505434021358321872,8280,1505434021358122064,0.933730721474,0.0903610363603,-0.346383988857
1505434021363874194,8281,1505434021363633903,0.933730721474,0.0903610363603,-0.346383988857
1505434021369392640,8282,1505434021369165721,0.926592588425,0.12354567647,-0.355193823576
1505434021372964687,8283,1505434021372643100,0.926592588425,0.12354567647,-0.355193823576
1505434021377700131,8284,1505434021377465423,0.918926894665,0.0863948315382,-0.384849727154
1505434021383062351,8285,1505434021382826661,0.918926894665,0.0863948315382,-0.384849727154
1505434021390370402,8286,1505434021390183344,0.917961359024,0.0777933374047,-0.388966679573
1505434021392701954,8287,1505434021392484395,0.917961359024,0.0777933374047,-0.388966679573
1505434021397638366,8288,1505434021397463748,0.929508566856,0.126035049558,-0.346596390009
1505434021403570719,8289,1505434021403318434,0.929508566856,0.126035049558,-0.346596390009
1505434021413194280,8290,1505434021412954386,0.912029147148,0.14400459826,-0.384012281895
1505434021415792105,8291,1505434021415633610,0.912029147148,0.14400459826,-0.384012281895
1505434021418145089,8292,1505434021417927047,0.912735283375,0.110157705843,-0.393420398235
1505434021423883573,8293,1505434021423600017,0.912735283375,0.110157705843,-0.393420398235
1505434021427787410,8294,1505434021427601794,0.914720118046,0.0980057269335,-0.392022907734
1505434021433227943,8295,1505434021432982936,0.914720118046,0.0980057269335,-0.392022907734
1505434021437914296,8296,1505434021437668972,0.907025396824,0.109468579292,-0.406597584486
1505434021442913785,8297,1505434021442666798,0.907025396824,0.109468579292,-0.406597584486
1505434021447873776,8298,1505434021447691294,0.905814230442,0.129402026534,-0.403429865837
1505434021458110550,8299,1505434021457842899,0.905814230442,0.129402026534,-0.403429865837
1505434021458199567,8300,1505434021457991180,0.90661996603,0.0768321976066,-0.414893895388
1505434021462935601,8301,1505434021462691800,0.90661996603,0.0768321976066,-0.414893895388
1505434021469506722,8302,1505434021469309702,0.915459871292,0.0789189562201,-0.394594758749
1505434021474007084,8303,1505434021473778348,0.915459871292,0.0789189562201,-0.394594758749
1505434021478042154,8304,1505434021477774167,0.920509934425,0.098626062274,-0.378066569567
1505434021483153205,8305,1505434021482928408,0.920509934425,0.098626062274,-0.378066569567
1505434021490575780,8306,1505434021490417441,0.907901465893,0.0883797928691,-0.409760832787
1505434021494252719,8307,1505434021494116379,0.907901465893,0.0883797928691,-0.409760832787
1505434021498453203,8308,1505434021498216231,0.907025396824,0.109468579292,-0.406597584486
1505434021505434351,8309,1505434021505228482,0.907025396824,0.109468579292,-0.406597584486
1505434021508153535,8310,1505434021507983462,0.9048153162,0.0624010562897,-0.421207129955
1505434021514458174,8311,1505434021514271907,0.9048153162,0.0624010562897,-0.421207129955
1505434021518470398,8312,1505434021518253926,0.916460573673,0.121654063463,-0.381182730198
1505434021526471786,8313,1505434021526241249,0.916460573673,0.121654063463,-0.381182730198
1505434021528952069,8314,1505434021528750356,0.907264709473,0.0824786126614,-0.412393063307
1505434021533798431,8315,1505434021533607050,0.907264709473,0.0824786126614,-0.412393063307
1505434021538340908,8316,1505434021538104320,0.897882521152,0.0831372663379,-0.432313799858
1505434021543211795,8317,1505434021543008205,0.897882521152,0.0831372663379,-0.432313799858
1505434021548200705,8318,1505434021548056422,0.905014932156,0.0896861627698,-0.415817677975
1505434021557362740,8319,1505434021557122786,0.905014932156,0.0896861627698,-0.415817677975
1505434021559985016,8320,1505434021559790025,0.907901465893,0.0883797928691,-0.409760832787
1505434021563378142,8321,1505434021563186303,0.907901465893,0.0883797928691,-0.409760832787
1505434021568674085,8322,1505434021568465157,0.915035665035,0.103438816965,-0.389884769917
1505434021573371357,8323,1505434021573252164,0.915035665035,0.103438816965,-0.389884769917
1505434021578441538,8324,1505434021578219061,0.914425313473,0.0703404098749,-0.398595660925
1505434021583466240,8325,1505434021583263449,0.914425313473,0.0703404098749,-0.398595660925
1505434021591829388,8326,1505434021591654079,0.893574953079,0.0940605252981,-0.438949108124
1505434021593281510,8327,1505434021593182979,0.893574953079,0.0940605252981,-0.438949108124
1505434021598763927,8328,1505434021598546878,0.916487932205,0.0632060617208,-0.395037889481
1505434021604801858,8329,1505434021604580760,0.916487932205,0.0632060617208,-0.395037889481
1505434021609816732,8330,1505434021609638189,0.907264709473,0.0824786126614,-0.412393063307
1505434021613987322,8331,1505434021613767970,0.907264709473,0.0824786126614,-0.412393063307
1505434021624018387,8332,1505434021623705533,0.895760715008,0.0651462376118,-0.439737081528
1505434021624055178,8333,1505434021623748213,0.895760715008,0.0651462376118,-0.439737081528
1505434021628932551,8334,1505434021628782847,0.891780138016,0.0768776014447,-0.445890069008
1505434021636585075,8335,1505434021636402768,0.891780138016,0.0768776014447,-0.445890069008
1505434021639235726,8336,1505434021638983952,0.902756214142,0.0967238843441,-0.419136822224
1505434021643632871,8337,1505434021643428097,0.902756214142,0.0967238843441,-0.419136822224
1505434021648742345,8338,1505434021648589155,0.919713795185,0.0645413175225,-0.387247890234
1505434021658146508,8339,1505434021656970861,0.919713795185,0.0645413175225,-0.387247890234
1505434021660108985,8340,1505434021658559027,0.896520316601,0.0996133685112,-0.431657940149
1505434021665532404,8341,1505434021665191589,0.896520316601,0.0996133685112,-0.431657940149
1505434021668944406,8342,1505434021668675273,0.892524063587,0.08844833076,-0.442241668701
1505434021673712994,8343,1505434021673567199,0.892524063587,0.08844833076,-0.442241668701
1505434021679046789,8344,1505434021678703429,0.890842556953,0.0312576331198,-0.453235685825
1505434021683869294,8345,1505434021683608504,0.890842556953,0.0312576331198,-0.453235685825
1505434021690425190,8346,1505434021690259284,0.907594799995,0.0593753606081,-0.415627539158
1505434021695527024,8347,1505434021695306152,0.907594799995,0.0593753606081,-0.415627539158
1505434021702310596,8348,1505434021702121938,0.909075915813,0.0724042803049,-0.410290896893
1505434021704008205,8349,1505434021703782500,0.909075915813,0.0724042803049,-0.410290896893
1505434021710581153,8350,1505434021710347091,0.8920353055,0.0409190505743,-0.450109541416
1505434021716364015,8351,1505434021716188672,0.8920353055,0.0409190505743,-0.450109541416
1505434021718977062,8352,1505434021718782492,0.893394112587,0.0974611714482,-0.438575297594
1505434021727393375,8353,1505434021725848819,0.893394112587,0.0974611714482,-0.438575297594
1505434021729483683,8354,1505434021729199889,0.910118043423,0.0812605395913,-0.406302690506
1505434021733979177,8355,1505434021733819586,0.910118043423,0.0812605395913,-0.406302690506
1505434021739191732,8356,1505434021738988306,0.889297306538,0.0646761655807,-0.452733159065
1505434021745310959,8357,1505434021745102038,0.889297306538,0.0646761655807,-0.452733159065
1505434021749089825,8358,1505434021748919997,0.898439705372,0.0397539697587,-0.43729364872
1505434021759396056,8359,1505434021759237657,0.898439705372,0.0397539697587,-0.43729364872
1505434021762132492,8360,1505434021761911075,0.891588628292,0.0796061307192,-0.445794314146
1505434021768150123,8361,1505434021767843766,0.891588628292,0.0796061307192,-0.445794314146
1505434021769221636,8362,1505434021769091977,0.889031529427,0.0670967176557,-0.452902853489
1505434021774282097,8363,1505434021774109018,0.889031529427,0.0670967176557,-0.452902853489
1505434021781403427,8364,1505434021781186587,0.910118043423,0.0812605395913,-0.406302690506
1505434021784428817,8365,1505434021784250902,0.910118043423,0.0812605395913,-0.406302690506
1505434021790346330,8366,1505434021790151956,0.885689973831,0.0910522416234,-0.455261200666
1505434021794621684,8367,1505434021794417584,0.885689973831,0.0910522416234,-0.455261200666
1505434021802964789,8368,1505434021802769186,0.896632373333,0.0507527776062,-0.439857393503
1505434021806483076,8369,1505434021806314233,0.896632373333,0.0507527776062,-0.439857393503
1505434021809510205,8370,1505434021809215182,0.894503116608,0.0607914738357,-0.442909300327
1505434021814886614,8371,1505434021814690065,0.894503116608,0.0607914738357,-0.442909300327
1505434021824020879,8372,1505434021823645089,0.8920353055,0.0409190505743,-0.450109541416
1505434021824579956,8373,1505434021824368721,0.8920353055,0.0409190505743,-0.450109541416
1505434021829624507,8374,1505434021829333086,0.896520316601,0.0996133685112,-0.431657940149
1505434021834536846,8375,1505434021834386253,0.896520316601,0.0996133685112,-0.431657940149
1505434021839579742,8376,1505434021839326702,0.895306885242,0.0403291396797,-0.443620532751
1505434021845962305,8377,1505434021845716655,0.895306885242,0.0403291396797,-0.443620532751
1505434021849312667,8378,1505434021849161970,0.908379375935,0.0424476340413,-0.415986835957
1505434021857962749,8379,1505434021857432456,0.908379375935,0.0424476340413,-0.415986835957
1505434021859919942,8380,1505434021859645041,0.892470538616,0.0661089271307,-0.446235269308
1505434021865443344,8381,1505434021865220777,0.892470538616,0.0661089271307,-0.446235269308
1505434021870759556,8382,1505434021870610261,0.899875044823,0.0499930568039,-0.433273166418
1505434021874823165,8383,1505434021874529355,0.899875044823,0.0499930568039,-0.433273166418
1505434021879953085,8384,1505434021879554487,0.89868414402,0.12838344276,-0.419385910034
1505434021884726545,8385,1505434021884518308,0.89868414402,0.12838344276,-0.419385910034
1505434021891673860,8386,1505434021891426872,0.914353609085,0.0922742187977,-0.394262552261
1505434021912803200,8387,1505434021912584878,0.914353609085,0.0922742187977,-0.394262552261
1505434021912822545,8388,1505434021912617245,0.878077805042,0.081303499639,-0.471560299397
1505434021915094451,8389,1505434021914875998,0.878077805042,0.081303499639,-0.471560299397
1505434021916559201,8390,1505434021916377179,0.908238768578,0.0916571244597,-0.408290803432
1505434021916656647,8391,1505434021916416225,0.908238768578,0.0916571244597,-0.408290803432
1505434021924942643,8392,1505434021924681250,0.870300471783,0.0836827382445,-0.48535990715
1505434021926418163,8393,1505434021926247436,0.870300471783,0.0836827382445,-0.48535990715
1505434021929907648,8394,1505434021929769408,0.878033459187,0.0563874728978,-0.475265830755
1505434021934948010,8395,1505434021934774437,0.878033459187,0.0563874728978,-0.475265830755
1505434021940143537,8396,1505434021939786991,0.892513632774,0.024564595893,-0.450350910425
1505434021945244796,8397,1505434021944902858,0.892513632774,0.024564595893,-0.450350910425
1505434021951240574,8398,1505434021951037075,0.891478896141,0.0552243553102,-0.449684023857
1505434021958787102,8399,1505434021958570212,0.891478896141,0.0552243553102,-0.449684023857
1505434021960707086,8400,1505434021960532973,0.889108002186,0.0249282605946,-0.457018136978
1505434021965140138,8401,1505434021964917628,0.889108002186,0.0249282605946,-0.457018136978
1505434021970308875,8402,1505434021970095407,0.891375601292,0.0825347751379,-0.445687800646
1505434021975199802,8403,1505434021974981613,0.891375601292,0.0825347751379,-0.445687800646
1505434021989976206,8404,1505434021989730456,0.889353632927,0.00831171590835,-0.457144379616
1505434022007058669,8405,1505434022006862487,0.889353632927,0.00831171590835,-0.457144379616
1505434022008916101,8406,1505434022008631882,0.894560039043,0.058522619307,-0.443099826574
1505434022008919501,8407,1505434022008654703,0.894560039043,0.058522619307,-0.443099826574
1505434022011630844,8408,1505434022011427998,0.877332627773,0.084358908236,-0.472409874201
1505434022012463124,8409,1505434022012289483,0.877332627773,0.084358908236,-0.472409874201
1505434022013369347,8410,1505434022013212998,0.89685356617,0.0740521326661,-0.436084777117
1505434022017451923,8411,1505434022017252522,0.89685356617,0.0740521326661,-0.436084777117
1505434022025993043,8412,1505434022025691189,0.892084181309,0.0952711254358,-0.441711604595
1505434022028140068,8413,1505434022027916254,0.892084181309,0.0952711254358,-0.441711604595
1505434022030487400,8414,1505434022030281845,0.878227293491,0.0937912613153,-0.468956291676
1505434022035476352,8415,1505434022035347334,0.878227293491,0.0937912613153,-0.468956291676
1505434022042213455,8416,1505434022041983385,0.890367209911,0.0735165551305,-0.449267864227
1505434022045767213,8417,1505434022045461927,0.890367209911,0.0735165551305,-0.449267864227
1505434022057967343,8418,1505434022057174836,0.887548208237,0.0316981486976,-0.459623157978
1505434022059185405,8419,1505434022058969203,0.887548208237,0.0316981486976,-0.459623157978
1505434022060506981,8420,1505434022060334895,0.897887229919,0.0863353088498,-0.431676566601
1505434022065465387,8421,1505434022065259542,0.897887229919,0.0863353088498,-0.431676566601
1505434022070440874,8422,1505434022070234163,0.891375601292,0.0825347751379,-0.445687800646
1505434022078643342,8423,1505434022078399563,0.891375601292,0.0825347751379,-0.445687800646
1505434022081434870,8424,1505434022081239451,0.880488932133,0.0863224416971,-0.466141194105
1505434022091905141,8425,1505434022091750851,0.880488932133,0.0863224416971,-0.466141194105
1505434022095326517,8426,1505434022095137499,0.889181375504,0.0897338986397,-0.448669493198
1505434022095733805,8427,1505434022095563585,0.889181375504,0.0897338986397,-0.448669493198
1505434022101356277,8428,1505434022101137089,0.891143500805,0.0594095662236,-0.449815303087
1505434022133742249,8429,1505434022133558982,0.903942108154,0.055996414274,-0.423972845078
1505434022140415609,8430,1505434022139956459,0.903942108154,0.055996414274,-0.423972845078
1505434022140424423,8431,1505434022139996693,0.882744312286,0.0641995817423,-0.465446978807
1505434022141358355,8432,1505434022141141485,0.882744312286,0.0641995817423,-0.465446978807
1505434022147320689,8433,1505434022147011939,0.866992712021,0.0944249480963,-0.489292919636
1505434022161545880,8434,1505434022161185483,0.866992712021,0.0944249480963,-0.489292919636
1505434022169884400,8435,1505434022169690699,0.895760715008,0.0651462376118,-0.439737081528
1505434022212422284,8436,1505434022212257871,0.895760715008,0.0651462376118,-0.439737081528
1505434022291195771,8437,1505434022290939547,0.89868414402,0.0427944809198,-0.436503708363
1505434022305882008,8438,1505434022305599578,0.89868414402,0.0427944809198,-0.436503708363
1505434022318696137,8439,1505434022318341311,0.88698142767,0.0967616066337,-0.451554179192
1505434022332276747,8440,1505434022332072108,0.88698142767,0.0967616066337,-0.451554179192
1505434022346754559,8441,1505434022346500787,0.879049062729,0.103417538106,-0.465378910303
1505434022346758720,8442,1505434022346539710,0.879049062729,0.103417538106,-0.465378910303
1505434022359519430,8443,1505434022359327293,0.90103417635,0.0819121971726,-0.425943434238
1505434022372847044,8444,1505434022372618362,0.892524063587,0.08844833076,-0.442241668701
1505434022396034108,8445,1505434022395832417,0.902124345303,0.0656090453267,-0.426458775997
1505434022414809680,8446,1505434022414567770,0.877348840237,0.0584899224341,-0.476275086403
1505434022440345794,8447,1505434022440036207,0.886906147003,0.0745995864272,-0.455886334181
1505434022449333944,8448,1505434022449100332,0.88055151701,0.109020665288,-0.461241275072
1505434022456079107,8449,1505434022455914273,0.896520316601,0.0996133685112,-0.431657940149
1505434022457245749,8450,1505434022456982713,0.879337370396,0.135282680392,-0.45657902956
1505434022467414745,8451,1505434022467151813,0.902462720871,0.136220782995,-0.408662378788
1505434022475942177,8452,1505434022475762312,0.89685356617,0.0740521326661,-0.436084777117
1505434022505836185,8453,1505434022505582512,0.879049062729,0.103417538106,-0.465378910303
1505434022518346890,8454,1505434022518146303,0.879049062729,0.103417538106,-0.465378910303
1505434022548300204,8455,1505434022547937280,0.901157259941,0.085014835,-0.425074189901
1505434022550617487,8456,1505434022550317726,0.886906147003,0.0745995864272,-0.455886334181
1505434022550624760,8457,1505434022550343412,0.907608747482,0.0856234654784,-0.410992652178
1505434022551414848,8458,1505434022551244311,0.88055151701,0.109020665288,-0.461241275072
1505434022562810924,8459,1505434022562570352,0.88055151701,0.109020665288,-0.461241275072
1505434022571131610,8460,1505434022570967077,0.889657557011,0.134287938476,-0.43643578887
1505434022577588897,8461,1505434022577320620,0.892317712307,0.0686398223042,-0.446158856153
1505434022592240265,8462,1505434022591975473,0.906960368156,0.112290330231,-0.405972719193
1505434022592244980,8463,1505434022592019793,0.899228811264,0.138342902064,-0.415028691292
1505434022617349866,8464,1505434022617111100,0.911725223064,0.0675351992249,-0.405211210251
1505434022618118677,8465,1505434022617809844,0.911725223064,0.0675351992249,-0.405211210251
1505434022639065887,8466,1505434022638888787,0.906551837921,0.0762520208955,-0.415149897337
1505434022650639699,8467,1505434022650414338,0.897887229919,0.0863353088498,-0.431676566601
1505434022658635733,8468,1505434022658105797,0.890118181705,0.0762958452106,-0.449297755957
1505434022665547157,8469,1505434022665155932,0.890118181705,0.0762958452106,-0.449297755957
1505434022706145599,8470,1505434022705808174,0.903821825981,0.114074595273,-0.412423551083
1505434022710739810,8471,1505434022710509490,0.893981337547,0.110683403909,-0.434219509363
1505434022716085264,8472,1505434022715845402,0.906960368156,0.112290330231,-0.405972719193
1505434022734946727,8473,1505434022734635148,0.926126301289,0.087370403111,-0.366955697536
1505434022777543733,8474,1505434022777157459,0.908026576042,0.0617105439305,-0.414342224598
1505434022782063705,8475,1505434022781770906,0.908026576042,0.0617105439305,-0.414342224598
1505434022791060828,8476,1505434022790761016,0.904518842697,0.0869729667902,-0.417470246553
1505434022800591416,8477,1505434022800165022,0.899094343185,0.0691611021757,-0.432256907225
1505434022823023100,8478,1505434022822773768,0.934242725372,0.0453515909612,-0.353742390871
1505434022842716307,8479,1505434022842466109,0.914730370045,0.0427444092929,-0.401797473431
1505434022866646487,8480,1505434022866407035,0.921356081963,0.069536305964,-0.382449686527
1505434022866651537,8481,1505434022866449428,0.917894899845,0.0679922178388,-0.390955239534
1505434022889708936,8482,1505434022889458810,0.917894899845,0.0679922178388,-0.390955239534
1505434022930170035,8483,1505434022929966561,0.929538547993,0.0175384618342,-0.368307709694
1505434022950805665,8484,1505434022950547344,0.917207658291,0.0173058044165,-0.398033499718
1505434022964871148,8485,1505434022964605553,0.946990072727,0.059720095247,-0.31566336751
1505434023039157356,8486,1505434023038861722,0.925083220005,0.0264309495687,-0.378843605518
1505434023049240863,8487,1505434023048994695,0.946895718575,0.00868711713701,-0.321423321962
1505434023057534520,8488,1505434023057358994,0.943470716476,0.0165521185845,-0.331042349339
1505434023057539906,8489,1505434023057412332,0.943470716476,0.0165521185845,-0.331042349339
1505434023063440864,8490,1505434023063177971,0.958152353764,0.0168096907437,-0.285764753819
1505434023070644317,8491,1505434023070050645,0.958152353764,0.0168096907437,-0.285764753819
1505434023084004714,8492,1505434023083770463,0.943168461323,-0.017466083169,-0.33185556531
1505434023102173544,8493,1505434023101618615,0.943168461323,0.017466083169,-0.33185556531
1505434023105622158,8494,1505434023105425327,0.953700482845,-0.0176611188799,-0.300239026546
1505434023166288314,8495,1505434023165949495,0.970625638962,-0.00890482217073,-0.240430191159
1505434023166315886,8496,1505434023165998430,0.970625638962,-0.00890482217073,-0.240430191159
1505434023175266722,8497,1505434023175068602,0.946881592274,0.0,-0.321582406759
1505434023179834581,8498,1505434023179548396,0.969560682774,-0.0346271656454,-0.242390170693
1505434023189363872,8499,1505434023189170744,0.969560682774,-0.0346271656454,-0.242390170693
1505434023196918924,8500,1505434023196781079,0.971630394459,-0.008753426373,-0.236342519522
1505434023218206906,8501,1505434023217938631,0.971630394459,-0.008753426373,-0.236342519522
1505434023234142498,8502,1505434023233892302,0.951909780502,-0.00827747676522,-0.306266635656
1505434023256919252,8503,1505434023256439126,0.974821984768,-0.0171021409333,-0.222327828407
1505434023267236993,8504,1505434023266974963,0.96651828289,-0.033912923187,-0.254346907139
1505434023268256217,8505,1505434023268062058,0.96651828289,-0.033912923187,-0.254346907139
1505434023279246755,8506,1505434023279009225,0.960921347141,-0.0440789610147,-0.273289561272
1505434023283684258,8507,1505434023283421128,0.973683476448,-0.0512464977801,-0.222068160772
1505434023284944895,8508,1505434023284758292,0.978857278824,-0.0264556035399,-0.202826291323
1505434023340470775,8509,1505434023340220340,0.978857278824,-0.0264556035399,-0.202826291323
1505434023365604572,8510,1505434023365360947,0.98134803772,-0.0607914738357,-0.182374417782
1505434023370833566,8511,1505434023370480717,0.98134803772,-0.0607914738357,-0.182374417782
1505434023370837249,8512,1505434023370511867,0.977254509926,-0.0514344498515,-0.205737799406
1505434023370840401,8513,1505434023370549453,0.977254509926,-0.0514344498515,-0.205737799406
1505434023372229963,8514,1505434023372083134,0.973644912243,-0.0721218436956,-0.216365545988
1505434023377380817,8515,1505434023377187199,0.973644912243,-0.0721218436956,-0.216365545988
1505434023431256287,8516,1505434023431040247,0.98253172636,-0.00885163713247,-0.185884386301
1505434023439034509,8517,1505434023438764037,0.984182417393,-0.0509059876204,-0.169686630368
1505434023446208125,8518,1505434023445918382,0.982456207275,-0.0535885207355,-0.178628399968
1505434023465688895,8519,1505434023465419114,0.982456207275,-0.0535885207355,-0.178628399968
1505434023465735182,8520,1505434023465523132,0.993171751499,-0.00894749350846,-0.116317413747
1505434023467560049,8521,1505434023467399710,0.993171751499,-0.00894749350846,-0.116317413747
1505434023468342770,8522,1505434023468196047,0.984891593456,-0.0339617803693,-0.169808894396
1505434023474073894,8523,1505434023473885103,0.986562788486,-0.0461010634899,-0.156743615866
1505434023489548475,8524,1505434023489327363,0.988147974014,-0.0538989827037,-0.143730610609
1505434023497578147,8525,1505434023497378248,0.985887110233,-0.0679922178388,-0.152982488275
1505434023507724318,8526,1505434023507453624,0.993682801723,-0.0354886725545,-0.106466017663
1505434023511329134,8527,1505434023510886584,0.993682801723,-0.0354886725545,-0.106466017663
1505434023512320974,8528,1505434023512154979,0.986072063446,-0.0633257254958,-0.153791055083
1505434023514149503,8529,1505434023513970944,0.986072063446,-0.0633257254958,-0.153791055083
1505434023523022699,8530,1505434023522772568,0.983516216278,-0.0878139436245,-0.158065095544
1505434023524624005,8531,1505434023524450997,0.983240842819,-0.035754211247,-0.178771063685
1505434023527725762,8532,1505434023527523665,0.98312920332,-0.0783023238182,-0.165304899216
1505434023527729572,8533,1505434023527546032,0.98312920332,-0.0783023238182,-0.165304899216
1505434023531847220,8534,1505434023531655140,0.985819220543,-0.0785165727139,-0.148309081793
1505434023546351590,8535,1505434023546159476,0.985819220543,-0.0785165727139,-0.148309081793
1505434023549505472,8536,1505434023549329535,0.989062845707,-0.0623733326793,-0.13365714252
1505434023551210950,8537,1505434023551071365,0.989062845707,-0.0623733326793,-0.13365714252
1505434023560019793,8538,1505434023559716839,0.993682801723,-0.0354886725545,-0.106466017663
1505434023564535367,8539,1505434023564352442,0.993682801723,-0.0354886725545,-0.106466017663
1505434023566325354,8540,1505434023565959051,0.992657423019,-0.0649402067065,-0.102048896253
1505434023577921417,8541,1505434023577495252,0.992657423019,-0.0649402067065,-0.102048896253
1505434023582338438,8542,1505434023582070357,0.981169700623,-0.127188667655,-0.145358473063
1505434023588366157,8543,1505434023588166913,0.992219030857,-0.0446945503354,-0.116205833852
1505434023591617694,8544,1505434023591255650,0.992219030857,-0.0446945503354,-0.116205833852
1505434023591621749,8545,1505434023591292051,0.987021863461,-0.113551191986,-0.113551191986
1505434023599638159,8546,1505434023599443371,0.987021863461,-0.113551191986,-0.113551191986
1505434023600969048,8547,1505434023600829912,0.991702497005,0.0,-0.128554031253
1505434023602007886,8548,1505434023601887355,0.991702497005,0.0,-0.128554031253
1505434023605429667,8549,1505434023605310224,0.991500794888,-0.0919949188828,-0.0919949188828
1505434023605532799,8550,1505434023605355130,0.991500794888,-0.0919949188828,-0.0919949188828
1505434023607246095,8551,1505434023606947525,0.99393093586,-0.0777859017253,-0.0777859017253
1505434023615921206,8552,1505434023615690175,0.99393093586,-0.0777859017253,-0.0777859017253
1505434023625344244,8553,1505434023625112243,0.990067362785,-0.108007349074,-0.0900061205029
1505434023626982605,8554,1505434023626779545,0.990067362785,-0.108007349074,-0.0900061205029
1505434023641745333,8555,1505434023641529134,0.983557224274,-0.0459606200457,-0.174650356174
1505434023642983166,8556,1505434023642814679,0.983557224274,-0.0459606200457,-0.174650356174
1505434023648162948,8557,1505434023647763153,0.985606074333,-0.0896005555987,-0.143360882998
1505434023648172347,8558,1505434023647800601,0.985606074333,-0.0896005555987,-0.143360882998
1505434023657895558,8559,1505434023657710647,0.994152486324,-0.0177527219057,-0.106516338885
1505434023664096853,8560,1505434023663898441,0.994152486324,-0.0177527219057,-0.106516338885
1505434023692861745,8561,1505434023692573196,0.986768782139,-0.0569289661944,-0.151810571551
1505434023697729259,8562,1505434023697536455,0.986768782139,-0.0569289661944,-0.151810571551
1505434023697764430,8563,1505434023697576038,0.989701807499,-0.0916390568018,-0.109966866672
1505434023705341690,8564,1505434023705087740,0.989701807499,-0.0916390568018,-0.109966866672
1505434023705368141,8565,1505434023705125303,0.995240807533,-0.0361905731261,-0.0904764384031
1505434023705883962,8566,1505434023705753987,0.995240807533,-0.0361905731261,-0.0904764384031
1505434023708551193,8567,1505434023708387601,0.992488980293,-0.0439154393971,-0.114180147648
1505434023708703195,8568,1505434023708408869,0.992488980293,-0.0439154393971,-0.114180147648
1505434023708710117,8569,1505434023708432289,0.98866468668,-0.0634922236204,-0.136054769158
1505434023710116211,8570,1505434023710017876,0.98866468668,-0.0634922236204,-0.136054769158
1505434023710295140,8571,1505434023710038251,0.993453264236,-0.036125574261,-0.108376719058
1505434023712665452,8572,1505434023712321147,0.993453264236,-0.036125574261,-0.108376719058
1505434023717920147,8573,1505434023717701945,0.986898422241,-0.0830101445317,-0.138350248337
1505434023726392841,8574,1505434023726248733,0.986898422241,-0.0830101445317,-0.138350248337
1505434023729010396,8575,1505434023728645934,0.996826410294,-0.0356009416282,-0.0712018832564
1505434023734675165,8576,1505434023734391992,0.996826410294,-0.0356009416282,-0.0712018832564
1505434023737659731,8577,1505434023737380213,0.993489980698,-0.0805532410741,-0.0805532410741
1505434023742769970,8578,1505434023742560207,0.993489980698,-0.0805532410741,-0.0805532410741
1505434023747979012,8579,1505434023747826872,0.99095004797,-0.0636389926076,-0.118186704814
1505434023758701816,8580,1505434023758517807,0.99095004797,-0.0636389926076,-0.118186704814
1505434023765928742,8581,1505434023765738857,0.991293311119,-0.0833798125386,-0.101908661425
1505434023768819087,8582,1505434023768575099,0.991293311119,-0.0833798125386,-0.101908661425
1505434023769196529,8583,1505434023769074524,0.992085039616,-0.0561557561159,-0.112311512232
1505434023772703672,8584,1505434023772471694,0.992085039616,-0.0561557561159,-0.112311512232
1505434023777740626,8585,1505434023777532099,0.994331598282,-0.0439969748259,-0.0967933386564
1505434023783554719,8586,1505434023783303155,0.994331598282,-0.0439969748259,-0.0967933386564
1505434023790087644,8587,1505434023789891535,0.996037721634,-0.0533591620624,-0.0711455494165
1505434023792701683,8588,1505434023792526900,0.996037721634,-0.0533591620624,-0.0711455494165
1505434023818341296,8589,1505434023818006392,0.986559510231,-0.1155430004,-0.1155430004
1505434023821200991,8590,1505434023821005420,0.986559510231,-0.1155430004,-0.1155430004
1505434023827467517,8591,1505434023826301737,0.99557954073,-0.0751380771399,-0.0563535578549
1505434023840404460,8592,1505434023840210887,0.99557954073,-0.0751380771399,-0.0563535578549
1505434023843166856,8593,1505434023842976025,0.993684232235,-0.0464338436723,-0.102154448628
1505434023844650472,8594,1505434023844321245,0.993684232235,-0.0464338436723,-0.102154448628
1505434023845808819,8595,1505434023845569161,0.991836607456,-0.0901669636369,-0.0901669636369
1505434023847058768,8596,1505434023846791306,0.991836607456,-0.0901669636369,-0.0901669636369
1505434023849722511,8597,1505434023849552514,0.995571434498,-0.0184365082532,-0.0921825394034
1505434023870142149,8598,1505434023869917377,0.995571434498,-0.0184365082532,-0.0921825394034
1505434023871926861,8599,1505434023871702624,0.99061357975,-0.0865584686399,-0.105793684721
1505434023873164324,8600,1505434023872952802,0.99061357975,-0.0865584686399,-0.105793684721
1505434023875439185,8601,1505434023875148999,0.991810917854,-0.0708436369896,-0.106265455484
1505434023875445395,8602,1505434023875176009,0.991810917854,-0.0708436369896,-0.106265455484
1505434023879605216,8603,1505434023879439747,0.987082660198,-0.0931210070848,-0.130369409919
1505434023884138615,8604,1505434023883987766,0.987082660198,-0.0931210070848,-0.130369409919
1505434023888974182,8605,1505434023888849345,0.99095004797,-0.0636389926076,-0.118186704814
1505434023893326037,8606,1505434023893086195,0.99095004797,-0.0636389926076,-0.118186704814
1505434023898725068,8607,1505434023898364928,0.99737995863,-0.0284965708852,-0.0664919987321
1505434023903508553,8608,1505434023903323923,0.99737995863,-0.0284965708852,-0.0664919987321
1505434023909537186,8609,1505434023909324482,0.994220554829,-0.0552344769239,-0.0920574590564
1505434023915701561,8610,1505434023915470702,0.994220554829,-0.0552344769239,-0.0920574590564
1505434023918492060,8611,1505434023918056184,0.987101972103,-0.12221262604,-0.103410683572
1505434023923447228,8612,1505434023923258249,0.987101972103,-0.12221262604,-0.103410683572
1505434023928463168,8613,1505434023928260740,0.996588230133,-0.0369106754661,-0.0738213509321
1505434023933319364,8614,1505434023933166817,0.996588230133,-0.0369106754661,-0.0738213509321
1505434023938984339,8615,1505434023938819216,0.989444673061,-0.0570833459496,-0.133194476366
1505434023944087876,8616,1505434023943886482,0.989444673061,-0.0570833459496,-0.133194476366
1505434023951509167,8617,1505434023951315466,0.991902053356,-0.0804244875908,-0.0982965976
1505434023957973392,8618,1505434023957791091,0.991902053356,-0.0804244875908,-0.0982965976
1505434023965329491,8619,1505434023965030903,0.985749423504,-0.0994793027639,-0.135653585196
1505434023965333501,8620,1505434023965071158,0.985749423504,-0.0994793027639,-0.135653585196
1505434023969025148,8621,1505434023968787583,0.991514205933,-0.0721101239324,-0.108165182173
1505434023973394771,8622,1505434023973213008,0.991514205933,-0.0721101239324,-0.108165182173
1505434023979066419,8623,1505434023978809601,0.98798853159,-0.0898171365261,-0.125744000077
1505434023991369929,8624,1505434023991039501,0.98798853159,-0.0898171365261,-0.125744000077
1505434023991374966,8625,1505434023991075188,0.980684161186,-0.0726432725787,-0.181608185172
1505434023994444888,8626,1505434023994154894,0.980684161186,-0.0726432725787,-0.181608185172
1505434023998791762,8627,1505434023998605175,0.99264395237,-0.0541442148387,-0.108288429677
1505434024004927932,8628,1505434024004682915,0.99264395237,-0.0541442148387,-0.108288429677
1505434024009001653,8629,1505434024008832307,0.997010469437,-0.0449103824794,-0.062874533236
1505434024018349776,8630,1505434024018006123,0.997010469437,-0.0449103824794,-0.062874533236
1505434024024706764,8631,1505434024024469076,0.989426314831,-0.0719582736492,-0.125926986337
1505434024030043246,8632,1505434024029766208,0.989426314831,-0.0719582736492,-0.125926986337
1505434024031169417,8633,1505434024031033819,0.992082953453,-0.0674231126904,-0.10595060885
1505434024035548248,8634,1505434024035385987,0.992082953453,-0.0674231126904,-0.10595060885
1505434024042655114,8635,1505434024042408239,0.992780983448,-0.0936585813761,-0.0749268680811
1505434024045230912,8636,1505434024045076983,0.992780983448,-0.0936585813761,-0.0749268680811
1505434024056584587,8637,1505434024056306310,0.992082953453,-0.0674231126904,-0.10595060885
1505434024057450440,8638,1505434024057155169,0.992082953453,-0.0674231126904,-0.10595060885
1505434024059027630,8639,1505434024058859164,0.987033486366,-0.0717842504382,-0.143568500876
1505434024066171177,8640,1505434024065846704,0.987033486366,-0.0717842504382,-0.143568500876
1505434024071302753,8641,1505434024071135297,0.989037573338,-0.0732620432973,-0.128208577633
1505434024074411994,8642,1505434024074178139,0.989037573338,-0.0732620432973,-0.128208577633
1505434024080509718,8643,1505434024080023839,0.990295469761,-0.0272558387369,-0.136279195547
1505434024084115159,8644,1505434024083957322,0.990295469761,-0.0272558387369,-0.136279195547
1505434024090894344,8645,1505434024090754736,0.986591160297,-0.0948645323515,-0.132810339332
1505434024099786033,8646,1505434024099380265,0.986591160297,-0.0948645323515,-0.132810339332
1505434024100538691,8647,1505434024100401072,0.992733061314,-0.0850914046168,-0.0850914046168
1505434024109766538,8648,1505434024109451859,0.992733061314,-0.0850914046168,-0.0850914046168
1505434024123894656,8649,1505434024123397982,0.990980327129,-0.0481058396399,-0.125075176358
1505434024126880326,8650,1505434024126423547,0.990980327129,-0.0481058396399,-0.125075176358
1505434024126884454,8651,1505434024126447291,0.990870594978,-0.0747826844454,-0.112174034119
1505434024127339560,8652,1505434024127048255,0.990870594978,-0.0747826844454,-0.112174034119
1505434024130697430,8653,1505434024130248018,0.976270437241,-0.0853051841259,-0.199045419693
1505434024137350746,8654,1505434024137038980,0.976270437241,-0.0853051841259,-0.199045419693
1505434024140272169,8655,1505434024140110612,0.987570762634,0.00922963302583,-0.156903773546
1505434024146776562,8656,1505434024146547674,0.987570762634,0.00922963302583,-0.156903773546
1505434024149927630,8657,1505434024149791543,0.989483058453,-0.0685780346394,-0.127359211445
1505434024162400486,8658,1505434024161980907,0.989483058453,-0.0685780346394,-0.127359211445
1505434024164721296,8659,1505434024164443320,0.981219410896,-0.0666848123074,-0.181001633406
1505434024164803234,8660,1505434024164470115,0.981219410896,-0.0666848123074,-0.181001633406
1505434024169446254,8661,1505434024169304704,0.978832185268,-0.10254433006,-0.177122011781
1505434024174682755,8662,1505434024174523355,0.978832185268,-0.10254433006,-0.177122011781
1505434024179985594,8663,1505434024179781981,0.987800657749,-0.0658533722162,-0.141114369035
1505434024184589214,8664,1505434024184429157,0.987800657749,-0.0658533722162,-0.141114369035
1505434024191119549,8665,1505434024190883581,0.988111495972,-0.0372872240841,-0.149148896337
1505434024195059855,8666,1505434024194791453,0.988111495972,-0.0372872240841,-0.149148896337
1505434024199541173,8667,1505434024199302880,0.989033520222,-0.0581784434617,-0.135749697685
1505434024204727474,8668,1505434024204510419,0.989033520222,-0.0581784434617,-0.135749697685
1505434024215139772,8669,1505434024214905416,0.977308273315,-0.090678088367,-0.191431522369
1505434024225037531,8670,1505434024224801966,0.977308273315,-0.090678088367,-0.191431522369
1505434024234310408,8671,1505434024234135066,0.980871319771,-0.0495389550924,-0.188248023391
1505434024240046541,8672,1505434024239859364,0.980871319771,-0.0495389550924,-0.188248023391
1505434024244720634,8673,1505434024244534104,0.98667126894,-0.0394668504596,-0.157867401838
1505434024250883266,8674,1505434024250685938,0.98667126894,-0.0394668504596,-0.157867401838
1505434024250925197,8675,1505434024250713346,0.980537950993,-0.0840461105108,-0.177430674434
1505434024273363161,8676,1505434024273061737,0.980537950993,-0.0840461105108,-0.177430674434
1505434024274413743,8677,1505434024274129880,0.983976304531,-0.00937120337039,-0.178052857518
1505434024277664707,8678,1505434024277325349,0.983976304531,-0.00937120337039,-0.178052857518
1505434024279477849,8679,1505434024279339797,0.981146872044,-0.0784917473793,-0.176606431603
1505434024281503268,8680,1505434024281381644,0.981146872044,-0.0784917473793,-0.176606431603
1505434024281655857,8681,1505434024281402750,0.979608237743,-0.01999200508,-0.199920043349
1505434024281659758,8682,1505434024281455054,0.979608237743,-0.01999200508,-0.199920043349
1505434024282675676,8683,1505434024282508819,0.969586312771,-0.0479993224144,-0.239996612072
1505434024290442104,8684,1505434024290237751,0.969586312771,-0.0479993224144,-0.239996612072
1505434024290498048,8685,1505434024290256811,0.980392217636,-0.0800320208073,-0.180072039366
1505434024295038410,8686,1505434024294792241,0.980392217636,-0.0800320208073,-0.180072039366
1505434024304355182,8687,1505434024304183321,0.976795017719,-0.0563535578549,-0.206629708409
1505434024308195643,8688,1505434024307957408,0.976795017719,-0.0563535578549,-0.206629708409
1505434024310385529,8689,1505434024310203394,0.972881913185,-0.0491354502738,-0.226023077965
1505434024315468505,8690,1505434024315244085,0.972881913185,-0.0491354502738,-0.226023077965
1505434024324397422,8691,1505434024324153276,0.979014992714,-0.0872389599681,-0.184171140194
1505434024325114151,8692,1505434024324958403,0.979014992714,-0.0872389599681,-0.184171140194
1505434024330083086,8693,1505434024329828602,0.976376771927,-0.0924988463521,-0.195275351405
1505434024335349104,8694,1505434024335097563,0.976376771927,-0.0924988463521,-0.195275351405
1505434024342583542,8695,1505434024342384053,0.976803600788,-0.0383060239255,-0.210683137178
1505434024346523905,8696,1505434024346300176,0.976803600788,-0.0383060239255,-0.210683137178
1505434024350868593,8697,1505434024350654535,0.980392158031,-0.0196078438312,-0.196078434587
1505434024356419940,8698,1505434024356223953,0.980392158031,-0.0196078438312,-0.196078434587
1505434024367367594,8699,1505434024367172252,0.975908994675,-0.0574064105749,-0.210490167141
1505434024368335114,8700,1505434024368225146,0.975908994675,-0.0574064105749,-0.210490167141
1505434024377275057,8701,1505434024377082214,0.975590825081,-0.0750454515219,-0.20637498796
1505434024384040698,8702,1505434024383742528,0.975590825081,-0.0750454515219,-0.20637498796
1505434024384159103,8703,1505434024383781148,0.967094063759,-0.0861767008901,-0.2393797189
1505434024390797839,8704,1505434024390549762,0.967094063759,-0.0861767008901,-0.2393797189
1505434024390836172,8705,1505434024390603594,0.960784316063,-0.0392156876624,-0.274509817362
1505434024395973651,8706,1505434024395773840,0.960784316063,-0.0392156876624,-0.274509817362
1505434024400966385,8707,1505434024400404846,0.979021430016,-0.0399600602686,-0.199800297618
1505434024409701742,8708,1505434024409493715,0.979021430016,-0.0399600602686,-0.199800297618
1505434024410587334,8709,1505434024410425040,0.9770424366,-0.0493455789983,-0.207251429558
1505434024416401573,8710,1505434024416235545,0.9770424366,-0.0493455789983,-0.207251429558
1505434024423143644,8711,1505434024422906701,0.981301009655,-0.0101165054366,-0.192213594913
1505434024426251751,8712,1505434024426113951,0.981301009655,-0.0101165054366,-0.192213594913
1505434024434741574,8713,1505434024434567987,0.978887856007,-0.0587332732975,-0.195777580142
1505434024439266272,8714,1505434024438968185,0.978887856007,-0.0587332732975,-0.195777580142
1505434024444714590,8715,1505434024444363396,0.982755601406,-0.0401124730706,-0.180506125093
1505434024445221436,8716,1505434024445016741,0.982755601406,-0.0401124730706,-0.180506125093
1505434024450762938,8717,1505434024450527415,0.961468219757,-0.0418029651046,-0.271719276905
1505434024457987346,8718,1505434024457281051,0.961468219757,-0.0418029651046,-0.271719276905
1505434024460661258,8719,1505434024460450643,0.975738704205,-0.0813115611672,-0.203278899193
1505434024465879650,8720,1505434024465713557,0.975738704205,-0.0813115611672,-0.203278899193
1505434024476519453,8721,1505434024476031656,0.982755601406,-0.0401124730706,-0.180506125093
1505434024476522536,8722,1505434024476226648,0.982755601406,-0.0401124730706,-0.180506125093
1505434024481219416,8723,1505434024480890702,0.981642484665,-0.0297467429191,-0.188396036625
1505434024490170754,8724,1505434024489994605,0.981642484665,-0.0297467429191,-0.188396036625
1505434024491080770,8725,1505434024490903573,0.972881913185,-0.0491354502738,-0.226023077965
1505434024499664762,8726,1505434024499487105,0.972881913185,-0.0491354502738,-0.226023077965
1505434024503108731,8727,1505434024502748759,0.965819180012,-0.0878017395735,-0.24389372766
1505434024507474368,8728,1505434024507268646,0.965819180012,-0.0878017395735,-0.24389372766
1505434024510924548,8729,1505434024510714893,0.961526036263,-0.093050904572,-0.258474737406
1505434024523936376,8730,1505434024523461321,0.961526036263,-0.093050904572,-0.258474737406
1505434024523941548,8731,1505434024523507959,0.972580730915,-0.0300798173994,-0.230611935258
1505434024525740700,8732,1505434024525504275,0.972580730915,-0.0300798173994,-0.230611935258
1505434024532044559,8733,1505434024531855216,0.959498047829,-0.0706998556852,-0.272699445486
1505434024537378419,8734,1505434024537182210,0.959498047829,-0.0706998556852,-0.272699445486
1505434024542393957,8735,1505434024542111667,0.961894392967,-0.0981524884701,-0.255196481943
1505434024549232573,8736,1505434024548981667,0.961894392967,-0.0981524884701,-0.255196481943
1505434024553294742,8737,1505434024552801990,0.967024445534,0.0101792048663,-0.25448012352
1505434024556193346,8738,1505434024555916048,0.967024445534,0.0101792048663,-0.25448012352
1505434024563777276,8739,1505434024563443970,0.972972095013,0.0100306402892,-0.230704724789
1505434024566430707,8740,1505434024566174168,0.972972095013,0.0100306402892,-0.230704724789
1505434024571058876,8741,1505434024570906712,0.967094063759,-0.0861767008901,-0.2393797189
1505434024577980328,8742,1505434024577719713,0.967094063759,-0.0861767008901,-0.2393797189
1505434024583727612,8743,1505434024583513748,0.955220222473,-0.0502747483552,-0.291593551636
1505434024590040460,8744,1505434024589870180,0.955220222473,-0.0502747483552,-0.291593551636
1505434024591451160,8745,1505434024591315633,0.943502902985,-0.123065598309,-0.307664006948
1505434024601095261,8746,1505434024600842472,0.943502902985,-0.123065598309,-0.307664006948
1505434024605503907,8747,1505434024605308944,0.961055755615,-0.0693545341492,-0.267510354519
1505434024608989598,8748,1505434024608797971,0.961055755615,-0.0693545341492,-0.267510354519
1505434024611392290,8749,1505434024611216110,0.975387394428,-0.0104880360886,-0.220248758793
1505434024617634243,8750,1505434024617364761,0.975387394428,-0.0104880360886,-0.220248758793
1505434024627137934,8751,1505434024626798860,0.970142483711,0.0,-0.242535620928
1505434024627142850,8752,1505434024626842396,0.970142483711,0.0,-0.242535620928
1505434024632863224,8753,1505434024632663980,0.968711853027,-0.0206108912826,-0.24733068049
1505434024636460261,8754,1505434024636126792,0.968711853027,-0.0206108912826,-0.24733068049
1505434024641371587,8755,1505434024641189132,0.962119042873,-0.0801765844226,-0.260573893785
1505434024646472420,8756,1505434024646230221,0.962119042873,-0.0801765844226,-0.260573893785
1505434024651461668,8757,1505434024651188011,0.967070043087,-0.061727873981,-0.246911495924
1505434024656648939,8758,1505434024656459233,0.967070043087,-0.061727873981,-0.246911495924
1505434024662178307,8759,1505434024661780063,0.962568819523,-0.109157286584,-0.248084738851
1505434024669375156,8760,1505434024669202486,0.962568819523,-0.109157286584,-0.248084738851
1505434024671538294,8761,1505434024671362212,0.970277786255,-0.0312992818654,-0.239961177111
1505434024677295560,8762,1505434024677129446,0.970277786255,-0.0312992818654,-0.239961177111
1505434024681636891,8763,1505434024681430280,0.965824246407,-0.0508328564465,-0.254164278507
1505434024690086681,8764,1505434024689938247,0.965824246407,-0.0508328564465,-0.254164278507
1505434024694788699,8765,1505434024694601537,0.955006599426,0.0109770875424,-0.296381354332
1505434024698835886,8766,1505434024698648977,0.955006599426,0.0109770875424,-0.296381354332
1505434024702916395,8767,1505434024701464883,0.969017744064,-0.0319456383586,-0.244916573167
1505434024706857881,8768,1505434024706662768,0.969017744064,-0.0319456383586,-0.244916573167
1505434024711728214,8769,1505434024711558180,0.956017911434,-0.0195105709136,-0.292658537626
1505434024716718399,8770,1505434024716461357,0.956017911434,-0.0195105709136,-0.292658537626
1505434024724286328,8771,1505434024724056030,0.959232866764,-0.0399680361152,-0.279776245356
1505434024728595917,8772,1505434024728245554,0.959232866764,-0.0399680361152,-0.279776245356
1505434024732695765,8773,1505434024732439134,0.969017744064,-0.0319456383586,-0.244916573167
1505434024737216196,8774,1505434024736611980,0.969017744064,-0.0319456383586,-0.244916573167
1505434024742115506,8775,1505434024741868503,0.956597507,-0.0610594153404,-0.284943938255
1505434024746835200,8776,1505434024746693203,0.956597507,-0.0610594153404,-0.284943938255
1505434024755426114,8777,1505434024755247158,0.963608503342,-0.0205023083836,-0.266530007124
1505434024758504800,8778,1505434024758167624,0.963608503342,-0.0205023083836,-0.266530007124
1505434024762095612,8779,1505434024761901158,0.967677175999,-0.0326183289289,-0.250073879957
1505434024766877739,8780,1505434024766712646,0.967677175999,-0.0326183289289,-0.250073879957
1505434024772012103,8781,1505434024771830666,0.967151105404,-0.0498531498015,-0.249265760183
1505434024777033813,8782,1505434024776849968,0.967151105404,-0.0498531498015,-0.249265760183
1505434024783007340,8783,1505434024782774056,0.949477910995,-0.0499725230038,-0.309829652309
1505434024787499583,8784,1505434024787325374,0.949477910995,-0.0499725230038,-0.309829652309
1505434024792319767,8785,1505434024792177987,0.95693141222,-0.0493263602257,-0.28609290719
1505434024801260856,8786,1505434024801049634,0.95693141222,-0.0493263602257,-0.28609290719
1505434024805737785,8787,1505434024805485927,0.967070043087,-0.061727873981,-0.246911495924
1505434024808068256,8788,1505434024807887822,0.967070043087,-0.061727873981,-0.246911495924
1505434024812215394,8789,1505434024811937257,0.964446663857,-0.0401852764189,-0.261204302311
1505434024817192043,8790,1505434024816894646,0.964446663857,-0.0401852764189,-0.261204302311
1505434024824149867,8791,1505434024823939272,0.953380703926,-0.0829026699066,-0.290159344673
1505434024828698926,8792,1505434024828502033,0.953380703926,-0.0829026699066,-0.290159344673
1505434024833122528,8793,1505434024832835777,0.961461663246,-0.0303619466722,-0.273257523775
1505434024837385537,8794,1505434024837028031,0.961461663246,-0.0303619466722,-0.273257523775
1505434024842452918,8795,1505434024842045855,0.970700502396,-0.0104376403615,-0.240065723658
1505434024847146803,8796,1505434024846988321,0.970700502396,-0.0104376403615,-0.240065723658
1505434024856092697,8797,1505434024855915708,0.969145476818,-0.0293680448085,-0.244733706117
1505434024857747512,8798,1505434024857445219,0.969145476818,-0.0293680448085,-0.244733706117
1505434024866639329,8799,1505434024866377537,0.963086783886,-0.120385847986,-0.240771695971
1505434024867344057,8800,1505434024867170977,0.963086783886,-0.120385847986,-0.240771695971
1505434024872404203,8801,1505434024872240448,0.96813505888,-0.0108779221773,-0.250192195177
1505434024877286280,8802,1505434024877120152,0.96813505888,-0.0108779221773,-0.250192195177
1505434024887493952,8803,1505434024887297744,0.957788586617,-0.115776643157,-0.263128727674
1505434024895254515,8804,1505434024895073804,0.957788586617,-0.115776643157,-0.263128727674
1505434024901227626,8805,1505434024901074497,0.963474750519,-0.0602171719074,-0.2609410882
1505434024902144304,8806,1505434024901811840,0.963474750519,-0.0602171719074,-0.2609410882
1505434024902386376,8807,1505434024902250169,0.959885776043,-0.0309640578926,-0.278676509857
1505434024908021091,8808,1505434024907854879,0.959885776043,-0.0309640578926,-0.278676509857
1505434024912563035,8809,1505434024912407946,0.950436592102,-0.0983210280538,-0.294963091612
1505434024917649817,8810,1505434024917441262,0.950436592102,-0.0983210280538,-0.294963091612
1505434024923330264,8811,1505434024923119104,0.959068715572,-0.0515628345311,-0.278439313173
1505434024927932544,8812,1505434024927769370,0.959068715572,-0.0515628345311,-0.278439313173
1505434024933987890,8813,1505434024933659794,0.954411327839,-0.0943923294544,-0.283176988363
1505434024942064490,8814,1505434024941717448,0.954411327839,-0.0943923294544,-0.283176988363
1505434024943634397,8815,1505434024943428418,0.967024445534,-0.0101792048663,-0.25448012352
1505434024948013290,8816,1505434024947809356,0.967024445534,-0.0101792048663,-0.25448012352
1505434024956402878,8817,1505434024956193368,0.96041983366,-0.062636077404,-0.271422982216
1505434024957832597,8818,1505434024957631694,0.96041983366,-0.062636077404,-0.271422982216
1505434024962876675,8819,1505434024962661349,0.967070043087,-0.061727873981,-0.246911495924
1505434024970654194,8820,1505434024970510903,0.967070043087,-0.061727873981,-0.246911495924
1505434024972871059,8821,1505434024972679340,0.96041983366,-0.062636077404,-0.271422982216
1505434024979153300,8822,1505434024978923749,0.96041983366,-0.062636077404,-0.271422982216
1505434024983465878,8823,1505434024983189797,0.963174760342,-0.0724970251322,-0.258917957544
1505434024989730857,8824,1505434024989580609,0.963174760342,-0.0724970251322,-0.258917957544
1505434024993371820,8825,1505434024993256253,0.978031098843,-0.0720654502511,-0.195606216788
1505434024998015412,8826,1505434024997664319,0.978031098843,-0.0720654502511,-0.195606216788
1505434025003087157,8827,1505434025002792286,0.969438254833,-0.0714322924614,-0.234706103802
1505434025013941349,8828,1505434025013458153,0.969438254833,-0.0714322924614,-0.234706103802
1505434025014862617,8829,1505434025014600117,0.97299772501,-0.0534614138305,-0.224537938833
1505434025023510075,8830,1505434025023278997,0.97299772501,-0.0534614138305,-0.224537938833
1505434025023513200,8831,1505434025023315747,0.962922513485,-0.0529078319669,-0.264539152384
1505434025028226030,8832,1505434025028045147,0.962922513485,-0.0529078319669,-0.264539152384
1505434025036622624,8833,1505434025036485467,0.968095242977,-0.0411955416203,-0.247173249722
1505434025038092795,8834,1505434025037900902,0.968095242977,-0.0411955416203,-0.247173249722
1505434025043076370,8835,1505434025042903151,0.965226352215,-0.100544415414,-0.241306588054
1505434025047927112,8836,1505434025047740740,0.965226352215,-0.100544415414,-0.241306588054
1505434025058047874,8837,1505434025057828294,0.978381514549,-0.0322543345392,-0.204277455807
1505434025058051071,8838,1505434025057861212,0.978381514549,-0.0322543345392,-0.204277455807
1505434025063358937,8839,1505434025063123506,0.97715306282,-0.0610720664263,-0.203573554754
1505434025068280140,8840,1505434025068103500,0.97715306282,-0.0610720664263,-0.203573554754
1505434025073171653,8841,1505434025073030272,0.958208680153,-0.0968975052238,-0.269159734249
1505434025078191766,8842,1505434025077973379,0.958208680153,-0.0968975052238,-0.269159734249
1505434025092366729,8843,1505434025092179417,0.971536576748,-0.0335012599826,-0.234508827329
1505434025100339242,8844,1505434025099870084,0.971536576748,-0.0335012599826,-0.234508827329
1505434025100347721,8845,1505434025099904069,0.956225514412,-0.0925379544497,-0.277613848448
1505434025100350875,8846,1505434025100180430,0.956225514412,-0.0925379544497,-0.277613848448
1505434025103511588,8847,1505434025103265761,0.964416980743,-0.051850374788,-0.259251862764
1505434025108426622,8848,1505434025108265000,0.964416980743,-0.051850374788,-0.259251862764
1505434025113141886,8849,1505434025113032404,0.977431952953,-0.0329471454024,-0.208665251732
1505434025123309308,8850,1505434025123110283,0.977431952953,-0.0329471454024,-0.208665251732
1505434025125997221,8851,1505434025125863358,0.971123814583,-0.0939797237515,-0.21928602457
1505434025129741593,8852,1505434025129430743,0.971123814583,-0.0939797237515,-0.21928602457
1505434025134782554,8853,1505434025134538561,0.973929405212,-0.0405803918839,-0.223192155361
1505434025138474171,8854,1505434025138178678,0.973929405212,-0.0405803918839,-0.223192155361
1505434025143570701,8855,1505434025143299436,0.974734604359,-0.082956135273,-0.207390338182
1505434025148524217,8856,1505434025148380270,0.974734604359,-0.082956135273,-0.207390338182
1505434025156193884,8857,1505434025155965897,0.959839642048,-0.0426595397294,-0.277287006378
1505434025161461984,8858,1505434025161228360,0.959839642048,-0.0426595397294,-0.277287006378
1505434025163609020,8859,1505434025163447903,0.966827630997,-0.0743713527918,-0.244363024831
1505434025168595585,8860,1505434025168364971,0.966827630997,-0.0743713527918,-0.244363024831
1505434025173541410,8861,1505434025173363349,0.97065192461,-0.0510869435966,-0.234999939799
1505434025179139097,8862,1505434025178909312,0.97065192461,-0.0510869435966,-0.234999939799
1505434025184096298,8863,1505434025183891224,0.959476947784,-0.113486520946,-0.257923901081
1505434025193284995,8864,1505434025193125079,0.959476947784,-0.113486520946,-0.257923901081
1505434025202012128,8865,1505434025201717154,0.978031098843,-0.0720654502511,-0.195606216788
1505434025202061461,8866,1505434025201755869,0.978031098843,-0.0720654502511,-0.195606216788
1505434025203917651,8867,1505434025203765589,0.978166997433,-0.0407569557428,-0.203784778714
1505434025208541820,8868,1505434025208398782,0.978166997433,-0.0407569557428,-0.203784778714
1505434025213904674,8869,1505434025213637749,0.972277343273,-0.0921104848385,-0.214924454689
1505434025225819224,8870,1505434025225559296,0.972277343273,-0.0921104848385,-0.214924454689
1505434025229909059,8871,1505434025229683508,0.964416980743,-0.114070825279,-0.23851172626
1505434025231169863,8872,1505434025230983985,0.964416980743,-0.114070825279,-0.23851172626
1505434025234036920,8873,1505434025233782057,0.97715306282,-0.0610720664263,-0.203573554754
1505434025238875907,8874,1505434025238671252,0.97715306282,-0.0610720664263,-0.203573554754
1505434025244097941,8875,1505434025243850441,0.979323685169,-0.0770254582167,-0.187061831355
1505434025249094420,8876,1505434025248934378,0.979323685169,-0.0770254582167,-0.187061831355
1505434025256260560,8877,1505434025256071476,0.9700345397,-0.0902357697487,-0.225589424372
1505434025260266514,8878,1505434025260095196,0.9700345397,-0.0902357697487,-0.225589424372
1505434025264216629,8879,1505434025264066754,0.982182025909,-0.0110357524827,-0.187607795
1505434025269225185,8880,1505434025268965918,0.982182025909,-0.0110357524827,-0.187607795
1505434025273992599,8881,1505434025273760399,0.969434022903,-0.0521201081574,-0.239752486348
1505434025280368518,8882,1505434025280187090,0.969434022903,-0.0521201081574,-0.239752486348
1505434025290204433,8883,1505434025289950478,0.980230867863,-0.0625679269433,-0.18770378828
1505434025290208941,8884,1505434025289982744,0.980230867863,-0.0625679269433,-0.18770378828
1505434025294797298,8885,1505434025294642965,0.975902438164,-0.0690032020211,-0.207009613514
1505434025300292338,8886,1505434025300105003,0.975902438164,-0.0690032020211,-0.207009613514
1505434025304278214,8887,1505434025304131983,0.971087157726,-0.13242097199,-0.198631465435
1505434025309324342,8888,1505434025309155672,0.971087157726,-0.13242097199,-0.198631465435
1505434025314470872,8889,1505434025314258843,0.977477967739,-0.0537075810134,-0.204088807106
1505434025322597715,8890,1505434025322426482,0.977477967739,-0.0537075810134,-0.204088807106
1505434025327650823,8891,1505434025327519497,0.979388654232,-0.0638731718063,-0.191619515419
1505434025332201108,8892,1505434025331930767,0.979388654232,-0.0638731718063,-0.191619515419
1505434025334363027,8893,1505434025334131812,0.973667621613,-0.0846667513251,-0.211666867137
1505434025339261987,8894,1505434025338929174,0.973667621613,-0.0846667513251,-0.211666867137
1505434025344401186,8895,1505434025344240664,0.982020735741,-0.0971229299903,-0.161871552467
1505434025349809139,8896,1505434025349642717,0.982020735741,-0.0971229299903,-0.161871552467
1505434025356702181,8897,1505434025356434274,0.974320530891,-0.11281606555,-0.194864109159
1505434025359474510,8898,1505434025359246858,0.974320530891,-0.11281606555,-0.194864109159
1505434025364938059,8899,1505434025364735019,0.978741943836,-0.0832971855998,-0.187418669462
1505434025369405315,8900,1505434025369242853,0.978741943836,-0.0832971855998,-0.187418669462
1505434025374488314,8901,1505434025374323497,0.972305595875,-0.129640743136,-0.194461122155
1505434025379750969,8902,1505434025379560027,0.972305595875,-0.129640743136,-0.194461122155
1505434025394040006,8903,1505434025393841823,0.979323685169,-0.0770254582167,-0.187061831355
1505434025399686114,8904,1505434025399156678,0.979323685169,-0.0770254582167,-0.187061831355
1505434025399689516,8905,1505434025399196580,0.991430819035,-0.0413096174598,-0.123928852379
1505434025400150901,8906,1505434025399265419,0.991430819035,-0.0413096174598,-0.123928852379
1505434025404552862,8907,1505434025404350553,0.971710503101,-0.105620704591,-0.211241409183
1505434025409494042,8908,1505434025409325491,0.971710503101,-0.105620704591,-0.211241409183
1505434025415917033,8909,1505434025415647421,0.973667621613,-0.0846667513251,-0.211666867137
