%time,field.linear.x,field.linear.y,field.linear.z,field.angular.x,field.angular.y,field.angular.z
1505434021307815782,0.834801220584,-0.834801220584,0.46854903698,0.0,0.0,-0.0278907663197
1505434021357847846,0.0833794746885,-0.31306300842,0.448290461302,0.0,0.0,-0.0258578359195
1505434021407789921,0.090159282302,-0.306414723814,0.433780038357,0.0,0.0,-0.0241208522094
1505434021457787851,0.197948514773,-0.665168497765,0.414189869165,0.0,0.0,-0.0215530847241
1505434021507776811,0.0711694005751,-0.290818091303,0.402944558859,0.0,0.0,-0.0197836122329
1505434021557795277,0.146359130401,-0.961875989337,0.387801611423,0.0,0.0,-0.0171634138057
1505434021607825535,0.0809556026629,-0.58592814018,0.37665399313,0.0,0.0,-0.0149185207886
1505434021658261744,0.0989964653982,-0.568155758134,0.368546807766,0.0,0.0,-0.0135443059539
1505434021707766176,0.0190391334957,-0.811080811409,0.357746684551,0.0,0.0,-0.011528865101
1505434021757904230,0.0308859831346,-0.589567828487,0.34920361042,0.0,0.0,-0.0095857525274
1505434021807780641,0.0545195534313,-0.564780086803,0.342585349083,0.0,0.0,-0.00857405153314
1505434021857968366,-0.0580614858939,-0.738787594724,0.332899177074,0.0,0.0,-0.00679717232531
1505434021907822967,-0.0166055725133,-0.557443015934,0.324606561661,0.0,0.0,-0.00546273124138
1505434021958459197,0.0142749411387,-0.542091994017,0.317552530766,0.0,0.0,-0.00481763952041
1505434022007795131,-0.118344875247,-0.701172058547,0.305714809895,0.0,0.0,-0.00342987001194
1505434022058722555,-0.0472816264948,-0.507723460159,0.294697010517,0.0,0.0,-0.00291758627035
1505434022107978450,-0.0138868981813,-0.481173856946,0.28516908884,0.0,0.0,-0.00247849733009
1505434022157838253,-0.14212992875,-0.620388271643,0.270190024376,0.0,0.0,-0.00178178070024
1505434022207894740,-0.0575961143141,-0.422906802167,0.257084929943,0.0,0.0,-0.00118734793366
1505434022258038477,-0.0246234344654,-0.413638655837,0.246195280552,0.0,0.0,-0.00105834494069
1505434022307768466,-0.128386753312,-0.522952520467,0.229260408878,0.0,0.0,-0.000943511103289
1505434022357894281,-0.0210240300947,-0.3311782285,0.217941009998,0.0,0.0,-0.000665762492813
1505434022408013901,-0.101487567339,-0.446919810961,0.200492227077,0.0,0.0,-0.000938536118572
1505434022457880688,-0.0350955504015,-0.292128982018,0.18631567955,0.0,0.0,-0.00116100585093
1505434022507781880,-0.011496237284,-0.305286999017,0.17511370182,0.0,0.0,-0.00143582480155
1505434022557847699,-0.0527873374311,-0.313460524119,0.158805692196,0.0,0.0,-0.00262107937684
1505434022607805608,-0.0140297942839,-0.227579527789,0.1457690835,0.0,0.0,-0.00384710073448
1505434022657980641,0.00291060577006,-0.244061746401,0.135716998577,0.0,0.0,-0.00496770470536
1505434022707765501,-0.00777007707934,-0.199510059191,0.121352040768,0.0,0.0,-0.00607609729035
1505434022758441440,0.00848775163831,-0.156793368874,0.110869967937,0.0,0.0,-0.00732634825042
1505434022807870448,0.0177951165063,-0.186423852677,0.103474760056,0.0,0.0,-0.00854933715811
1505434022858005319,0.0236103151319,-0.099165965726,0.0933056712151,0.0,0.0,-0.00992824457335
1505434022907885343,0.0270405093746,-0.104039153758,0.0853899359703,0.0,0.0,-0.0111511845456
1505434022957879533,0.0327920979255,-0.0914060810911,0.0780439019203,0.0,0.0,-0.0127339957972
1505434023007880847,0.0346717177147,-0.0759910844058,0.0709137558937,0.0,0.0,-0.0137436881164
1505434023057881727,0.0388405699857,-0.0607164746113,0.0643917560577,0.0,0.0,-0.0143252674569
1505434023107797979,0.0360832946158,-0.0922335740638,0.0591777205467,0.0,0.0,-0.015208400891
1505434023157961658,0.0491632553151,0.0186509205386,0.0513531804085,0.0,0.0,-0.0152571390245
1505434023207954085,0.0347413639899,-0.0662973409225,0.0466030478477,0.0,0.0,-0.0154578021793
1505434023257938800,0.0457205912415,0.0362552983212,0.0399681568146,0.0,0.0,-0.0162960487431
1505434023307856963,0.0359038494834,-0.00727403931339,0.0351060271263,0.0,0.0,-0.0170064883446
1505434023358634144,0.0341713099363,-0.0429911000953,0.0316562891006,0.0,0.0,-0.017715961219
1505434023407848379,0.0371498289512,0.0462785792211,0.0271078586578,0.0,0.0,-0.0175272304437
1505434023458562470,0.0300525739299,0.000552967595659,0.0240826249123,0.0,0.0,-0.017734613272
1505434023507933250,0.0278054577999,-0.0365570016154,0.0219884157181,0.0,0.0,-0.0181895288415
1505434023557874883,0.0233536706852,0.0334817270671,0.0194571256638,0.0,0.0,-0.0186486230451
1505434023607754555,0.0189254644618,-0.00480424654811,0.0178625226021,0.0,0.0,-0.0189976569799
1505434023657828747,0.0185330478976,-0.035927936337,0.0168256998062,0.0,0.0,-0.0189667502796
1505434023707709158,0.00916938312241,0.0119897461088,0.0154364347458,0.0,0.0,-0.0188537292992
1505434023758300420,0.00811841329939,-0.022395612209,0.0137224435806,0.0,0.0,-0.01868904426
1505434023807877130,0.00788666724669,-0.0508204047824,0.0117694377899,0.0,0.0,-0.0189990648422
1505434023857889824,-0.00447580735183,-0.0263422862098,0.00760807991028,0.0,0.0,-0.0186542447189
1505434023907785693,-0.00264964609887,-0.0513793286628,0.00300517082214,0.0,0.0,-0.018913521269
1505434023957877347,-7.29858397212e-05,-0.0738285049207,-0.00151679515839,0.0,0.0,-0.0187504192175
1505434024007747775,-0.0150373786489,-0.0698561750285,-0.00951454639435,0.0,0.0,-0.0200806024398
1505434024058019675,-0.00245986267066,-0.0797305114307,-0.0154953956604,0.0,0.0,-0.019523035125
1505434024107846827,-0.0172330249273,-0.106033994008,-0.0249616861343,0.0,0.0,-0.0199188417209
1505434024157808200,-0.0102742510461,-0.0993595471795,-0.0331903457642,0.0,0.0,-0.0199525266329
1505434024207782560,-0.00702620206166,-0.10095255502,-0.0393874406815,0.0,0.0,-0.019724835385
1505434024257789567,-0.021116353185,-0.127598301727,-0.0475575089455,0.0,0.0,-0.0197140034091
1505434024307787853,-0.0135980936862,-0.107148884473,-0.053344643116,0.0,0.0,-0.0193818218315
1505434024357720245,-0.00889241862948,-0.105576000636,-0.0569058418274,0.0,0.0,-0.0186650543625
1505434024407853121,-0.0185249596307,-0.13262680819,-0.0610816240311,0.0,0.0,-0.0179586822484
1505434024457766625,-0.00868789878256,-0.10927877499,-0.0634778499603,0.0,0.0,-0.0187240149295
1505434024507835697,-0.0166261173906,-0.122252810326,-0.0662253856659,0.0,0.0,-0.0187018535583
1505434024557813081,-0.0107581154737,-0.10702471305,-0.0674353003502,0.0,0.0,-0.0181078349374
1505434024607757118,-0.00882526088352,-0.10339134753,-0.067971265316,0.0,0.0,-0.0180011474731
1505434024658290853,-0.00491845577441,-0.100521679698,-0.0681137800217,0.0,0.0,-0.0175589617838
1505434024707759649,-0.00481372525876,-0.0804410602782,-0.0676774144173,0.0,0.0,-0.0180746475751
1505434024757699770,-0.000405944489061,-0.0792067241929,-0.0671546220779,0.0,0.0,-0.0180200437464
1505434024808014508,0.00261147176159,-0.0752724044875,-0.0670959711075,0.0,0.0,-0.0174047227859
1505434024858339725,0.00391957066553,-0.0528630569187,-0.0672519564629,0.0,0.0,-0.0181614146437
1505434024907820676,0.00380262783101,-0.0471452622494,-0.0669247865677,0.0,0.0,-0.0184222377874
1505434024957839862,0.00457826292144,-0.0345547538569,-0.0659507870674,0.0,0.0,-0.0183775049047
1505434025007839841,0.00553591452805,-0.0220232036292,-0.0642735123634,0.0,0.0,-0.0182988690888
1505434025057989993,0.00733219684221,-0.0082344774349,-0.0621678590775,0.0,0.0,-0.0182706051068
1505434025107772600,0.0085359573355,-0.0118966901467,-0.0601483345032,0.0,0.0,-0.0189813301685
1505434025158055711,0.012466026106,0.0267315936,-0.0571018815041,0.0,0.0,-0.0188290635734
1505434025207860112,0.0139819264205,0.0246738379571,-0.0543823599815,0.0,0.0,-0.0189725668531
1505434025257778782,0.00176326213937,0.143329025367,-0.1,0.0,0.0,-0.0762338256836
1505434025307886524,0.00235607291976,0.146878285258,-0.1,0.0,0.0,-0.0445492553711
1505434025358194251,0.00142163526634,0.15604630196,-0.1,0.0,0.0,-0.0682942199707
1505434025407841693,0.000735075405086,0.162612022742,-0.1,0.0,0.0,-0.0469118499756
1505434025457932500,0.000566432265975,0.162147139236,-0.1,0.0,0.0,-0.0436853027344
1505434025507763914,0.000575476530497,0.168380313234,-0.1,0.0,0.0,-0.0594129943848
1505434025557817520,-0.000341456947417,0.159285007904,-0.1,0.0,0.0,-0.0470196533203
1505434025607881360,-0.00183636567908,0.145729069491,0.0,0.0,0.0,0.0
1505434025658519519,-0.00139959534641,0.138582007773,0.0,0.0,0.0,0.0
1505434025707770882,-0.000774454235717,0.140853491517,0.0,0.0,0.0,0.0
1505434025757845250,-0.00206807578466,0.142095849363,0.0,0.0,0.0,0.0
1505434025807814861,0.00122925612641,0.109074713515,0.0,0.0,0.0,0.0
1505434025858206301,0.000779188490399,0.116375397537,0.0,0.0,0.0,0.0
1505434025907914893,-0.000194813592351,0.0979819908079,0.0,0.0,0.0,0.0
1505434025957815240,0.00222379050766,0.0756064309002,0.0,0.0,0.0,0.0
1505434026007868957,0.00401286045193,0.0758213679942,0.0,0.0,0.0,0.0
1505434026057845856,0.00379482723468,0.0693842249649,0.0,0.0,0.0,0.0
1505434026107727017,0.00698975771085,0.0369748684193,0.0,0.0,0.0,0.0
1505434026158603967,0.00807909097781,0.026884125206,0.0,0.0,0.0,0.0
1505434026207755502,0.00563209858107,0.0284543987819,0.0,0.0,0.0,0.0
1505434026258260710,0.0106092923312,-0.0120574534681,0.0,0.0,0.0,0.0
1505434026307831625,0.0076592370822,0.00479565204195,0.0,0.0,0.0,0.0
1505434026357843824,0.00984780990815,-0.022091901898,0.0,0.0,0.0,0.0
1505434026407903197,0.0131600054796,-0.0504676456533,0.0,0.0,0.0,0.0
1505434026457890958,0.00658381785456,-0.0225269937295,0.0,0.0,0.0,0.0
1505434026507870663,0.0113124593015,-0.0762114849072,0.0,0.0,0.0,0.0
1505434026557823222,0.0057180697038,-0.0547489729864,0.0,0.0,0.0,0.0
1505434026607848483,0.00236946567062,-0.0317899922012,0.0,0.0,0.0,0.0
1505434026657800581,0.00169074250368,-0.0827140397617,0.0,0.0,0.0,0.0
1505434026707822568,-0.000751033859251,-0.0497191679691,0.0,0.0,0.0,0.0
1505434026757863406,-0.00199802525433,-0.0268883407454,0.0,0.0,0.0,0.0
1505434026807825193,-0.00262709259207,-0.0680756588067,0.0,0.0,0.0,0.0
1505434026858037763,-0.00482956289166,-0.0356512216496,0.0,0.0,0.0,0.0
1505434026907955548,-0.0059839374429,-0.00872609110408,0.0,0.0,0.0,0.0
1505434026957822922,-0.0144074477415,-0.050864642834,0.0,0.0,0.0,0.0
1505434027007896633,-0.0130351016278,-0.0180641947468,0.0,0.0,0.0,0.0
1505434027058408186,-0.0127848278037,-0.000931046646753,0.0,0.0,0.0,0.0
1505434027107875243,-0.0212662205785,-0.0146413382818,0.0,0.0,0.0,0.0
1505434027157884591,-0.0174584712615,0.00827738693892,0.0,0.0,0.0,0.0
1505434027207809571,-0.0152325667102,0.0202716592396,0.0,0.0,0.0,0.0
1505434027258064084,-0.0213338002035,0.0160892479276,0.0,0.0,0.0,0.0
1505434027307727065,-0.0138165965698,0.0276366277799,0.0,0.0,0.0,0.0
1505434027357788229,-0.0167561203091,0.0243890338014,0.0,0.0,0.0,0.0
1505434027407832092,0.00443907647695,-0.131171827306,0.0808426380157,0.0,0.0,-0.00173561590666
1505434027458630506,0.00641215203482,-0.137106469116,0.0794472932816,0.0,0.0,-0.0016062297355
1505434027507786980,0.00799797767271,-0.136269772863,0.078356051445,0.0,0.0,-0.00109785407825
1505434027557950022,0.00835247449708,-0.149609944479,0.0768254637718,0.0,0.0,-0.000780843838488
1505434027607871073,0.0105182136708,-0.15727125968,0.0745339035988,0.0,0.0,-0.00142537489667
1505434027658511132,0.0114510265657,-0.145077532496,0.0727853417397,0.0,0.0,-0.00199477312121
1505434027707776407,0.0130301979091,-0.148620400449,0.0709497570992,0.0,0.0,-0.00259517430532
1505434027757896747,0.0134107308066,-0.142517548027,0.0693942546844,0.0,0.0,-0.00220721156476
1505434027807782088,0.0157235036958,-0.142054127398,0.0672822833061,0.0,0.0,-0.00296275215979
1505434027857934358,0.0202096837714,-0.139926110941,0.0641004681587,0.0,0.0,-0.00261043445135
1505434027907831395,0.017712232127,-0.120259207842,0.0617075800896,0.0,0.0,-0.0019937945835
1505434027957839754,0.0203220882242,-0.120405959347,0.0584127545357,0.0,0.0,-0.00216966785636
1505434028007840005,0.0252226104011,-0.104487955387,0.0538440585136,0.0,0.0,-0.00152862859313
1505434028058393522,0.0218631165283,-0.0959363209887,0.0497337222099,0.0,0.0,-0.00193961138397
1505434028107834437,0.0192292723769,-0.0922535621935,0.0464386582375,0.0,0.0,-0.00216029648173
1505434028157918435,0.0230947271031,-0.0730663777658,0.0416346430779,0.0,0.0,-0.00148408920403
1505434028207729722,0.0183548142135,-0.0763503712531,0.0382129788399,0.0,0.0,-0.00186876332485
1505434028257885695,0.0207166300373,-0.0624812595557,0.0339380741119,0.0,0.0,-0.00187650048407
1505434028307961427,0.0221884723982,-0.0397913573642,0.0287980675697,0.0,0.0,-0.00114018701765
1505434028358458837,0.0206064917947,-0.043922640424,0.0242195367813,0.0,0.0,-0.000193546960625
1505434028407685404,0.0200294546598,-0.0375215745117,0.0195027828217,0.0,0.0,-0.00147641003097
1505434028458007999,0.01858926333,-0.0424619314886,0.0159983277321,0.0,0.0,-0.00228185034674
1505434028507764157,0.0207320451924,-0.0279414166392,0.0117900013924,0.0,0.0,-0.00159749934908
1505434028558006406,0.0203654293999,-0.0191707667174,0.00795295238495,0.0,0.0,-0.00268234245467
1505434028607892948,0.0223084273362,-0.011753128288,0.00452806949615,0.0,0.0,-0.00338601244918
1505434028658442930,0.0275603733995,0.00451647928794,0.000911915302277,0.0,0.0,-0.00348038235878
1505434028707787269,0.0270158957891,-0.00350637334175,-0.00150105953217,0.0,0.0,-0.00424375515054
1505434028758268800,0.0255680055281,-0.0179104089185,-0.00294414758682,0.0,0.0,-0.00471844157949
1505434028807879343,0.0328557377424,0.0114349172381,-0.00450459718704,0.0,0.0,-0.00548584440488
1505434028857785617,0.0279458320574,-0.0152227913136,-0.00506440401077,0.0,0.0,-0.00594353051783
1505434028907720808,0.0321288727203,-0.00595023267126,-0.00533882379532,0.0,0.0,-0.00664054541979
1505434028958129949,0.0345696972939,0.00224635825332,-0.00509432554245,0.0,0.0,-0.00733879159346
1505434029007736060,0.0302931001423,-0.0231183681577,-0.00462517738342,0.0,0.0,-0.00755905871082
1505434029057795395,0.0340914142787,-0.010059884643,-0.00386521816254,0.0,0.0,-0.0085318688395
1505434029107866306,0.0300351879599,-0.0293310683746,-0.00326768159866,0.0,0.0,-0.00915064811596
1505434029157839720,0.029829691345,-0.0272574703633,-0.0024001955986,0.0,0.0,-0.00996266930971
1505434029207745550,0.0296793213553,-0.0302288154407,-0.00171760320663,0.0,0.0,-0.0103398063881
1505434029257749360,0.025918989557,-0.0419103195263,-0.00125012397766,0.0,0.0,-0.0105858763036
1505434029307724674,0.0235174268031,-0.0408784158868,-0.00065586566925,0.0,0.0,-0.0116267174021
1505434029357812371,0.0218014541638,-0.0417116764195,-4.31299209595e-05,0.0,0.0,-0.0125552839612
1505434029407712880,0.0200811279522,-0.043487325838,0.000569248199463,0.0,0.0,-0.0127948608257
1505434029458328323,0.019250799217,-0.0447648100125,0.00129410028458,0.0,0.0,-0.0135217584011
1505434029507712993,0.0173581068162,-0.0479271109207,0.0023662686348,0.0,0.0,-0.0140743033675
1505434029557910373,0.0162723588025,-0.0461985302119,0.00384172201157,0.0,0.0,-0.0149348813871
1505434029607766827,0.0192722437679,-0.046269177235,0.00491633415222,0.0,0.0,-0.0150928030868
1505434029657829944,0.0181700126433,-0.0445192434882,0.0064150929451,0.0,0.0,-0.0156246396213
1505434029707778011,0.0187113377594,-0.0425338936107,0.00800629854202,0.0,0.0,-0.0169829061607
1505434029757928521,0.020480640166,-0.0438394303652,0.0093156337738,0.0,0.0,-0.016599330479
1505434029807808381,0.0206799719854,-0.0404293518275,0.0105310320854,0.0,0.0,-0.0172054786382
1505434029857871215,0.0205803924076,-0.039132850689,0.0116834878922,0.0,0.0,-0.0181706279632
1505434029907787580,0.0229230014405,-0.0408100771911,0.0119714379311,0.0,0.0,-0.0182323826377
1505434029958490728,0.0216209000976,-0.0394356218831,0.0117538809776,0.0,0.0,-0.0193854834674
1505434030007820166,0.0194416068642,-0.0349931869484,0.0116203069687,0.0,0.0,-0.0206624065913
1505434030057760014,0.0169926360085,-0.0293594585585,0.0117001771927,0.0,0.0,-0.0213344341074
1505434030107875051,0.0149295690012,-0.0206941685965,0.0117772459984,0.0,0.0,-0.0223290877326
1505434030157841697,0.0146400486436,-0.0236881361077,0.0120532155037,0.0,0.0,-0.0224488136841
1505434030207784317,0.0109623979332,-0.0152062037682,0.0125465631485,0.0,0.0,-0.022844987423
1505434030258408080,0.00592858931375,-0.00301836935279,0.0133382916451,0.0,0.0,-0.023681856347
1505434030307861334,0.0101123558457,-0.0173135223957,0.0138025522232,0.0,0.0,-0.0241931551242
1505434030357834174,-0.00159598022394,0.00814373199192,0.0149007081985,0.0,0.0,-0.0245998605787
1505434030407758616,-0.00252584730706,0.00688038124679,0.0159852743149,0.0,0.0,-0.025160731962
1505434030458537665,-0.00503545033833,0.0107065550563,0.0171951889992,0.0,0.0,-0.026465468661
1505434030507761095,-0.00810929517156,0.0140347909403,0.0182018518448,0.0,0.0,-0.0274145026218
1505434030557865947,-0.0111836469385,0.0141935667168,0.0192194223404,0.0,0.0,-0.0285228847781
1505434030607788413,-0.0151450621384,0.0151269813925,0.0198170185089,0.0,0.0,-0.0295787569688
1505434030657772595,-0.0189725173309,0.0168388633059,0.020045363903,0.0,0.0,-0.0304969320737
1505434030707949201,-0.0219686586779,0.0215246328242,0.0200297474861,0.0,0.0,-0.031083357108
1505434030757900876,-0.0253634758775,0.0220970222592,0.019893848896,0.0,0.0,-0.0320189709859
1505434030807780416,-0.0284832732057,0.0245507948165,0.0194208264351,0.0,0.0,-0.0326420969905
1505434030857868994,-0.0315981454295,0.0242909924726,0.0186451911926,0.0,0.0,-0.0337910068944
1505434030907888166,-0.0333378908392,0.0268097000916,0.0176980137825,0.0,0.0,-0.0350889821533
1505434030957753436,-0.0347222249223,0.0294173489418,0.0166102290154,0.0,0.0,-0.0361983895528
1505434031007823810,-0.035352179805,0.0299308008674,0.0152125000954,0.0,0.0,-0.0368187343128
1505434031058296323,-0.0350929425447,0.0306747299987,0.013656103611,0.0,0.0,-0.0385532215357
1505434031107870213,-0.0339729235013,0.0340810825333,0.0116826534271,0.0,0.0,-0.0384557054791
1505434031157859544,-0.0331229973578,0.0355568492295,0.00952824354172,0.0,0.0,-0.0400183705349
1505434031207806642,-0.0320639639926,0.0362642051354,0.00760068893433,0.0,0.0,-0.0410030224791
1505434031257766149,-0.03001087073,0.0393052316422,0.00560387372971,0.0,0.0,-0.0426932576321
1505434031307766321,-0.0255898886244,0.0344752500625,0.00400432348251,0.0,0.0,-0.0429768520998
1505434031357832203,-0.0277122829656,0.0517403706747,0.00161280632019,0.0,0.0,-0.0438203709925
1505434031407818223,-0.0224544878587,0.0468497994862,3.03626060486e-05,0.0,0.0,-0.04508101143
1505434031457878815,-0.019976171866,0.0488391050863,-0.00149545669556,0.0,0.0,-0.0449983506811
1505434031507771616,-0.0180136317724,0.0491054893848,-0.00285015106201,0.0,0.0,-0.045540893775
1505434031558012842,-0.0160647552232,0.0508003148502,-0.00403366088867,0.0,0.0,-0.0458326533755
1505434031607873363,-0.0135988698096,0.0587393515315,-0.00529400110245,0.0,0.0,-0.0475867857765
1505434031658325332,-0.012138645044,0.0580582139727,-0.00594840049744,0.0,0.0,-0.048218522186
1505434031707800183,-0.011148494141,0.0638352921476,-0.00622127056122,0.0,0.0,-0.0491437763587
1505434031757844363,-0.0095515376772,0.0679334023046,-0.00641593933105,0.0,0.0,-0.0487134937241
1505434031807794545,-0.00904147455645,0.0714111267156,-0.00625232458115,0.0,0.0,-0.0497702239326
1505434031857802453,-0.00839818669106,0.0784695452944,-0.00584725141525,0.0,0.0,-0.0503302842416
1505434031907730973,-0.00804980885448,0.0828863107695,-0.00508157014847,0.0,0.0,-0.0509962707939
1505434031957776949,-0.00755437310632,0.086699883167,-0.00412789583206,0.0,0.0,-0.0520326713875
1505434032007871150,-0.00779511265103,0.0875355647423,-0.00276157855988,0.0,0.0,-0.0526210049113
1505434032057717937,-0.0082773373299,0.0903777497103,-0.00119647979736,0.0,0.0,-0.0535447545778
1505434032107975385,-0.00835230296762,0.0924303882324,0.000390017032623,0.0,0.0,-0.0538939840723
1505434032158185872,-0.00879274700624,0.0928606181648,0.00201150178909,0.0,0.0,-0.0554741614766
1505434032207801665,-0.00888913271408,0.0936445858348,0.00362368822098,0.0,0.0,-0.0565629096218
1505434032260664353,-0.00990965402389,0.0917550323092,0.00527145862579,0.0,0.0,-0.0576147366332
1505434032307787426,-0.00952257311078,0.0887601255496,0.00705119371414,0.0,0.0,-0.0587211885806
1505434032357836614,-0.00907080030637,0.0881419975947,0.00874515771866,0.0,0.0,-0.0596618216347
1505434032407793519,-0.00795369515208,0.0859460624892,0.0104089021683,0.0,0.0,-0.0608454193064
1505434032458992850,-0.0072875605633,0.0805849187902,0.0120328307152,0.0,0.0,-0.0619171214299
1505434032507860550,-0.00609203074092,0.0741269011981,0.0135545969009,0.0,0.0,-0.0633506541758
1505434032557879059,-0.0042789747674,0.0665132442056,0.0149778366089,0.0,0.0,-0.0646825337381
1505434032607776740,-0.00345513015309,0.0553964331969,0.0162975430489,0.0,0.0,-0.0653535010322
1505434032657945765,-0.000828267978002,0.0505322485241,0.0176018118858,0.0,0.0,-0.0667921578568
1505434032707868622,-0.000391165063973,0.0401348473529,0.018837416172,0.0,0.0,-0.067601032247
1505434032757754601,0.00110534605961,0.0273983147211,0.0199299693108,0.0,0.0,-0.0676666387508
1505434032807706735,0.00346883638597,0.0170839356565,0.0206859946251,0.0,0.0,-0.0696634855465
1505434032857855052,0.00608496522661,0.00980446259962,0.02076151371,0.0,0.0,-0.0690492912818
1505434032907756741,0.00710371474268,0.000908063788331,0.0204010844231,0.0,0.0,-0.0706716310307
1505434032957934812,0.00703071659849,-0.00502319091358,0.0200001239777,0.0,0.0,-0.0719344047442
1505434033007726303,0.00796850513496,-0.011878897229,0.0191245913506,0.0,0.0,-0.0711785263511
1505434033057785552,0.00645925451617,-0.0183856082763,0.0180862188339,0.0,0.0,-0.0721949012721
1505434033107877274,0.00609631610042,-0.0145902409468,0.0171302199364,0.0,0.0,-0.0733358026038
1505434033157813579,0.00819824689936,-0.0138324792757,0.0160095930099,0.0,0.0,-0.0718725985907
1505434033207862703,0.00976031747426,-0.0131208123993,0.0146543622017,0.0,0.0,-0.0732821690597
1505434033257897428,0.00957930551444,-0.00381130805118,0.0138312220573,0.0,0.0,-0.0735478822233
1505434033307825356,0.0107796489484,0.00137423294302,0.013288640976,0.0,0.0,-0.0725740300013
1505434033358439465,0.0128485975118,0.0104547220536,0.0128499507904,0.0,0.0,-0.0734325935638
1505434033407694717,0.0145530895386,0.0223337482698,0.0126011610031,0.0,0.0,-0.07419560401
1505434033457852338,0.0158656011845,0.0301553007697,0.0126254200935,0.0,0.0,-0.0741738336704
1505434033507827576,0.0150527418523,0.0414668641249,0.0126773357391,0.0,0.0,-0.074598926451
1505434033558321672,0.0217524140397,0.056956814472,0.0129513382912,0.0,0.0,-0.0752499880414
1505434033607852508,0.0202885957343,0.0650604758767,0.0135335564613,0.0,0.0,-0.0754871429183
1505434033657875688,0.0225680512132,0.0757192065104,0.0140122413635,0.0,0.0,-0.0761732465252
1505434033707725583,0.0233018446684,0.0837951640247,0.0144568324089,0.0,0.0,-0.0768519690772
1505434033758426762,0.0247206277243,0.0896880604334,0.0147727966309,0.0,0.0,-0.0779531557837
1505434033807811407,0.0253721870164,0.0974653937896,0.0147205233574,0.0,0.0,-0.0782918116973
1505434033858552566,0.0248088529909,0.0999473837156,0.0144689917564,0.0,0.0,-0.078941506727
1505434033907829844,0.0237746250593,0.09904253583,0.0139680743217,0.0,0.0,-0.0794761852643
1505434033957824465,0.0220455561406,0.102870287607,0.0132123470306,0.0,0.0,-0.0808195109971
1505434034007723185,0.0207378476224,0.105226748785,0.0122498512268,0.0,0.0,-0.0829190521216
1505434034058171799,0.0185130462234,0.10473777851,0.0109910011292,0.0,0.0,-0.0844437727131
1505434034107775396,0.014314366277,0.0988021934995,0.00981398820877,0.0,0.0,-0.084876538242
1505434034158308060,0.0108772446776,0.0995462819921,0.00882240533829,0.0,0.0,-0.0858493246262
1505434034207775033,0.00931740014243,0.100055197027,0.00792464017868,0.0,0.0,-0.0873810411868
1505434034257845152,0.00751743736797,0.0979302714294,0.00718160867691,0.0,0.0,-0.0880898970311
1505434034307744726,0.00595440516376,0.100629734949,0.00618114471436,0.0,0.0,-0.0887906623131
1505434034357966179,0.00414267063606,0.102096776352,0.0050945520401,0.0,0.0,-0.0896623486485
1505434034407772450,0.0021117838639,0.100370420754,0.00388797521591,0.0,0.0,-0.0900989940294
1505434034457811120,0.00277221886578,0.0896319784453,0.00288453102112,0.0,0.0,-0.0895017929938
1505434034507765319,-0.00396608745693,0.0997258438752,0.001282954216,0.0,0.0,-0.0900969183863
1505434034557826747,-0.00458239543929,0.0903999740716,1.7786026001e-05,0.0,0.0,-0.0902583624939
1505434034607800072,-0.0063245725886,0.0845852444339,-0.00113359689713,0.0,0.0,-0.0903406461692
1505434034657862808,-0.0076550462024,0.0809574442774,-0.00252554416656,0.0,0.0,-0.0908364885295
1505434034707838938,-0.00922710150452,0.0745837431143,-0.00396529436111,0.0,0.0,-0.0913645384564
1505434034758398524,-0.00937801119188,0.0724912608478,-0.00548568964005,0.0,0.0,-0.0927149745823
1505434034807863089,-0.00959837474189,0.0660561993083,-0.00676206350327,0.0,0.0,-0.0928263188134
1505434034858110723,-0.00896464933924,0.0615710277446,-0.00787303447723,0.0,0.0,-0.093249301485
1505434034907795435,-0.00922983432097,0.060260007316,-0.00909850597382,0.0,0.0,-0.0937336909438
1505434034957874845,-0.00780760641169,0.0574850623069,-0.0101560711861,0.0,0.0,-0.094232228086
1505434035007870466,-0.00655981241999,0.052430823681,-0.0108425378799,0.0,0.0,-0.0945079826878
1505434035057785280,-0.0062353515316,0.0484487771036,-0.0117729067802,0.0,0.0,-0.0947559275878
1505434035107819025,-0.00619101254871,0.0430776061553,-0.0128727316856,0.0,0.0,-0.0954982418492
1505434035157980599,-0.00583770975795,0.0396837959633,-0.0141407608986,0.0,0.0,-0.0955688093717
1505434035207840206,-0.00638703509924,0.0346722535979,-0.015304005146,0.0,0.0,-0.0952511652874
1505434035257764395,-0.00911545996222,0.0329810906958,-0.0168009757996,0.0,0.0,-0.0944374892321
1505434035307906856,-0.0100684516214,0.026801770506,-0.0190191626549,0.0,0.0,-0.0933691587087
1505434035357978963,-0.0120412330655,0.0235847970278,-0.0213774800301,0.0,0.0,-0.0924385312875
1505434035408701128,-0.0120337729609,0.0246864542986,-0.0234089851379,0.0,0.0,-0.0914649382187
1505434035458441733,-0.0120212445618,0.0281308580257,-0.025378203392,0.0,0.0,-0.0908584949417
1505434035507894806,-0.0101678189232,0.0318533283277,-0.0273132681847,0.0,0.0,-0.0895025568587
1505434035557853195,-0.00938161890022,0.0360610596349,-0.028993999958,0.0,0.0,-0.0891013751238
1505434035607844740,-0.0080721996659,0.0428618374684,-0.0307548999786,0.0,0.0,-0.0881269756139
1505434035658637635,-0.010820775914,0.0366122534921,-0.1,0.0,0.0,-0.138098526001
1505434035707875243,-0.00870610682077,0.035538160891,-0.1,0.0,0.0,-0.128191680908
1505434035758463144,-0.00859063260449,0.0528071269759,-0.1,0.0,0.0,-0.139623260498
1505434035807874315,-0.0066586326633,0.0502306307711,-0.1,0.0,0.0,-0.124823532104
1505434035857775395,-0.00566593579409,0.0533412769867,-0.1,0.0,0.0,-0.140543060303
1505434035907806638,-0.00632348878911,0.0586270667598,-0.1,0.0,0.0,-0.132707366943
1505434035958295290,-0.00457813135448,0.0594543812002,-0.1,0.0,0.0,-0.131426391602
1505434036007778148,-0.00372834331138,0.0614046756464,-0.1,0.0,0.0,-0.142392578125
1505434036058488858,-0.00265016208687,0.0645299290928,-0.1,0.0,0.0,-0.145941009521
1505434036107791577,-0.00155742527883,0.0641336445882,-0.1,0.0,0.0,-0.108201293945
1505434036158324297,-0.000761582570602,0.0632856280543,-0.1,0.0,0.0,-0.136819229126
1505434036207745063,0.000261187332236,0.0627209671703,-0.1,0.0,0.0,-0.128301391602
1505434036257905571,0.000832048048184,0.060384350613,-0.1,0.0,0.0,-0.130928649902
1505434036307890201,-0.000926589938123,0.0592788258071,-0.1,0.0,0.0,-0.126224975586
1505434036357804980,0.00368428385425,0.0575347095473,-0.1,0.0,0.0,-0.133607559204
1505434036407763117,0.00210597397928,0.0583174530323,-0.1,0.0,0.0,-0.098323059082
1505434036457809847,0.0019722724347,0.0552979128388,-0.1,0.0,0.0,-0.109053955078
1505434036507891505,0.00152044943233,0.0581388215153,-0.1,0.0,0.0,-0.111198883057
1505434036557843792,0.00195001824824,0.0558429956908,-0.1,0.0,0.0,-0.109976577759
1505434036607785376,-0.000829569760566,0.0547441689362,-0.1,0.0,0.0,-0.110562515259
1505434036657859515,-0.00270043308769,0.0573432371737,-0.1,0.0,0.0,-0.109750976563
1505434036707727287,-0.00352493229077,0.0569733838357,0.0,0.0,0.0,0.0
1505434036757815759,-0.00398463458248,0.0591096789154,0.0,0.0,0.0,0.0
1505434036807820407,-0.00402833683911,0.0569414057976,0.0,0.0,0.0,0.0
1505434036859023301,-0.00605500804286,0.0614453834222,0.0,0.0,0.0,0.0
1505434036907815048,-0.00461065064798,0.0499558765298,0.0,0.0,0.0,0.0
1505434036957813325,-0.00666902061416,0.0567459160634,0.0,0.0,0.0,0.0
1505434037007864986,-0.00666127490411,0.0567022690983,0.0,0.0,0.0,0.0
1505434037058405693,-0.00534632329201,0.0402827057007,0.0,0.0,0.0,0.0
1505434037107857995,-0.00543568429242,0.044744521541,0.0,0.0,0.0,0.0
1505434037158219522,-0.00429311385502,0.0351102671493,0.0,0.0,0.0,0.0
1505434037207809284,-0.00368001993928,0.0304578507813,0.0,0.0,0.0,0.0
1505434037258416267,-0.00176649172277,0.0245920924054,0.0,0.0,0.0,0.0
1505434037307852325,0.000962892163052,0.0214454799712,0.0,0.0,0.0,0.0
1505434037358580929,0.00308852853821,0.0180328171354,0.0,0.0,0.0,0.0
1505434037408566222,0.00278280639396,0.0228860396484,0.0,0.0,0.0,0.0
1505434037457945042,0.0101674738559,-0.00668878845208,0.0,0.0,0.0,0.0
1505434037507781582,0.00915576061858,0.000110242509084,0.0,0.0,0.0,0.0
1505434037557890199,0.0106892289351,-0.0057175399686,0.0,0.0,0.0,0.0
1505434037607811659,0.011829707872,-0.011598713906,0.0,0.0,0.0,0.0
1505434037657850306,0.0129511101688,-0.015921237096,0.0,0.0,0.0,0.0
1505434037707918100,0.0131195139456,-0.0205108189928,0.0,0.0,0.0,0.0
1505434037757816323,0.0131026474507,-0.0267548637083,0.0,0.0,0.0,0.0
1505434037807683151,0.0114533333466,-0.0357073125018,0.0,0.0,0.0,0.0
1505434037857837381,0.00782072233638,-0.0362635852339,0.0,0.0,0.0,0.0
1505434037907843668,0.00438299060254,-0.0352004737291,0.0,0.0,0.0,0.0
1505434037957739249,0.00263077212756,-0.0377711755521,0.0,0.0,0.0,0.0
1505434038007711134,0.000478083619249,-0.0319670989255,0.0,0.0,0.0,0.0
1505434038057864660,-0.00319542500571,-0.0272957845357,0.0,0.0,0.0,0.0
1505434038107828154,-0.00685262490334,-0.0201927673261,0.0,0.0,0.0,0.0
1505434038158468133,-0.00935606778704,-0.0121998807231,0.0,0.0,0.0,0.0
1505434038207858948,-0.0115146892201,-0.00351738115541,0.0,0.0,0.0,0.0
1505434038257815670,-0.00952065170314,0.0455298175539,0.0,0.0,0.0,0.0
1505434038307768054,-0.00999210581878,0.0515585748409,0.0,0.0,0.0,0.0
1505434038358019552,-0.0102985480666,0.0581787599858,0.0,0.0,0.0,0.0
1505434038407763159,-0.0109951969258,0.0621691944497,0.0,0.0,0.0,0.0
1505434038457804441,-0.0108424876376,0.0651662056426,0.0,0.0,0.0,0.0
1505434038507890917,-0.0106798362085,0.0656301938376,0.0,0.0,0.0,0.0
1505434038557800538,-0.0102444207809,0.0611258269243,0.0,0.0,0.0,0.0
1505434038607827138,-0.00971851146906,0.057668844893,0.0,0.0,0.0,0.0
1505434038658075988,-0.00869004391798,0.0528965246325,0.0,0.0,0.0,0.0
1505434038707732615,-0.00767236076312,0.0464167748292,0.0,0.0,0.0,0.0
1505434038757825034,-0.00664821834788,0.0372409560745,0.0,0.0,0.0,0.0
1505434038808007117,-0.00615254581469,0.0285694735393,0.0,0.0,0.0,0.0
1505434038857912917,-0.00574245229726,0.0206189017404,0.0,0.0,0.0,0.0
1505434038907803240,-0.00532876743686,0.00865636266872,0.0,0.0,0.0,0.0
1505434038957789914,-0.00446207584426,0.0118801259212,0.0,0.0,0.0,0.0
1505434039008199798,-0.00335277336803,-0.0266688390593,0.0,0.0,0.0,0.0
1505434039058308808,-0.0017889325622,-0.0296527975796,0.0,0.0,0.0,0.0
1505434039107703014,-0.0011209048488,-0.0366024134236,0.0,0.0,0.0,0.0
1505434039158412574,-0.00141857996197,-0.0455529469345,0.0,0.0,0.0,0.0
1505434039207705510,-0.00352906902395,-0.0513562533133,0.0,0.0,0.0,0.0
1505434039257719895,-0.00446606441337,-0.0336287741343,0.0,0.0,0.0,0.0
1505434039307830586,-0.0119630057162,-0.0906909938342,0.0,0.0,0.0,0.0
1505434039357993987,-0.0149739222657,-0.062850296132,0.0,0.0,0.0,0.0
1505434039407765837,-0.0184865834773,-0.058367672697,0.0,0.0,0.0,0.0
1505434039458463316,-0.0205102303902,-0.0522724385922,0.0,0.0,0.0,0.0
1505434039507883143,-0.0222645180402,-0.0477356981534,0.0,0.0,0.0,0.0
1505434039557946076,-0.0231649530396,-0.0378016523476,0.0,0.0,0.0,0.0
1505434039607918507,-0.0238994902661,-0.0277051199766,0.0,0.0,0.0,0.0
1505434039657883262,-0.0258979574443,-0.0246700957837,0.0,0.0,0.0,0.0
1505434039707853309,-0.0268417833096,-0.0169098244266,0.0,0.0,0.0,0.0
1505434039757867456,-0.0274842386255,-0.0108922760861,0.0,0.0,0.0,0.0
1505434039807861107,-0.0280154687142,-0.00449309267216,0.0,0.0,0.0,0.0
1505434039858363414,-0.0277691587984,0.00204860787651,0.0,0.0,0.0,0.0
1505434039907829883,-0.0278032594171,0.0104002527969,0.0,0.0,0.0,0.0
1505434039958313910,-0.0281622519473,0.0159140605422,0.0,0.0,0.0,0.0
1505434040007846344,-0.0295042572113,0.0185276840623,0.0,0.0,0.0,0.0
1505434040057883449,-0.0292161784264,0.0221064915146,0.0,0.0,0.0,0.0
1505434040107773330,-0.0297184760916,0.0249103637184,0.0,0.0,0.0,0.0
1505434040158364945,-0.0290408579337,0.0264038305163,0.0,0.0,0.0,0.0
1505434040207843403,-0.0287715977026,0.0294173761976,0.0,0.0,0.0,0.0
1505434040258232179,-0.0271475727739,0.0301059722913,0.0,0.0,0.0,0.0
1505434040307870018,-0.0260933104,0.0319416077858,0.0,0.0,0.0,0.0
1505434040358258135,-0.024037644316,0.0350845703562,0.0,0.0,0.0,0.0
1505434040407877448,-0.0229928768568,0.0373154851079,0.0,0.0,0.0,0.0
1505434040457902360,-0.0209659922247,0.0353056206388,0.0,0.0,0.0,0.0
1505434040507808369,-0.0192665392384,0.0370726861469,0.0,0.0,0.0,0.0
1505434040557825020,-0.0162762348892,0.0367635516046,0.0,0.0,0.0,0.0
1505434040607979007,-0.0143045494587,0.0351039788862,0.0,0.0,0.0,0.0
1505434040657843089,-0.0127571425583,0.0321070951346,0.0,0.0,0.0,0.0
1505434040707749754,-0.0122571615467,0.0288026025772,0.0,0.0,0.0,0.0
1505434040757775972,-0.0121501543713,0.0281505164515,0.0,0.0,0.0,0.0
1505434040807789542,-0.0120624109508,0.0251243198404,0.0,0.0,0.0,0.0
1505434040857922519,-0.012338538582,0.0237379414255,0.0,0.0,0.0,0.0
1505434040907754471,-0.0139446710719,0.0211582344157,0.0,0.0,0.0,0.0
1505434040958410189,-0.0149368490094,0.0214045877305,0.0,0.0,0.0,0.0
1505434041007767455,-0.0157320580722,0.022068204142,0.0,0.0,0.0,0.0
1505434041057790871,-0.0162967475054,0.0242272984492,0.0,0.0,0.0,0.0
1505434041107764064,-0.0173716463765,0.0246102922045,0.0,0.0,0.0,0.0
1505434041157936113,-0.0187348681521,0.0235516650115,0.0,0.0,0.0,0.0
1505434041207771685,-0.0209631745745,0.0260888915712,0.0,0.0,0.0,0.0
1505434041257830621,-0.0237925732204,0.0264268108603,0.0,0.0,0.0,0.0
1505434041307669795,-0.026012487021,0.0287916411709,0.0,0.0,0.0,0.0
1505434041357816693,-0.0276156939117,0.0346569173774,0.0,0.0,0.0,0.0
1505434041407781975,-0.0275076054615,0.0384842908797,0.0,0.0,0.0,0.0
1505434041457781112,-0.0266286902218,0.044533657656,0.0,0.0,0.0,0.0
1505434041507711348,-0.0250380502878,0.0477440762718,0.0,0.0,0.0,0.0
1505434041558212318,-0.0237532809224,0.0514143212127,0.0,0.0,0.0,0.0
1505434041607948794,-0.0223582778379,0.0555673553648,0.0,0.0,0.0,0.0
1505434041657969294,-0.0205627907742,0.0571212793454,0.0,0.0,0.0,0.0
1505434041707886648,-0.0189862867122,0.0559930843906,0.0,0.0,0.0,0.0
1505434041758132648,-0.0180899049893,0.0551552427753,0.0,0.0,0.0,0.0
1505434041807884504,-0.0160440553586,0.050893592465,0.0,0.0,0.0,0.0
1505434041858700405,-0.0134437664728,0.0473323744623,0.0,0.0,0.0,0.0
1505434041907779196,-0.0104443273461,0.0425540748845,0.0,0.0,0.0,0.0
1505434041957881244,-0.007985084755,0.0385383513252,0.0,0.0,0.0,0.0
1505434042007789941,-0.00629334058871,0.0311859544554,0.0,0.0,0.0,0.0
1505434042057894093,-0.00458742423655,0.024029627388,0.0,0.0,0.0,0.0
1505434042107823005,-0.00239049452298,0.014865530641,0.0,0.0,0.0,0.0
1505434042157825256,6.28610221338e-06,0.00731401014145,0.0,0.0,0.0,0.0
1505434042207767182,0.0025223977682,-0.00167955596774,0.0,0.0,0.0,0.0
1505434042258277941,0.00221403808083,-0.0089981629697,0.0,0.0,0.0,0.0
1505434042308080685,0.0032202473481,-0.0152907154504,0.0,0.0,0.0,0.0
1505434042357870893,-0.000671829979786,-0.0201294667175,0.0,0.0,0.0,0.0
1505434042407759790,0.00695869236129,-0.0292066142513,0.0,0.0,0.0,0.0
1505434042457845692,0.0035903411287,-0.0344214655183,0.0,0.0,0.0,0.0
1505434042507765640,0.00105142506365,-0.0243112387607,0.0,0.0,0.0,0.0
1505434042557863216,0.00569340400971,-0.0292294146006,0.0,0.0,0.0,0.0
1505434042607759694,0.0121726267167,-0.0294763861309,0.0,0.0,0.0,0.0
1505434042657935832,0.0114779960922,-0.0199972597315,0.0,0.0,0.0,0.0
1505434042707772780,0.0142905584646,-0.0164646502915,0.0,0.0,0.0,0.0
1505434042758936729,0.0183039830528,-0.0137766228804,0.0,0.0,0.0,0.0
1505434042807732069,0.0227978618636,-0.015318223231,0.0,0.0,0.0,0.0
1505434042857865805,0.0257308948948,-0.0181904514388,0.0,0.0,0.0,0.0
1505434042907893426,0.0277630410078,-0.0228622816185,0.0,0.0,0.0,0.0
1505434042957876477,0.028505294448,-0.0279370140979,0.0,0.0,0.0,0.0
1505434043007903633,0.0272873739316,-0.0327395186951,0.0,0.0,0.0,0.0
1505434043057791763,0.0259219191818,-0.0345519189057,0.0,0.0,0.0,0.0
1505434043107759167,0.0246768655793,-0.0380619787593,0.0,0.0,0.0,0.0
1505434043157803012,0.023312095379,-0.0432593675494,0.0,0.0,0.0,0.0
1505434043207744567,0.0233933362158,-0.0492228651614,0.0,0.0,0.0,0.0
1505434043257770200,0.0220908996268,-0.0532904461092,0.0,0.0,0.0,0.0
1505434043307815267,0.0198204855037,-0.0535181534209,0.0,0.0,0.0,0.0
1505434043357885501,0.0192961083779,-0.0546220555567,0.0,0.0,0.0,0.0
1505434043407766256,0.020464735579,-0.0538422250898,0.0,0.0,0.0,0.0
1505434043457907381,0.0210887758243,-0.0566567070044,0.0,0.0,0.0,0.0
1505434043507791784,0.0217837202696,-0.0584648602648,0.0,0.0,0.0,0.0
1505434043558458191,0.0224762417421,-0.0578894778534,0.0,0.0,0.0,0.0
1505434043607779947,0.0242578116263,-0.0565414450655,0.0,0.0,0.0,0.0
1505434043657872536,0.0255303601811,-0.0582311873672,0.0,0.0,0.0,0.0
1505434043707880189,0.0266052870394,-0.0588589978837,0.0,0.0,0.0,0.0
1505434043757863881,0.0275339852593,-0.0555210459464,0.0,0.0,0.0,0.0
1505434043807844983,0.02774500492,-0.0559650576379,0.0,0.0,0.0,0.0
1505434043857748899,0.0278159471773,-0.0551968038416,0.0,0.0,0.0,0.0
1505434043907811741,0.0291717640229,-0.0525659309257,0.0,0.0,0.0,0.0
1505434043957820368,0.0307786744968,-0.0474264696774,0.0,0.0,0.0,0.0
1505434044008007614,0.0317202560233,-0.0405333618775,0.0,0.0,0.0,0.0
1505434044057934909,0.033052946737,-0.0364161559402,0.0,0.0,0.0,0.0
1505434044108080334,0.0307677350173,-0.0347540037909,0.0,0.0,0.0,0.0
1505434044158105328,0.0300809457615,0.0226144361279,-0.1,0.0,0.0,-0.0568196868896
1505434044208221704,0.0286183459139,0.0251031592841,-0.1,0.0,0.0,-0.0513156890869
1505434044257924175,0.0280662966753,0.0273067158148,-0.1,0.0,0.0,-0.0473243713379
1505434044307796130,0.0240228476173,0.0284936591935,-0.1,0.0,0.0,-0.0486344909668
1505434044358257796,0.0200652754872,0.0311754994446,-0.1,0.0,0.0,-0.0597311401367
1505434044407765715,0.0183690484556,0.0354403607766,-0.1,0.0,0.0,-0.0574870300293
1505434044457807278,0.0168196071569,0.0381674075829,-0.1,0.0,0.0,-0.0511584472656
1505434044507763117,0.0151190509172,0.0369599696652,-0.1,0.0,0.0,-0.0616530609131
1505434044558434993,0.0141028223045,0.0353532846095,-0.1,0.0,0.0,-0.0537066650391
1505434044607746128,0.0127777501008,0.0308369645158,-0.1,0.0,0.0,-0.0558023071289
1505434044657906499,0.012491835711,0.0292672158596,-0.1,0.0,0.0,-0.062314453125
1505434044707791640,0.0103838953168,0.0208762033926,-0.1,0.0,0.0,-0.0616477966309
1505434044758552362,0.0106227367943,0.0190476282749,-0.1,0.0,0.0,-0.0559027862549
1505434044807749155,0.0102025490167,0.0152038387985,-0.1,0.0,0.0,-0.0627398681641
1505434044857775954,0.0104566663788,0.0140578578372,-0.1,0.0,0.0,-0.0575945281982
1505434044907750847,0.0107267482614,0.00880240875369,-0.1,0.0,0.0,-0.0601749420166
1505434044957926931,0.00983743359659,0.00604700905072,-0.1,0.0,0.0,-0.0527127075195
1505434045007839779,0.00999326909658,0.00194802060455,-0.1,0.0,0.0,-0.0626142120361
1505434045058039340,0.0101507828468,0.00095724929304,-0.1,0.0,0.0,-0.0582209014893
1505434045107685243,0.0115310027025,-0.00387058934801,-0.1,0.0,0.0,-0.0647644042969
1505434045157743287,0.0121726370008,-0.00387212250868,-0.1,0.0,0.0,-0.0465224456787
1505434045207797673,0.0125266290949,-0.00703418161818,-0.1,0.0,0.0,-0.0512351989746
1505434045257760125,0.0135864414432,-0.00788688624747,-0.1,0.0,0.0,-0.0495970153809
1505434045307836612,0.0134093070415,-0.00749047608845,-0.1,0.0,0.0,-0.0458874511719
1505434045357962022,0.0128361056149,-0.0113589258736,-0.1,0.0,0.0,-0.0508298492432
1505434045407812137,0.0165950831149,-0.00611005903863,-0.1,0.0,0.0,-0.046745300293
1505434045458347974,0.01719067645,-0.00862270643149,-0.1,0.0,0.0,-0.051365814209
1505434045507852399,0.0151983822347,-0.00855966170858,-0.1,0.0,0.0,-0.0468179321289
1505434045557811314,0.0167313394721,-0.00974106705029,-0.1,0.0,0.0,-0.0414840698242
1505434045607993333,0.0193786018502,-0.00786339907093,-0.1,0.0,0.0,-0.0418949890137
1505434045658382939,0.0183432555828,-0.0112710575472,-0.1,0.0,0.0,-0.0438932800293
1505434045707824350,0.0166912281227,-0.00975259307679,-0.1,0.0,0.0,-0.0400859069824
1505434045757857113,0.0204240843973,-0.00750320517884,-0.1,0.0,0.0,-0.0458903503418
1505434045807838400,0.0175419756865,-0.00699230950552,-0.1,0.0,0.0,-0.0389685058594
1505434045857815429,0.0152110371825,-0.00893968153441,-0.1,0.0,0.0,-0.0403746032715
1505434045907968011,0.0157310336152,-0.00856140447053,-0.1,0.0,0.0,-0.0368006896973
1505434045958108886,0.012873499922,-0.00915678937396,-0.1,0.0,0.0,-0.0310401916504
1505434046007707120,0.00875032537542,-0.0122451762368,-0.1,0.0,0.0,-0.0231185150146
1505434046058597747,0.00445322893542,-0.0171537410885,-0.1,0.0,0.0,-0.0190904998779
1505434046107856317,-0.00447935405305,-0.00649484886994,-0.1,0.0,0.0,-0.0239044189453
1505434046158054920,-0.00818931814597,-0.00312868466587,-0.1,0.0,0.0,-0.0196734619141
1505434046207810232,-0.00879135656865,-0.00283840579301,-0.1,0.0,0.0,-0.0159376525879
1505434046257993342,-0.021118065728,0.0136437082736,-0.1,0.0,0.0,-0.0143031311035
1505434046307831826,-0.0213244336987,0.014029341979,-0.1,0.0,0.0,-0.0143031311035
1505434046357782789,-0.0174542540031,0.0104382542908,-0.1,0.0,0.0,-0.0133190917969
1505434046407686370,-0.0311521211688,0.0206680020899,-0.1,0.0,0.0,-0.0138609313965
1505434046457926023,-0.0303139568545,0.0224333226569,-0.1,0.0,0.0,-0.0123380279541
1505434046508124669,-0.0246456447593,0.00972503124714,-0.1,0.0,0.0,-0.00943923950195
1505434046557801815,-0.0396597821354,0.0261267605188,-0.1,0.0,0.0,-0.00755973815918
1505434046607853357,-0.028596157004,0.0115559259526,-0.1,0.0,0.0,-0.00914016723633
1505434046657862178,-0.0415518353915,0.0338824552197,-0.1,0.0,0.0,-0.00707550048828
1505434046707755701,-0.0375725015299,0.0306589485879,-0.1,0.0,0.0,-0.00410331726074
1505434046757802879,-0.0292175370867,0.0205850211251,0.0,0.0,0.0,0.0
1505434046807864891,-0.0410444826734,0.0376108659667,-0.1,0.0,0.0,0.00375778198242
1505434046858371263,-0.0367558719667,0.0348827059464,-0.1,0.0,0.0,0.00601295471191
1505434046907734329,-0.028996391765,0.031153237002,-0.1,0.0,0.0,0.0118221282959
1505434046958291258,-0.0387492048564,0.0503341642533,-0.1,0.0,0.0,0.00145355224609
1505434047007792311,-0.0354451485856,0.0514097022625,-0.1,0.0,0.0,0.0099845123291
1505434047057805465,-0.0354689133719,0.0511350473126,-0.1,0.0,0.0,0.018607635498
1505434047107812579,-0.0364658869351,0.0564076891399,-0.1,0.0,0.0,0.0161196899414
1505434047158478149,-0.0379268437379,0.0635841279993,-0.1,0.0,0.0,0.0189527893066
1505434047207673049,-0.0383448513533,0.0698658061944,-0.1,0.0,0.0,0.0189936065674
1505434047257876014,-0.036803734498,0.0699273245902,-0.1,0.0,0.0,0.0155389404297
1505434047307822981,-0.0294962124781,0.057736208129,-0.1,0.0,0.0,0.00729133605957
1505434047357812122,-0.0366754322489,0.0796404420918,-0.1,0.0,0.0,0.0141429138184
1505434047407746908,-0.029741738484,0.067315775352,-0.1,0.0,0.0,0.0169844055176
1505434047457777738,-0.0223196373814,0.0459518393684,-0.1,0.0,0.0,0.0239483642578
1505434047507697824,-0.0273501974216,0.0723700293242,-0.1,0.0,0.0,0.0218681335449
1505434047557825670,-0.0202326358265,0.0476269807328,-0.1,0.0,0.0,0.0166020965576
1505434047607739876,-0.0154679564902,0.0349566371461,-0.1,0.0,0.0,0.0236136627197
1505434047657803850,-0.0168041419373,0.0498302767884,-0.1,0.0,0.0,0.0265263366699
1505434047707799118,-0.0125036852964,0.0383470119556,-0.1,0.0,0.0,0.0155752563477
1505434047757795618,-0.00995362496852,0.0297929687118,-0.1,0.0,0.0,0.0236444854736
1505434047807761797,-0.0102552579525,0.0421552762663,-0.1,0.0,0.0,0.0238892364502
1505434047858505584,-0.00952146123677,0.0298426132656,-0.1,0.0,0.0,0.0176789093018
1505434047907775697,-0.0114015984977,0.0264078109547,-0.1,0.0,0.0,0.0168321228027
1505434047957837879,-0.0123932559448,0.0258349111011,-0.1,0.0,0.0,0.0162307739258
1505434048007760879,-0.0140152278358,0.0229322031585,-0.1,0.0,0.0,0.0193766784668
1505434048057881628,-0.0158668702672,0.0200779448921,-0.1,0.0,0.0,0.0146343994141
1505434048107797274,-0.0192923504428,0.0187619896454,-0.1,0.0,0.0,0.010806427002
1505434048158262648,-0.0216274676814,0.015384461039,-0.1,0.0,0.0,0.00941123962402
1505434048207766075,-0.023449272813,0.0125933584747,-0.1,0.0,0.0,0.0142807769775
1505434048258263666,-0.0263866075176,0.00899844098511,-0.1,0.0,0.0,0.0104291534424
1505434048307784935,-0.0295417120708,0.00850026073857,-0.1,0.0,0.0,0.00669120788574
1505434048357753356,-0.0320962063957,0.011673969938,-0.1,0.0,0.0,0.00366096496582
1505434048407804300,-0.0335065783215,0.0182793308575,-0.1,0.0,0.0,0.00366096496582
1505434048457738766,-0.0361702588602,0.022252833792,-0.1,0.0,0.0,0.00158554077148
1505434048507741397,-0.0358892592077,0.0293948339432,-0.1,0.0,0.0,-0.00674644470215
1505434048557830750,-0.0351241217821,0.0350597607405,-0.1,0.0,0.0,-0.0042406463623
1505434048607915144,-0.034475066916,0.0401580322393,-0.1,0.0,0.0,-0.00870559692383
1505434048657821156,-0.0338683801473,0.0440102464013,-0.1,0.0,0.0,-0.00989608764648
1505434048707800613,-0.0327897044347,0.0457563299574,-0.1,0.0,0.0,-0.00989608764648
1505434048758327909,-0.0318266860929,0.0487881288414,-0.1,0.0,0.0,-0.0132810211182
1505434048807876140,-0.0326412355729,0.0497567456404,-0.1,0.0,0.0,-0.0132888031006
1505434048857967089,-0.0304701070621,0.0492815521088,-0.1,0.0,0.0,-0.00601501464844
1505434048907925790,-0.0335606719836,0.0505355843958,-0.1,0.0,0.0,-0.00807235717773
1505434048958491588,-0.0353942020959,0.0535022435321,-0.1,0.0,0.0,-0.00618385314941
1505434049007895532,-0.0322523066114,0.051995965687,-0.1,0.0,0.0,-0.00609893798828
1505434049057778774,-0.034541926172,0.0512312462374,-0.1,0.0,0.0,7.63702392578e-05
1505434049107815586,-0.0360383871251,0.0524865648293,-0.1,0.0,0.0,-0.00346778869629
1505434049158324752,-0.0324136229154,0.0501281251341,-0.1,0.0,0.0,-0.00172203063965
1505434049207824688,-0.0344069133357,0.0424858555534,-0.1,0.0,0.0,-0.00249526977539
1505434049257854067,-0.03465895274,0.0402714619552,-0.1,0.0,0.0,3.92913818359e-05
1505434049307818881,-0.0315715127225,0.0389175241595,-0.1,0.0,0.0,0.0033464050293
1505434049358397618,-0.033476253646,0.0269205435132,-0.1,0.0,0.0,0.00366966247559
1505434049407796501,-0.0349162725864,0.0275489031188,-0.1,0.0,0.0,-0.000356292724609
1505434049458388560,-0.0319639007142,0.0241999265031,-0.1,0.0,0.0,0.00556854248047
1505434049507725862,-0.0341272774133,0.0229568173686,-0.1,0.0,0.0,0.00569229125977
1505434049557832109,-0.035283319489,0.0260872068103,-0.1,0.0,0.0,0.00394302368164
1505434049607970960,-0.0203437795559,0.0180934187852,0.0,0.0,0.0,0.0
1505434049657760048,-0.0194284466565,0.021805915906,0.0,0.0,0.0,0.0
1505434049707875774,-0.0185857237485,0.0242235252494,0.0,0.0,0.0,0.0
1505434049757877820,-0.0173755376471,0.0307435446616,0.0,0.0,0.0,0.0
1505434049807848299,-0.0179469178905,0.0369444713102,0.0,0.0,0.0,0.0
1505434049857836072,-0.0157982692202,0.0396318613129,0.0,0.0,0.0,0.0
1505434049907747795,-0.013819503095,0.0497928346459,0.0,0.0,0.0,0.0
1505434049957808931,-0.0153320723733,0.059057852588,0.0,0.0,0.0,0.0
1505434050007896292,-0.0140304361028,0.0561377357134,0.0,0.0,0.0,0.0
1505434050057986735,-0.010324833101,0.0681490953478,0.0,0.0,0.0,0.0
1505434050107925460,-0.011494365462,0.0768742322957,0.0,0.0,0.0,0.0
1505434050158539277,-0.0114571854121,0.0683390932437,0.0,0.0,0.0,0.0
1505434050207837162,-0.00854277135359,0.0817377392147,0.0,0.0,0.0,0.0
1505434050257857401,-0.0107659509991,0.0898346805061,0.0,0.0,0.0,0.0
1505434050307871201,-0.0108646502299,0.0807234576914,0.0,0.0,0.0,0.0
1505434050358418461,-0.00905622058993,0.0955206101419,0.0,0.0,0.0,0.0
1505434050407886734,-0.0105204448514,0.0935538778685,0.0,0.0,0.0,0.0
1505434050457863435,-0.0104098653616,0.0814509535119,0.0,0.0,0.0,0.0
1505434050507810790,-0.0103131006469,0.104639411596,0.0,0.0,0.0,0.0
1505434050557728473,-0.0103042379486,0.082198384089,0.0,0.0,0.0,0.0
1505434050607836257,-0.00982141635549,0.104815639901,0.0,0.0,0.0,0.0
1505434050657769025,-0.00949728609341,0.0877084355883,0.0,0.0,0.0,0.0
1505434050707745494,-0.00947530965585,0.0741238866118,0.0,0.0,0.0,0.0
1505434050757818810,-0.00882272869267,0.0911829866717,0.0,0.0,0.0,0.0
1505434050807765798,-0.00802218813321,0.0695854564749,0.0,0.0,0.0,0.0
1505434050857861157,-0.00813312422241,0.0601729435273,0.0,0.0,0.0,0.0
1505434050907808447,-0.00822930832252,0.0634969617266,0.0,0.0,0.0,0.0
1505434050958316411,-0.00786726693767,0.0469988475046,0.0,0.0,0.0,0.0
1505434051007705364,-0.00831582802065,0.0392171704658,0.0,0.0,0.0,0.0
1505434051057899842,-0.00840700683792,0.0272574489171,0.0,0.0,0.0,0.0
1505434051107864430,-0.00870103740743,0.0191121865919,0.0,0.0,0.0,0.0
1505434051157830339,-0.00927148847963,0.0162328306055,0.0,0.0,0.0,0.0
1505434051207834786,-0.0101033303338,-0.00827833312144,0.0,0.0,0.0,0.0
1505434051257772174,-0.00956117586064,-0.00871024389773,0.0,0.0,0.0,0.0
1505434051307671962,-0.0099343670531,-0.00595820149194,0.0,0.0,0.0,0.0
1505434051357761280,-0.0108361043464,-0.0401984217246,0.0,0.0,0.0,0.0
1505434051407893215,-0.0115764024978,-0.0347928146537,0.0,0.0,0.0,0.0
1505434051458272329,-0.012558651194,-0.025001031289,0.0,0.0,0.0,0.0
1505434051507795207,-0.0136470611507,-0.0633970914349,0.0,0.0,0.0,0.0
1505434051557806071,-0.0136486526584,-0.0371914888195,0.0,0.0,0.0,0.0
1505434051607823152,-0.0123287710447,-0.0712611515617,0.0,0.0,0.0,0.0
1505434051661393616,-0.0109900621755,-0.0607820515282,0.0,0.0,0.0,0.0
1505434051707760831,-0.00996005339555,-0.0444216065821,0.0,0.0,0.0,0.0
1505434051757831440,-0.00652025315363,-0.0784698621544,0.0,0.0,0.0,0.0
1505434051807802502,-0.0057655753925,-0.0703072148699,0.0,0.0,0.0,0.0
1505434051858269966,-0.00552198615352,-0.0530375573422,0.0,0.0,0.0,0.0
1505434051907776787,-0.00185082126055,-0.0863934426203,0.0,0.0,0.0,0.0
1505434051958087585,-0.00462344665043,-0.0624752301924,0.0,0.0,0.0,0.0
1505434052007801581,-0.0011420622955,-0.0855695366042,0.0,0.0,0.0,0.0
1505434052057857210,-0.00266512814054,-0.0852222584552,0.0,0.0,0.0,0.0
1505434052107728434,-0.00382497746714,-0.0743736636028,0.0,0.0,0.0,0.0
1505434052157992861,-0.000501508226426,-0.0844534090645,0.0,0.0,0.0,0.0
1505434052207886960,-0.00133096946877,-0.0842032106016,0.0,0.0,0.0,0.0
1505434052258134702,-0.00268898956679,-0.0841605233476,0.0,0.0,0.0,0.0
1505434052307879846,-0.000350291003685,-0.084170285208,0.0,0.0,0.0,0.0
1505434052357772628,-0.00286732272666,-0.0843773151616,0.0,0.0,0.0,0.0
1505434052407812648,-0.00475607778053,-0.0846441560731,0.0,0.0,0.0,0.0
1505434052457777582,-0.00405583344678,-0.0850905388806,0.0,0.0,0.0,0.0
1505434052507789782,-0.006386000709,-0.0856325128652,0.0,0.0,0.0,0.0
1505434052558457317,-0.00834185683067,-0.0861500400313,0.0,0.0,0.0,0.0
1505434052607768181,-0.0114721350647,-0.0869084344377,0.0,0.0,0.0,0.0
1505434052657940716,-0.0125066902564,-0.0876072464725,0.0,0.0,0.0,0.0
1505434052707945850,-0.0128817421365,-0.0882519549588,0.0,0.0,0.0,0.0
1505434052757871158,-0.0182423982579,-0.089201061488,0.0,0.0,0.0,0.0
1505434052807921826,-0.0168510999344,-0.0902392988056,0.0,0.0,0.0,0.0
1505434052857870873,-0.0175063677059,-0.0914645244612,0.0,0.0,0.0,0.0
1505434052907780710,-0.0181478025634,-0.0927562648236,0.0,0.0,0.0,0.0
1505434052958113100,-0.00996924236597,-0.0555561879525,0.0,0.0,0.0,0.0
1505434053007828293,-0.0849077700142,-0.0953834800183,0.0,0.0,0.0,0.0
1505434053058333749,-0.0168700823548,-0.0967131951625,0.0,0.0,0.0,0.0
1505434053107772830,-0.0164648274937,-0.0978088747527,0.0,0.0,0.0,0.0
1505434053157826515,-0.0233909557864,-0.0991183339247,0.0,0.0,0.0,0.0
1505434053207883170,-0.0111149070705,-0.0717906266463,0.0,0.0,0.0,0.0
1505434053259290300,-0.037592517607,-0.100539500579,0.0,0.0,0.0,0.0
1505434053307788294,-0.022490794133,-0.101141541418,0.0,0.0,0.0,0.0
1505434053357947009,-0.0202678119054,-0.101334091043,0.0,0.0,0.0,0.0
1505434053407782365,-0.0186844824971,-0.101649903528,0.0,0.0,0.0,0.0
1505434053457931858,-0.0203919125539,-0.101677485172,0.0,0.0,0.0,0.0
1505434053507825631,-0.0173659480186,-0.101542906118,0.0,0.0,0.0,0.0
1505434053558239810,-0.0165732752818,-0.101487294758,0.0,0.0,0.0,0.0
1505434053607899562,-0.0248767901523,-0.607823356987,0.458392822742,0.0,0.0,0.072433004321
1505434053657830470,-0.0380674900575,-0.658995596633,0.461662107706,0.0,0.0,0.0702624521472
1505434053707824882,-0.0477129185671,-0.704520780102,0.464255565405,0.0,0.0,0.0688820640779
1505434053757863484,-0.83946748453,-0.83946748453,0.465578401089,0.0,0.0,0.0674527539133
1505434053807802127,-0.841186986737,-0.841186986737,0.464483731985,0.0,0.0,0.0669009561944
1505434053857854345,-0.848451674072,-0.848451674072,0.459858888388,0.0,0.0,0.0643711357682
1505434053907863098,-0.857162192602,-0.857162192602,0.454313600063,0.0,0.0,0.0632927414278
1505434053957786279,-0.0347448690889,-0.702469705837,0.448827469349,0.0,0.0,0.0623767200392
1505434054007836489,0.882152157146,-0.882152157146,0.438404494524,0.0,0.0,0.0622356861477
1505434054057863825,0.899163202639,-0.899163202639,0.427574926615,0.0,0.0,0.0617055296174
1505434054107787831,0.0281709531076,-0.688085703034,0.417321377993,0.0,0.0,0.0587812776798
1505434054158199705,1.57079632679,-1.57079632679,0.398386263847,0.0,0.0,0.0567913458818
1505434054207797882,0.309850592275,-1.29048144576,0.380039656162,0.0,0.0,0.0532610443634
1505434054257793994,0.111262299253,-0.98182559714,0.36493011713,0.0,0.0,0.0495516557984
1505434054307799277,1.57079632679,-1.57079632679,0.341450417042,0.0,0.0,0.0442539707
1505434054358378494,0.157050676479,-0.999072333119,0.320902013779,0.0,0.0,0.0403992104337
1505434054407798757,0.0937017078675,-0.915248688274,0.303776586056,0.0,0.0,0.0372995871787
1505434054457878216,1.57079632679,-1.57079632679,0.275890791416,0.0,0.0,0.0315513798017
1505434054507844379,0.0802801111987,-0.886875732771,0.250616753101,0.0,0.0,0.0286445216107
1505434054557778249,0.0823381458644,-0.993427033643,0.224706733227,0.0,0.0,0.0273474396039
1505434054607814706,0.051048246258,-0.884531893558,0.198703968525,0.0,0.0,0.0272502616401
1505434054658022505,0.0122435271675,-0.644143517569,0.178838038445,0.0,0.0,0.0272240234231
1505434054707791319,1.57079632679,-1.57079632679,0.150584125519,0.0,0.0,0.0282389369673
1505434054757845669,-0.00863859615724,-0.565119181213,0.128515505791,0.0,0.0,0.0285399077343
1505434054807750441,-0.018705063562,-0.593449155385,0.111682260036,0.0,0.0,0.0286374169403
1505434054857857720,-0.097464775205,-0.939704993298,0.0882877349854,0.0,0.0,0.027691484179
1505434054907778826,-0.0518142853043,-0.506266544442,0.071090900898,0.0,0.0,0.0259561957994
1505434054957986382,-0.0611352698738,-0.54615711232,0.0593147516251,0.0,0.0,0.0250688547444
1505434055007879289,-0.151080497296,-0.667397917068,0.0447565555573,0.0,0.0,0.0228672023527
1505434055057887564,-0.104950271942,-0.495648500083,0.035411798954,0.0,0.0,0.0209449180676
1505434055107721286,-0.13849376443,-0.555297473585,0.0280520558357,0.0,0.0,0.0192940292183
1505434055157826612,-0.15133091661,-0.540525095077,0.0228760480881,0.0,0.0,0.0174636478048
1505434055207855231,-0.163490500185,-0.534430132842,0.0196543574333,0.0,0.0,0.0155158409537
1505434055258348543,-0.171642658412,-0.524240715542,0.0180912852287,0.0,0.0,0.0138064860339
1505434055307819615,-0.172134979872,-0.504094031717,0.0183592677116,0.0,0.0,0.0114456440406
1505434055357817183,-0.172663678155,-0.483200102366,0.020552957058,0.0,0.0,0.00896919661514
1505434055407948759,-0.171674918956,-0.466234649457,0.0246145367622,0.0,0.0,0.00697441554387
1505434055457806191,-0.164819071515,-0.443319131031,0.0307246088982,0.0,0.0,0.00525985319735
1505434055507806183,-0.164939176793,-0.5028632516,0.0370112299919,0.0,0.0,0.0042451255528
1505434055557935042,-0.133596071926,-0.320665585699,0.0484434008598,0.0,0.0,0.00117386531631
1505434055607854658,-0.155697262062,-0.429915574951,0.0588986515999,0.0,0.0,-0.000468653611107
1505434055657834659,-0.146747562763,-0.46733072608,0.0681463718414,0.0,0.0,-0.00167801733175
1505434055707901475,-0.0965024887,-0.273030683301,0.0816211342812,0.0,0.0,-0.0021480853641
1505434055757947672,-0.11841379393,-0.393686680995,0.0920994520187,0.0,0.0,-0.00394131632262
1505434055808134715,-0.115868076087,-0.425560505593,0.100034976006,0.0,0.0,-0.0052397517027
1505434055857842041,-0.0622498925949,-0.213977465335,0.110953295231,0.0,0.0,-0.00687443991588
1505434055907835539,-0.0804548810497,-0.310977622754,0.118556702137,0.0,0.0,-0.0079941302902
1505434055957846123,-0.0809255729449,-0.322094744033,0.123891437054,0.0,0.0,-0.00924587461645
1505434056007814171,-0.0364114442219,-0.137207594187,0.130997443199,0.0,0.0,-0.00980380800321
1505434056057831902,-0.0647927867413,-0.255536881046,0.135619306564,0.0,0.0,-0.0098503393699
1505434056107790415,-0.0170408655339,-0.0633797811736,0.141571366787,0.0,0.0,-0.00943334354806
1505434056157784721,-0.0226061531958,-0.100574071934,0.145510280132,0.0,0.0,-0.00905039341847
1505434056207814686,-0.0303124329602,-0.139936277996,0.148218178749,0.0,0.0,-0.00844551757081
1505434056257718973,0.0176247319681,0.0450282528209,0.150990152359,0.0,0.0,-0.00767555855745
1505434056307729653,0.0105941604263,0.00404096567852,0.1518658638,0.0,0.0,-0.00756953425312
1505434056358734648,-0.00108037970469,-0.0522464588035,0.151498997211,0.0,0.0,-0.00726438958038
1505434056407742650,0.050482266665,0.134504249778,0.149224722385,0.0,0.0,-0.00583262270492
1505434056458371005,0.0349976524324,0.0755118467395,0.146035993099,0.0,0.0,-0.00568309744089
1505434056507792407,0.0193452923716,0.0125470800789,0.142675662041,0.0,0.0,-0.00525748832796
1505434056557817278,0.0455094425431,0.108843317693,0.137277507782,0.0,0.0,-0.00474529030086
1505434056607824607,0.0709155291782,0.193195758343,0.129914307594,0.0,0.0,-0.00350001588832
1505434056657829957,0.0274670547037,0.0399684681455,0.125077927113,0.0,0.0,-0.00278996079202
1505434056707783898,0.0708539685369,0.182866657481,0.118505561352,0.0,0.0,-0.00264099598798
1505434056757809961,0.0301262920958,0.0468993377932,0.114560985565,0.0,0.0,-0.00245715985144
1505434056807750778,0.0511595674644,0.103960039662,0.110055828094,0.0,0.0,-0.00242044837907
1505434056857980635,0.064477436888,0.134559723839,0.105295145512,0.0,0.0,-0.00251874321816
1505434056907816590,0.0335651963978,0.033042255091,0.102325284481,0.0,0.0,-0.00295954808201
1505434056957907719,0.0643260325937,0.0970941267255,0.0980884671211,0.0,0.0,-0.00211003968594
1505434057007813057,0.0455557143773,0.0305457732525,0.0947391629219,0.0,0.0,-0.00224821704506
1505434057058691178,0.0343723433816,-0.00650303362848,0.0921425461769,0.0,0.0,-0.00247569829292
1505434057107817669,0.0553470714059,0.0117035955003,0.0883387565613,0.0,0.0,-0.00425554329559
1505434057157877286,0.0321244725836,-0.0395146206147,0.0857089400291,0.0,0.0,-0.00412096254205
1505434057207805704,0.0425551633608,-0.0443731904189,0.0822247505188,0.0,0.0,-0.00563403121211
1505434057258699345,0.0508646965737,-0.0664629295693,0.0776338815689,0.0,0.0,-0.00666848324675
1505434057307809851,0.0312671253763,-0.0805260327087,0.0748099327087,0.0,0.0,-0.00656911875968
1505434057358154385,0.0470905062186,-0.111798429726,0.0707468032837,0.0,0.0,-0.00725109227514
1505434057407786955,0.0344179310293,-0.118342653617,0.0676728129387,0.0,0.0,-0.00738750614388
