%time,field.linear.x,field.linear.y,field.linear.z,field.angular.x,field.angular.y,field.angular.z
1505434021265688222,0.0,0.0,-0.468936175108,-2000.0,0.0,-0.0641393831828
1505434021272757412,0.0,0.0,-0.467070221901,-2000.0,0.0,-0.0641393831828
1505434021272877585,0.0,0.0,-0.467070221901,-2000.0,0.0,-0.0641393831828
1505434021272881308,0.0,0.0,-0.467070221901,-2000.0,0.0,-0.0641393831828
1505434021281934398,0.0,0.0,-0.467070221901,-2000.0,0.0,-0.0641393831828
1505434021283201726,0.0,0.0,-0.467070221901,-2000.0,0.0,-0.0641393831828
1505434021290928510,0.0,0.0,-0.463087469339,-2000.0,0.0,-0.0641393831828
1505434021292308039,0.0,0.0,-0.463087469339,-2000.0,0.0,-0.0641393831828
1505434021297358088,0.0,0.0,-0.463087469339,-2000.0,0.0,-0.0641393831828
1505434021311230536,0.0,0.0,-0.460945725441,-2000.0,0.0,-0.0613596859033
1505434021336412935,0.0,0.0,-0.453727483749,-2000.0,0.0,-0.0613596859033
1505434021337280987,0.0,0.0,-0.453727483749,-2000.0,0.0,-0.0613596859033
1505434021338293958,0.0,0.0,-0.453727483749,-2000.0,0.0,-0.0613596859033
1505434021339418509,0.0,0.0,-0.453727483749,-2000.0,0.0,-0.0613596859033
1505434021342318328,0.0,0.0,-0.453727483749,-2000.0,0.0,-0.0613596859033
1505434021346144795,0.0,0.0,-0.453727483749,-2000.0,0.0,-0.0613596859033
1505434021346695716,0.0,0.0,-0.453727483749,-2000.0,0.0,-0.0613596859033
1505434021347598241,0.0,0.0,-0.453727483749,-2000.0,0.0,-0.0613596859033
1505434021355777902,0.0,0.0,-0.448379307985,-2000.0,0.0,-0.0613596859033
1505434021358553527,0.0,0.0,-0.445548266172,-2000.0,0.0,-0.0568872390228
1505434021364033251,0.0,0.0,-0.445548266172,-2000.0,0.0,-0.0568872390228
1505434021369508457,0.0,0.0,-0.445548266172,-2000.0,0.0,-0.0568872390228
1505434021373172097,0.0,0.0,-0.445548266172,-2000.0,0.0,-0.0568872390228
1505434021378060553,0.0,0.0,-0.445548266172,-2000.0,0.0,-0.0568872390228
1505434021383429423,0.0,0.0,-0.439494222403,-2000.0,0.0,-0.0568872390228
1505434021390519532,0.0,0.0,-0.436404317617,-2000.0,0.0,-0.0568872390228
1505434021392787121,0.0,0.0,-0.436404317617,-2000.0,0.0,-0.0568872390228
1505434021397857483,0.0,0.0,-0.436404317617,-2000.0,0.0,-0.0568872390228
1505434021403745975,0.0,0.0,-0.436404317617,-2000.0,0.0,-0.0568872390228
1505434021413315444,0.0,0.0,-0.429896116257,-2000.0,0.0,-0.0530658748607
1505434021416093448,0.0,0.0,-0.429896116257,-2000.0,0.0,-0.0530658748607
1505434021418516507,0.0,0.0,-0.429896116257,-2000.0,0.0,-0.0530658748607
1505434021424233635,0.0,0.0,-0.426546514034,-2000.0,0.0,-0.0530658748607
1505434021427958718,0.0,0.0,-0.426546514034,-2000.0,0.0,-0.0530658748607
1505434021433449881,0.0,0.0,-0.422967374325,-2000.0,0.0,-0.0530658748607
1505434021438210657,0.0,0.0,-0.422967374325,-2000.0,0.0,-0.0530658748607
1505434021443150706,0.0,0.0,-0.422967374325,-2000.0,0.0,-0.0530658748607
1505434021448458246,0.0,0.0,-0.422967374325,-2000.0,0.0,-0.0530658748607
1505434021458729532,0.0,0.0,-0.41195294261,-2000.0,0.0,-0.047416786393
1505434021463130898,0.0,0.0,-0.41195294261,-2000.0,0.0,-0.047416786393
1505434021469799247,0.0,0.0,-0.41195294261,-2000.0,0.0,-0.047416786393
1505434021474249431,0.0,0.0,-0.41195294261,-2000.0,0.0,-0.047416786393
1505434021478215863,0.0,0.0,-0.41195294261,-2000.0,0.0,-0.047416786393
1505434021483585484,0.0,0.0,-0.404271006584,-2000.0,0.0,-0.047416786393
1505434021490846796,0.0,0.0,-0.400214403868,-2000.0,0.0,-0.047416786393
1505434021494468673,0.0,0.0,-0.400214403868,-2000.0,0.0,-0.047416786393
1505434021498773109,0.0,0.0,-0.400214403868,-2000.0,0.0,-0.047416786393
1505434021505778178,0.0,0.0,-0.400214403868,-2000.0,0.0,-0.047416786393
1505434021508370157,0.0,0.0,-0.400214403868,-2000.0,0.0,-0.0435239469125
1505434021514691513,0.0,0.0,-0.391739308834,-2000.0,0.0,-0.0435239469125
1505434021518933326,0.0,0.0,-0.391739308834,-2000.0,0.0,-0.0435239469125
1505434021526694543,0.0,0.0,-0.387286782265,-2000.0,0.0,-0.0435239469125
1505434021529051589,0.0,0.0,-0.387286782265,-2000.0,0.0,-0.0435239469125
1505434021534024446,0.0,0.0,-0.387286782265,-2000.0,0.0,-0.0435239469125
1505434021538832045,0.0,0.0,-0.378354400396,-2000.0,0.0,-0.0435239469125
1505434021543584443,0.0,0.0,-0.378354400396,-2000.0,0.0,-0.0435239469125
1505434021548444404,0.0,0.0,-0.378354400396,-2000.0,0.0,-0.0435239469125
1505434021557997842,0.0,0.0,-0.373658627272,-2000.0,0.0,-0.0377595103726
1505434021560362129,0.0,0.0,-0.373658627272,-2000.0,0.0,-0.0377595103726
1505434021563619329,0.0,0.0,-0.373658627272,-2000.0,0.0,-0.0377595103726
1505434021569462868,0.0,0.0,-0.364076703787,-2000.0,0.0,-0.0377595103726
1505434021573541848,0.0,0.0,-0.364076703787,-2000.0,0.0,-0.0377595103726
1505434021579068459,0.0,0.0,-0.359269440174,-2000.0,0.0,-0.0377595103726
1505434021583840940,0.0,0.0,-0.359269440174,-2000.0,0.0,-0.0377595103726
1505434021592065746,0.0,0.0,-0.359269440174,-2000.0,0.0,-0.0377595103726
1505434021593521528,0.0,0.0,-0.359269440174,-2000.0,0.0,-0.0377595103726
1505434021599250782,0.0,0.0,-0.349244505167,-2000.0,0.0,-0.0377595103726
1505434021605087876,0.0,0.0,-0.349244505167,-2000.0,0.0,-0.0377595103726
1505434021610098767,0.0,0.0,-0.344149798155,-2000.0,0.0,-0.0328207457349
1505434021614309120,0.0,0.0,-0.344149798155,-2000.0,0.0,-0.0328207457349
1505434021624296781,0.0,0.0,-0.344149798155,-2000.0,0.0,-0.0328207457349
1505434021629154848,0.0,0.0,-0.333679288626,-2000.0,0.0,-0.0328207457349
1505434021636790353,0.0,0.0,-0.333679288626,-2000.0,0.0,-0.0328207457349
1505434021639352777,0.0,0.0,-0.328325599432,-2000.0,0.0,-0.0328207457349
1505434021643821179,0.0,0.0,-0.328325599432,-2000.0,0.0,-0.0328207457349
1505434021649016532,0.0,0.0,-0.328325599432,-2000.0,0.0,-0.0328207457349
1505434021659382201,0.0,0.0,-0.328325599432,-2000.0,0.0,-0.0297974730985
1505434021660194010,0.0,0.0,-0.328325599432,-2000.0,0.0,-0.0297974730985
1505434021665973013,0.0,0.0,-0.317443728447,-2000.0,0.0,-0.0297974730985
1505434021672763903,0.0,0.0,-0.311818689108,-2000.0,0.0,-0.0297974730985
1505434021673989266,0.0,0.0,-0.311818689108,-2000.0,0.0,-0.0297974730985
1505434021679190210,0.0,0.0,-0.311818689108,-2000.0,0.0,-0.0297974730985
1505434021684035226,0.0,0.0,-0.311818689108,-2000.0,0.0,-0.0297974730985
1505434021690688952,0.0,0.0,-0.300643265247,-2000.0,0.0,-0.0297974730985
1505434021695857471,0.0,0.0,-0.300643265247,-2000.0,0.0,-0.0297974730985
1505434021702708266,0.0,0.0,-0.294804662466,-2000.0,0.0,-0.0297974730985
1505434021704240962,0.0,0.0,-0.294804662466,-2000.0,0.0,-0.0297974730985
1505434021710672724,0.0,0.0,-0.294804662466,-2000.0,0.0,-0.0253635032222
1505434021716550077,0.0,0.0,-0.294804662466,-2000.0,0.0,-0.0253635032222
1505434021719311529,0.0,0.0,-0.283227711916,-2000.0,0.0,-0.0253635032222
1505434021727427018,0.0,0.0,-0.283227711916,-2000.0,0.0,-0.0253635032222
1505434021729721587,0.0,0.0,-0.277367919683,-2000.0,0.0,-0.0253635032222
1505434021734212352,0.0,0.0,-0.277367919683,-2000.0,0.0,-0.0253635032222
1505434021739643713,0.0,0.0,-0.277367919683,-2000.0,0.0,-0.0253635032222
1505434021745509148,0.0,0.0,-0.277367919683,-2000.0,0.0,-0.0253635032222
1505434021749309866,0.0,0.0,-0.265429466963,-2000.0,0.0,-0.0253635032222
1505434021759691908,0.0,0.0,-0.259422779083,-2000.0,0.0,-0.0210886555603
1505434021762437269,0.0,0.0,-0.259422779083,-2000.0,0.0,-0.0210886555603
1505434021768310564,0.0,0.0,-0.259422779083,-2000.0,0.0,-0.0210886555603
1505434021769461329,0.0,0.0,-0.259422779083,-2000.0,0.0,-0.0210886555603
1505434021774493722,0.0,0.0,-0.259422779083,-2000.0,0.0,-0.0210886555603
1505434021781702668,0.0,0.0,-0.247233793139,-2000.0,0.0,-0.0210886555603
1505434021784655876,0.0,0.0,-0.247233793139,-2000.0,0.0,-0.0210886555603
1505434021790615564,0.0,0.0,-0.241086751223,-2000.0,0.0,-0.0210886555603
1505434021794798233,0.0,0.0,-0.241086751223,-2000.0,0.0,-0.0210886555603
1505434021803347978,0.0,0.0,-0.241086751223,-2000.0,0.0,-0.0210886555603
1505434021806682472,0.0,0.0,-0.241086751223,-2000.0,0.0,-0.0210886555603
1505434021809531545,0.0,0.0,-0.22871850431,-2000.0,0.0,-0.0188629133729
1505434021815253479,0.0,0.0,-0.22871850431,-2000.0,0.0,-0.0188629133729
1505434021824215111,0.0,0.0,-0.222398594022,-2000.0,0.0,-0.0188629133729
1505434021824672375,0.0,0.0,-0.222398594022,-2000.0,0.0,-0.0188629133729
1505434021829694263,0.0,0.0,-0.222398594022,-2000.0,0.0,-0.0188629133729
1505434021834861939,0.0,0.0,-0.222398594022,-2000.0,0.0,-0.0188629133729
1505434021839696631,0.0,0.0,-0.20983800292,-2000.0,0.0,-0.0188629133729
1505434021846238712,0.0,0.0,-0.20983800292,-2000.0,0.0,-0.0188629133729
1505434021849623444,0.0,0.0,-0.203427836299,-2000.0,0.0,-0.0188629133729
1505434021858360683,0.0,0.0,-0.203427836299,-2000.0,0.0,-0.0149537791157
1505434021860611800,0.0,0.0,-0.203427836299,-2000.0,0.0,-0.0149537791157
1505434021865571280,0.0,0.0,-0.203427836299,-2000.0,0.0,-0.0149537791157
1505434021870906504,0.0,0.0,-0.190702453256,-2000.0,0.0,-0.0149537791157
1505434021874874706,0.0,0.0,-0.190702453256,-2000.0,0.0,-0.0149537791157
1505434021880209676,0.0,0.0,-0.184334889054,-2000.0,0.0,-0.0149537791157
1505434021884933520,0.0,0.0,-0.184334889054,-2000.0,0.0,-0.0149537791157
1505434021891784577,0.0,0.0,-0.184334889054,-2000.0,0.0,-0.0149537791157
1505434021913184546,0.0,0.0,-0.165103152394,-2000.0,0.0,-0.012018008731
1505434021915435671,0.0,0.0,-0.165103152394,-2000.0,0.0,-0.012018008731
1505434021916796377,0.0,0.0,-0.165103152394,-2000.0,0.0,-0.012018008731
1505434021925131879,0.0,0.0,-0.165103152394,-2000.0,0.0,-0.012018008731
1505434021926528620,0.0,0.0,-0.165103152394,-2000.0,0.0,-0.012018008731
1505434021930097686,0.0,0.0,-0.152348816395,-2000.0,0.0,-0.012018008731
1505434021935159572,0.0,0.0,-0.152348816395,-2000.0,0.0,-0.012018008731
1505434021940155409,0.0,0.0,-0.145945668221,-2000.0,0.0,-0.012018008731
1505434021945291261,0.0,0.0,-0.145945668221,-2000.0,0.0,-0.012018008731
1505434021951409889,0.0,0.0,-0.145945668221,-2000.0,0.0,-0.012018008731
1505434021959127652,0.0,0.0,-0.133106023073,-2000.0,0.0,-0.0105988069449
1505434021961152444,0.0,0.0,-0.133106023073,-2000.0,0.0,-0.0105988069449
1505434021965323931,0.0,0.0,-0.133106023073,-2000.0,0.0,-0.0105988069449
1505434021970477868,0.0,0.0,-0.126700267196,-2000.0,0.0,-0.0105988069449
1505434021975318657,0.0,0.0,-0.126700267196,-2000.0,0.0,-0.0105988069449
1505434021990238179,0.0,0.0,-0.113858446479,-2000.0,0.0,-0.0105988069449
1505434022007276761,0.0,0.0,-0.107470139861,-2000.0,0.0,-0.0105988069449
1505434022009036349,0.0,0.0,-0.107470139861,-2000.0,0.0,-0.00754571402628
1505434022011808126,0.0,0.0,-0.107470139861,-2000.0,0.0,-0.00754571402628
1505434022012550044,0.0,0.0,-0.107470139861,-2000.0,0.0,-0.00754571402628
1505434022013496443,0.0,0.0,-0.107470139861,-2000.0,0.0,-0.00754571402628
1505434022017590402,0.0,0.0,-0.107470139861,-2000.0,0.0,-0.00754571402628
1505434022026213192,0.0,0.0,-0.0948223024607,-2000.0,0.0,-0.00754571402628
1505434022028267429,0.0,0.0,-0.0886230245233,-2000.0,0.0,-0.00754571402628
1505434022030590074,0.0,0.0,-0.0886230245233,-2000.0,0.0,-0.00754571402628
1505434022035718363,0.0,0.0,-0.0886230245233,-2000.0,0.0,-0.00754571402628
1505434022042438031,0.0,0.0,-0.0886230245233,-2000.0,0.0,-0.00754571402628
1505434022045877716,0.0,0.0,-0.0886230245233,-2000.0,0.0,-0.00754571402628
1505434022058212452,0.0,0.0,-0.0760928988457,-2000.0,0.0,-0.00641868979477
1505434022059279489,0.0,0.0,-0.0699568465352,-2000.0,0.0,-0.00641868979477
1505434022060944867,0.0,0.0,-0.0699568465352,-2000.0,0.0,-0.00641868979477
1505434022065595566,0.0,0.0,-0.0699568465352,-2000.0,0.0,-0.00641868979477
1505434022070670941,0.0,0.0,-0.0699568465352,-2000.0,0.0,-0.00641868979477
1505434022078855370,0.0,0.0,-0.0576366707683,-2000.0,0.0,-0.00641868979477
1505434022081617584,0.0,0.0,-0.0576366707683,-2000.0,0.0,-0.00641868979477
1505434022092180404,0.0,0.0,-0.0515617243946,-2000.0,0.0,-0.00641868979477
1505434022095399328,0.0,0.0,-0.0515617243946,-2000.0,0.0,-0.00641868979477
1505434022095859661,0.0,0.0,-0.0515617243946,-2000.0,0.0,-0.00641868979477
1505434022102429623,0.0,0.0,-0.0515617243946,-2000.0,0.0,-0.00641868979477
1505434022134060568,0.0,0.0,-0.0334216021001,-2000.0,0.0,-0.00545269412621
1505434022140553271,0.0,0.0,-0.0215501468629,-2000.0,0.0,-0.00545269412621
1505434022141439672,0.0,0.0,-0.0215501468629,-2000.0,0.0,-0.00545269412621
1505434022147354361,0.0,0.0,-0.0215501468629,-2000.0,0.0,-0.00545269412621
1505434022161643879,0.0,0.0,-0.0156656429172,-2000.0,0.0,-0.00391991754053
1505434022170072620,0.0,0.0,-0.00416563032195,-2000.0,0.0,-0.00391991754053
1505434022212823403,0.0,0.0,0.0181507077068,-2000.0,0.0,-0.00261216545405
1505434022291480808,0.0,0.0,0.0542765818536,-2000.0,0.0,-0.00232835886951
1505434022306092260,0.0,0.0,0.0638967379928,-2000.0,0.0,-0.00232835886951
1505434022318993226,0.0,0.0,0.0638967379928,-2000.0,0.0,-0.00207572442724
1505434022332569816,0.0,0.0,0.0778629183769,-2000.0,0.0,-0.00207572442724
1505434022347026918,0.0,0.0,0.0778629183769,-2000.0,0.0,-0.00207572442724
1505434022347149157,0.0,0.0,0.0778629183769,-2000.0,0.0,-0.00207572442724
1505434022359800775,0.0,0.0,0.0907800123096,-2000.0,0.0,-0.00146467748419
1505434022373120510,0.0,0.0,0.0907800123096,-2000.0,0.0,-0.00146467748419
1505434022396287640,0.0,0.0,0.102847650647,-2000.0,0.0,-0.00146467748419
1505434022415261664,0.0,0.0,0.106707699597,-2000.0,0.0,-0.00206477946086
1505434022441029360,0.0,0.0,0.11771825701,-2000.0,0.0,-0.00206477946086
1505434022449539353,0.0,0.0,0.124620512128,-2000.0,0.0,-0.00206477946086
1505434022456443115,0.0,0.0,0.124620512128,-2000.0,0.0,-0.00206477946086
1505434022457545378,0.0,0.0,0.124620512128,-2000.0,0.0,-0.00206477946086
1505434022467613956,0.0,0.0,0.12786410749,-2000.0,0.0,-0.00255421287204
1505434022476256711,0.0,0.0,0.12786410749,-2000.0,0.0,-0.00255421287204
1505434022506107026,0.0,0.0,0.137135401368,-2000.0,0.0,-0.00255421287204
1505434022518713157,0.0,0.0,0.14566630125,-2000.0,0.0,-0.0031588145634
1505434022548498218,0.0,0.0,0.150930166245,-2000.0,0.0,-0.0031588145634
1505434022550683339,0.0,0.0,0.153391465545,-2000.0,0.0,-0.0031588145634
1505434022550875874,0.0,0.0,0.153391465545,-2000.0,0.0,-0.0031588145634
1505434022551521748,0.0,0.0,0.153391465545,-2000.0,0.0,-0.0031588145634
1505434022566615730,0.0,0.0,0.1558342278,-2000.0,0.0,-0.00576637462904
1505434022571399201,0.0,0.0,0.158097460866,-2000.0,0.0,-0.00576637462904
1505434022577916475,0.0,0.0,0.158097460866,-2000.0,0.0,-0.00576637462904
1505434022592673212,0.0,0.0,0.160348534584,-2000.0,0.0,-0.00576637462904
1505434022617684036,0.0,0.0,0.166476681828,-2000.0,0.0,-0.00846362161585
1505434022618185620,0.0,0.0,0.166476681828,-2000.0,0.0,-0.00846362161585
1505434022639395735,0.0,0.0,0.171753391623,-2000.0,0.0,-0.00846362161585
1505434022650940259,0.0,0.0,0.171753391623,-2000.0,0.0,-0.00846362161585
1505434022658673492,0.0,0.0,0.174840822816,-2000.0,0.0,-0.0109289503518
1505434022665584261,0.0,0.0,0.174840822816,-2000.0,0.0,-0.0109289503518
1505434022706289045,0.0,0.0,0.180202946067,-2000.0,0.0,-0.0109289503518
1505434022710904274,0.0,0.0,0.180202946067,-2000.0,0.0,-0.0133674140388
1505434022716331938,0.0,0.0,0.180202946067,-2000.0,0.0,-0.0133674140388
1505434022735177132,0.0,0.0,0.183513239026,-2000.0,0.0,-0.0133674140388
1505434022777611233,0.0,0.0,0.186196610332,-2000.0,0.0,-0.0161179661509
1505434022782220069,0.0,0.0,0.187755450606,-2000.0,0.0,-0.0161179661509
1505434022791186496,0.0,0.0,0.188460022211,-2000.0,0.0,-0.0161179661509
1505434022800688527,0.0,0.0,0.188460022211,-2000.0,0.0,-0.0161179661509
1505434022823451684,0.0,0.0,0.19020844996,-2000.0,0.0,-0.0188085417478
1505434022843199430,0.0,0.0,0.191072151065,-2000.0,0.0,-0.0188085417478
1505434022867020525,0.0,0.0,0.191484838724,-2000.0,0.0,-0.0218421380614
1505434022890109233,0.0,0.0,0.192266359925,-2000.0,0.0,-0.0218421380614
1505434022930542228,0.0,0.0,0.193171739578,-2000.0,0.0,-0.0245326060003
1505434022951055452,0.0,0.0,0.193369120359,-2000.0,0.0,-0.0245326060003
1505434022965165984,0.0,0.0,0.193361595273,-2000.0,0.0,-0.0280147907539
1505434023039672144,0.0,0.0,0.193448886275,-2000.0,0.0,-0.0302361138561
1505434023049505269,0.0,0.0,0.193339645863,-2000.0,0.0,-0.0302361138561
1505434023058087305,0.0,0.0,0.193339645863,-2000.0,0.0,-0.0315155884053
1505434023066068289,0.0,0.0,0.193196415901,-2000.0,0.0,-0.0315155884053
1505434023071049145,0.0,0.0,0.193196415901,-2000.0,0.0,-0.0315155884053
1505434023084391200,0.0,0.0,0.193106308579,-2000.0,0.0,-0.0315155884053
1505434023102232520,0.0,0.0,0.193072214723,-2000.0,0.0,-0.0315155884053
1505434023105813610,0.0,0.0,0.193072214723,-2000.0,0.0,-0.0315155884053
1505434023166646968,0.0,0.0,0.192447006702,-2000.0,0.0,-0.033565705854
1505434023175605181,0.0,0.0,0.192212313414,-2000.0,0.0,-0.033565705854
1505434023181427337,0.0,0.0,0.192241638899,-2000.0,0.0,-0.033565705854
1505434023189609240,0.0,0.0,0.192241638899,-2000.0,0.0,-0.033565705854
1505434023197226446,0.0,0.0,0.192241638899,-2000.0,0.0,-0.033565705854
1505434023218949225,0.0,0.0,0.192043289542,-2000.0,0.0,-0.0340071647944
1505434023234545836,0.0,0.0,0.192043289542,-2000.0,0.0,-0.0340071647944
1505434023257071778,0.0,0.0,0.191994860768,-2000.0,0.0,-0.0340071647944
1505434023267537813,0.0,0.0,0.191994860768,-2000.0,0.0,-0.0358513072348
1505434023268531518,0.0,0.0,0.192058727145,-2000.0,0.0,-0.0358513072348
1505434023279623276,0.0,0.0,0.192095205188,-2000.0,0.0,-0.0358513072348
1505434023283950283,0.0,0.0,0.192095205188,-2000.0,0.0,-0.0358513072348
1505434023285158513,0.0,0.0,0.192095205188,-2000.0,0.0,-0.0358513072348
1505434023340834780,0.0,0.0,0.192519038916,-2000.0,0.0,-0.0374142743581
1505434023366034355,0.0,0.0,0.192797079682,-2000.0,0.0,-0.0389751146818
1505434023371088120,0.0,0.0,0.192971363664,-2000.0,0.0,-0.0389751146818
1505434023371116383,0.0,0.0,0.192971363664,-2000.0,0.0,-0.0389751146818
1505434023372357528,0.0,0.0,0.192971363664,-2000.0,0.0,-0.0389751146818
1505434023377768512,0.0,0.0,0.192971363664,-2000.0,0.0,-0.0389751146818
1505434023431558564,0.0,0.0,0.194237470627,-2000.0,0.0,-0.0385599069762
1505434023439260322,0.0,0.0,0.194237470627,-2000.0,0.0,-0.0385599069762
1505434023446373777,0.0,0.0,0.194237470627,-2000.0,0.0,-0.0385599069762
1505434023466038795,0.0,0.0,0.195080429316,-2000.0,0.0,-0.0390161491984
1505434023467770643,0.0,0.0,0.195080429316,-2000.0,0.0,-0.0390161491984
1505434023468526297,0.0,0.0,0.195080429316,-2000.0,0.0,-0.0390161491984
1505434023474481961,0.0,0.0,0.195080429316,-2000.0,0.0,-0.0390161491984
1505434023489834044,0.0,0.0,0.196140348911,-2000.0,0.0,-0.0390161491984
1505434023498219461,0.0,0.0,0.196140348911,-2000.0,0.0,-0.0390161491984
1505434023508171765,0.0,0.0,0.196140348911,-2000.0,0.0,-0.0400169634514
1505434023511729235,0.0,0.0,0.196996957064,-2000.0,0.0,-0.0400169634514
1505434023512619649,0.0,0.0,0.196996957064,-2000.0,0.0,-0.0400169634514
1505434023514381789,0.0,0.0,0.196996957064,-2000.0,0.0,-0.0400169634514
1505434023523331511,0.0,0.0,0.197408974171,-2000.0,0.0,-0.0400169634514
1505434023524823525,0.0,0.0,0.197408974171,-2000.0,0.0,-0.0400169634514
1505434023527911827,0.0,0.0,0.197408974171,-2000.0,0.0,-0.0400169634514
1505434023532070902,0.0,0.0,0.197408974171,-2000.0,0.0,-0.0400169634514
1505434023546776152,0.0,0.0,0.19842107594,-2000.0,0.0,-0.0400169634514
1505434023549806341,0.0,0.0,0.198902457952,-2000.0,0.0,-0.0400169634514
1505434023551424418,0.0,0.0,0.198902457952,-2000.0,0.0,-0.0400169634514
1505434023560840581,0.0,0.0,0.198902457952,-2000.0,0.0,-0.0410269706993
1505434023566448299,0.196870856507,-0.135448554064,0.198902457952,0.0152162563873,0.321143538374,-0.0410269706993
1505434023566532121,0.197117394707,-0.135552706954,0.198902457952,0.0149656537673,0.321049585005,-0.0410269706993
1505434023577995181,0.198463657723,-0.124623349838,0.20002168417,0.0147307115838,0.320861663581,-0.0410269706993
1505434023582755945,0.199413100249,-0.118855617256,0.200557813048,0.0143234785729,0.32101827083,-0.0410269706993
1505434023588796271,0.199684925341,-0.118725717994,0.200557813048,0.0140572100968,0.321159209815,-0.0410269706993
1505434023591994800,0.199943029401,-0.118548248001,0.200557813048,0.013806602243,0.321347116727,-0.0410269706993
1505434023592218744,0.195666672873,-0.161154525458,0.200557813048,0.0163318441065,0.278601295206,-0.0410269706993
1505434023599957182,0.197095983484,-0.150464904159,0.20177911222,0.0161388839881,0.278972221043,-0.0410269706993
1505434023601132151,0.197152644981,-0.150170279466,0.20177911222,0.0160943543394,0.279268921811,-0.0410269706993
1505434023602228094,0.197268018744,-0.149892940837,0.20177911222,0.0159904528341,0.279550759172,-0.0410269706993
1505434023605929783,0.197487818116,-0.149605070149,0.20177911222,0.0157826455701,0.279847402792,-0.0410269706993
1505434023607299208,0.197688707509,-0.155900752953,0.20177911222,0.0153237048835,0.273565257302,-0.0410269706993
1505434023616179582,0.198708087989,-0.150488387011,0.202429026365,0.0151670883441,0.273627859859,-0.0417948453557
1505434023625699096,0.198876990945,-0.15019787296,0.202429026365,0.0150104713426,0.273925177428,-0.0417948453557
1505434023627098304,0.199135902047,-0.149629293424,0.202429026365,0.0147755431175,0.274504078436,-0.0417948453557
1505434023642164793,0.201055918933,-0.134049394177,0.204382881522,0.0148381932332,0.275192333336,-0.0417948453557
1505434023643278731,0.201175292425,-0.133443933251,0.204382881522,0.0147442217667,0.275802253271,-0.0417948453557
1505434023648295924,0.197818005345,-0.156421119822,0.204382881522,0.0171385286041,0.252704855711,-0.0417948453557
1505434023648589077,0.197887781265,-0.156251888767,0.204382881522,0.0170758845449,0.252876854405,-0.0417948453557
1505434023658340557,0.198190663141,-0.156093528259,0.204382881522,0.0167626779412,0.253048872196,-0.041726850615
1505434023664441678,0.19954660027,-0.146742181474,0.205807924271,0.016840981652,0.25326773805,-0.041726850615
1505434023693221232,0.202039966401,-0.133096829814,0.208037897944,0.0165904145562,0.25358042042,-0.041726850615
1505434023698745439,0.202414191519,-0.132768226185,0.208037897944,0.0162302227946,0.253924348724,-0.041726850615
1505434023705693955,0.202739129456,-0.151492906258,0.20877866447,0.0156821004658,0.230827627039,-0.041726850615
1505434023706109566,0.203209200705,-0.1514968279,0.20877866447,0.0152122747946,0.230843317713,-0.041726850615
1505434023708868781,0.203246226745,-0.151486486438,0.20877866447,0.0151183106493,0.230858960951,-0.0414782044582
1505434023709000391,0.203481678839,-0.151856087991,0.20877866447,0.0148677350536,0.230499440621,-0.0414782044582
1505434023709069620,0.203707316852,-0.152084491044,0.20877866447,0.0146328200794,0.230280590393,-0.0414782044582
1505434023710331075,0.199688859964,-0.185458990391,0.20877866447,0.0172639033002,0.196768165779,-0.0414782044582
1505434023710464576,0.199835303883,-0.185509544787,0.20877866447,0.0171154890323,0.196723727354,-0.0414782044582
1505434023712679022,0.199671409038,-0.184805722372,0.20877866447,0.0173084278321,0.197420148299,-0.0414782044582
1505434023718366557,0.199699054037,-0.184139610043,0.20877866447,0.0173084278321,0.198086834042,-0.0414782044582
1505434023726757797,0.201282737165,-0.174622787481,0.210368230939,0.0173677943905,0.199375401893,-0.0414782044582
1505434023729174998,0.202216872524,-0.169462958177,0.211190864444,0.0173084278321,0.200633926072,-0.0414782044582
1505434023736698441,0.202578705086,-0.168618659037,0.211190864444,0.016981916453,0.201492502894,-0.0414782044582
1505434023738148039,0.202739500118,-0.175732761552,0.211190864444,0.016526264126,0.194391186777,-0.0414782044582
1505434023743057412,0.203317022081,-0.175412758486,0.211190864444,0.0159625082344,0.194734862315,-0.0414782044582
1505434023748362852,0.205522340641,-0.167338029901,0.212857827544,0.0154457267702,0.195265859069,-0.0414782044582
1505434023758932234,0.206962631805,-0.163429910092,0.213763535023,0.0148506388044,0.195531416956,-0.041115897372
1505434023766256398,0.207657136116,-0.163692703133,0.213763535023,0.0141459195191,0.195297393135,-0.041115897372
1505434023768914595,0.208181447724,-0.16390167712,0.213763535023,0.0136134612947,0.19511014723,-0.041115897372
1505434023769409503,0.208736020088,-0.164518252472,0.213763535023,0.0130340137154,0.194516888286,-0.041115897372
1505434023772890719,0.202295190101,-0.193943090158,0.213763535023,0.01825991254,0.164852172794,-0.041115897372
1505434023778402113,0.202635235877,-0.194342238565,0.213763535023,0.0179037474293,0.164467339071,-0.041115897372
1505434023783983256,0.204769618116,-0.187949436257,0.215546086431,0.0175327398717,0.16400842926,-0.041115897372
1505434023790224261,0.206037870635,-0.184856886283,0.216526299715,0.0172359314189,0.16380119132,-0.041115897372
1505434023792792239,0.206472369,-0.185126620056,0.216526299715,0.0167907130441,0.163549545267,-0.041115897372
1505434023818651774,0.207834318274,-0.186903597961,0.219264268875,0.017826921502,0.152717067943,-0.0417979426528
1505434023821395536,0.208175199775,-0.187371473035,0.219264268875,0.0174667872073,0.152263845511,-0.0417979426528
1505434023827404386,0.208621674699,-0.187937674086,0.219264268875,0.0169970430888,0.151716795285,-0.0417979426528
1505434023840712429,0.21083153869,-0.182697620215,0.221133902669,0.0166369023954,0.151247833094,-0.0417979426528
1505434023843513686,0.211139173331,-0.183211213881,0.221133902669,0.0163080755354,0.150747542756,-0.0417979426528
1505434023844732986,0.208503052197,-0.196789355137,0.221133902669,0.0183745211338,0.137071108382,-0.0417979426528
1505434023846137234,0.20875397032,-0.19715981528,0.221133902669,0.0181083422019,0.136711456609,-0.0417979426528
1505434023847133842,0.209083111677,-0.197533562324,0.221133902669,0.0177638710094,0.136351789425,-0.0417979426528
1505434023849965405,0.210311045647,-0.19544875445,0.222097232938,0.017482029841,0.135945160458,-0.0417979426528
1505434023870345758,0.212352145444,-0.190854862463,0.22401727736,0.0172315043604,0.13531948989,-0.0410393383816
1505434023872003532,0.212783384487,-0.191420528722,0.22401727736,0.0167774203655,0.134771992717,-0.0410393383816
1505434023873269841,0.213066114796,-0.192168091313,0.22401727736,0.0164642572508,0.134036659378,-0.0410393383816
1505434023875601708,0.208136560424,-0.213500796431,0.22401727736,0.0205144265866,0.112519667435,-0.0410393383816
1505434023879875469,0.209360993287,-0.212014589563,0.22493621707,0.0201879688436,0.112015382424,-0.0410393383816
1505434023884349838,0.209825103503,-0.21228600097,0.22493621707,0.0197131139874,0.111763240974,-0.0410393383816
1505434023889165329,0.210137904527,-0.21262546129,0.22493621707,0.0193866490247,0.111436900022,-0.0410393383816
1505434023893363940,0.210572976567,-0.212880869995,0.22493621707,0.0189414644506,0.111199556427,-0.0410393383816
1505434023898959971,0.207114828451,-0.220877856596,0.226915955544,0.0238571303894,0.0983702219203,-0.0410393383816
1505434023903772250,0.207410124277,-0.220919661853,0.226915955544,0.0235603680229,0.0983405672072,-0.0410393383816
1505434023909636485,0.208790414621,-0.219216378184,0.227867156267,0.0231894110319,0.0983850916398,-0.0416097467919
1505434023915995958,0.209081373064,-0.219362111454,0.227867156267,0.022892642257,0.0982515877245,-0.0416097467919
1505434023918617603,0.209463141321,-0.219467080278,0.227867156267,0.0225068379773,0.0981625904539,-0.0416097467919
1505434023923865692,0.209810941329,-0.219674584343,0.227867156267,0.0221507073107,0.097969733691,-0.0416097467919
1505434023928669042,0.212163719631,-0.21566669111,0.229872748256,0.0217945727576,0.0977620304904,-0.0416097467919
1505434023933565277,0.207381185917,-0.219570161063,0.229872748256,0.0264105913672,0.0936629966294,-0.0416097467919
1505434023939221714,0.208780819818,-0.218578325677,0.230865672231,0.0259878872528,0.0932872956475,-0.0416097467919
1505434023944239185,0.209229902456,-0.219082762961,0.230865672231,0.0255182098723,0.0928019758077,-0.0416097467919
1505434023951782517,0.209746772745,-0.219464699447,0.230865672231,0.0249858992709,0.0924418705478,-0.0416097467919
1505434023958271020,0.210170283414,-0.219788899136,0.230865672231,0.0245162071213,0.0921443715082,-0.0412509222785
1505434023965754894,0.20777266419,-0.229067948188,0.232774019241,0.0282900761053,0.0791638248364,-0.0412509222785
1505434023969161397,0.209426172965,-0.228050064253,0.233841493726,0.0276951401796,0.0789602437994,-0.0412509222785
1505434023973494487,0.210166069513,-0.22834706727,0.233841493726,0.0269436248865,0.0786940062013,-0.0412509222785
1505434023979413498,0.210825037676,-0.228327281881,0.233841493726,0.0262860332415,0.0787409500951,-0.0412509222785
1505434023991486782,0.214198225655,-0.224778987829,0.23575361073,0.0248612028934,0.0796491322617,-0.0412509222785
1505434023994471607,0.208841216337,-0.231824241397,0.23575361073,0.0299231142188,0.0723889531727,-0.0412509222785
1505434023999029889,0.210278553422,-0.228703080883,0.236751571298,0.0295473359086,0.073938882464,-0.0412509222785
1505434024005086131,0.210387798243,-0.226435965704,0.236751571298,0.0295316780938,0.0762085741832,-0.0412509222785
1505434024009180643,0.210759370808,-0.224141118581,0.236751571298,0.0294847055289,0.0784308442707,-0.0441773253676
1505434024018484317,0.210636919846,-0.221238489219,0.236751571298,0.0297352257159,0.0813252338595,-0.0441773253676
1505434024024864765,0.212341909101,-0.216579489225,0.238633573055,0.0300327152788,0.084046673262,-0.0441773253676
1505434024031554632,0.207326627778,-0.220635689541,0.239578068256,0.0357325498846,0.0780347793071,-0.0441773253676
1505434024035780157,0.207024399236,-0.220027918256,0.239578068256,0.0360613245324,0.0786286103083,-0.0441773253676
1505434024042901724,0.207537313048,-0.219126431311,0.240440368652,0.0364214060691,0.0788628255247,-0.0441773253676
1505434024045815874,0.207234616074,-0.219238460285,0.240440368652,0.0367188601839,0.0787375378602,-0.0441773253676
1505434024056710022,0.207267252569,-0.220272637091,0.240440368652,0.0366405832245,0.077705811382,-0.0441773253676
1505434024057483878,0.204533875174,-0.228209531154,0.240440368652,0.0390207770629,0.0696559469957,-0.0441773253676
1505434024059318485,0.206418179113,-0.227790957049,0.242195233703,0.0387546394877,0.06851460225,-0.042950677275
1505434024066334893,0.206756641281,-0.228666197026,0.242195233703,0.0383789088693,0.0676547021631,-0.042950677275
1505434024071508861,0.207794040293,-0.228920589685,0.243117377162,0.0382380082061,0.0670604620797,-0.042950677275
1505434024074557421,0.208085579076,-0.229793994756,0.243117377162,0.0379092364844,0.0662003804354,-0.042950677275
1505434024080530287,0.208108131617,-0.229998482414,0.243117377162,0.0378779245589,0.0659970497127,-0.042950677275
1505434024084355658,0.208230967422,-0.230786543043,0.243117377162,0.0377213647065,0.065214990123,-0.042950677275
1505434024091042671,0.210071656162,-0.230748892711,0.244859606028,0.0375804596701,0.064229482356,-0.042950677275
1505434024099916464,0.20835180882,-0.231518166648,0.245785146952,0.0401798666457,0.0631027610702,-0.042950677275
1505434024100665582,0.208301799745,-0.233411023188,0.245785146952,0.0401485551239,0.0612095029324,-0.042950677275
1505434024109801812,0.207910577121,-0.234972343014,0.245785146952,0.040524289213,0.0595975599863,-0.0438214517859
1505434024123928200,0.209222606647,-0.23647222887,0.247433811426,0.0407747748151,0.0576255242431,-0.0438214517859
1505434024126876589,0.20888253612,-0.238509820188,0.247433811426,0.0410252572375,0.0555749914106,-0.0438214517859
1505434024126954358,0.208525446621,-0.240578244775,0.247433811426,0.0412913915679,0.0534929093513,-0.0438214517859
1505434024127727754,0.208457272815,-0.242847690618,0.247433811426,0.0412600813409,0.0512226556715,-0.0438214517859
1505434024130738075,0.206849007276,-0.244474756333,0.248385101557,0.0437342122455,0.0492184305819,-0.0438214517859
1505434024137620389,0.206949549468,-0.246470038925,0.248385101557,0.0435463583763,0.0472294679679,-0.0438214517859
1505434024140526193,0.207012084355,-0.248260083975,0.248385101557,0.0434054662538,0.0454438808652,-0.0438214517859
1505434024146960346,0.207146090377,-0.249849665127,0.248385101557,0.0432019534167,0.0438616961805,-0.0438214517859
1505434024150180551,0.209025905296,-0.251244691756,0.250093460083,0.04296712858,0.0424203193868,-0.0438214517859
1505434024163246942,0.210016646461,-0.25227537727,0.250993788242,0.0428262320768,0.0411982088795,-0.0438955585924
1505434024164917260,0.210484006109,-0.248413654882,0.250993788242,0.0425287806448,0.0450767198675,-0.0438955585924
1505434024164995547,0.210605847151,-0.249564194406,0.250993788242,0.0423565696095,0.0439326351707,-0.0438955585924
1505434024169728225,0.210840605211,-0.250641442594,0.250993788242,0.0420747664537,0.0428667261744,-0.0438955585924
1505434024174867969,0.211005924215,-0.251872560189,0.250993788242,0.0418555834527,0.0416440489005,-0.0438955585924
1505434024180306552,0.212987154321,-0.253328963977,0.252715170383,0.0415424603481,0.0404368530146,-0.0438955585924
1505434024184838558,0.213276907802,-0.254581576396,0.252715170383,0.0411980195081,0.0391981619878,-0.0438955585924
1505434024191246996,0.207674645626,-0.249077618888,0.253591090441,0.0479101088419,0.0443812535926,-0.0438955585924
1505434024195236589,0.207953448829,-0.250267195708,0.253591090441,0.0475793738258,0.0432050569316,-0.0438955585924
1505434024199759658,0.208167625569,-0.251420795733,0.253591090441,0.0473147817353,0.0420619665067,-0.0438955585924
1505434024204916032,0.208359466724,-0.252706117401,0.253591090441,0.0470667235763,0.0407863012025,-0.0438955585924
1505434024215358287,0.20923262748,-0.255267789856,0.25532335043,0.0477948289584,0.0382451124258,-0.0433946378469
1505434024225305263,0.210175920383,-0.257192045219,0.256122499704,0.0475912872506,0.0368803112949,-0.0433946378469
1505434024234696513,0.211279458599,-0.258447540877,0.257009804249,0.0473251131813,0.0357348835958,-0.0433946378469
1505434024240339230,0.21238033898,-0.259308826661,0.257896482944,0.0470745926314,0.0349031137357,-0.0433946378469
1505434024244927635,0.212627867689,-0.260105128347,0.257896482944,0.0467927525674,0.0341182997348,-0.0433946378469
1505434024251051809,0.214110772573,-0.261946677025,0.258740127087,0.0461037910621,0.0329875707873,-0.0433946378469
1505434024273458436,0.2160783851,-0.26242698228,0.260374635458,0.045759300088,0.032751627183,-0.0433708075001
1505434024274638377,0.216313707819,-0.262783128578,0.260374635458,0.0455087571484,0.0324060187299,-0.0433708075001
1505434024277870570,0.214315182669,-0.260797110646,0.260374635458,0.0475915111527,0.0343035186002,-0.0433708075001
1505434024279767759,0.215451889961,-0.261744918467,0.261212766171,0.0472626623642,0.0336124462302,-0.0433708075001
1505434024281723441,0.215693327729,-0.263043997108,0.261212766171,0.046965127208,0.0323250572676,-0.0433708075001
1505434024281843811,0.209573853773,-0.260552341407,0.261212766171,0.0531868778631,0.0345490465708,-0.0433708075001
1505434024282955327,0.209972581323,-0.26052074736,0.261212766171,0.0527898950923,0.0345978986227,-0.0433708075001
1505434024290642181,0.210522217958,-0.259301150717,0.261212766171,0.0522936536269,0.0358401791114,-0.0433708075001
1505434024295799860,0.210781608098,-0.257902407556,0.261212766171,0.0520951530128,0.0372488533741,-0.0433708075001
1505434024304783728,0.212688583434,-0.25738091892,0.262861788273,0.0518966500826,0.0386243331756,-0.0433708075001
1505434024308212568,0.213088307319,-0.256275264157,0.262861788273,0.0515161798701,0.0397839377487,-0.0426400080294
1505434024310618067,0.214186178535,-0.255096165464,0.26367431879,0.0512680426171,0.0406619941718,-0.0426400080294
1505434024315741973,0.214651747296,-0.255050496804,0.26367431879,0.0508048437554,0.0407274671622,-0.0426400080294
1505434024324711417,0.214897099008,-0.255509404267,0.26367431879,0.0505401531666,0.0402794354506,-0.0426400080294
1505434024325196472,0.209241217697,-0.256048788303,0.26367431879,0.0561679012073,0.0394994479357,-0.0426400080294
1505434024330210119,0.210874541154,-0.258379763364,0.265208363533,0.0560190069095,0.0383386779033,-0.0426400080294
1505434024335493110,0.21107695069,-0.259069241206,0.265208363533,0.055787390921,0.0376584548902,-0.0426400080294
1505434024342827233,0.212114058966,-0.259265888262,0.265924811363,0.0554565051981,0.0374256330042,-0.0426400080294
1505434024346606627,0.212605390334,-0.259005762658,0.265924811363,0.054976708822,0.0377064661931,-0.0426400080294
1505434024350949333,0.213009031057,-0.25769612454,0.265924811363,0.0546292610466,0.0390321199481,-0.0426400080294
1505434024356629191,0.212620458806,-0.260272278387,0.265924811363,0.054907666169,0.0364417439855,-0.0426400080294
1505434024367667227,0.214391554079,-0.259441589787,0.267438232899,0.0546570211655,0.0381049405541,-0.0410631195974
1505434024368523845,0.214668010824,-0.258055385368,0.267438232899,0.0544377033487,0.0395013254292,-0.0410631195974
1505434024377457170,0.215559565027,-0.258316892065,0.26814943552,0.0542810454411,0.0400817107015,-0.0410631195974
1505434024384299762,0.215179424551,-0.258410537769,0.26814943552,0.0546570211655,0.03997253857,-0.0410631195974
1505434024391017043,0.213896805488,-0.254285650502,0.269469708204,0.057444548199,0.0444129395906,-0.0410631195974
1505434024391020850,0.213515763358,-0.255164764977,0.269469708204,0.0577891800831,0.0435189238023,-0.0410631195974
1505434024396192214,0.21332142607,-0.256460454315,0.269469708204,0.0579301634541,0.0422163488407,-0.0410631195974
1505434024400978191,0.213745342718,-0.258104712853,0.270103335381,0.0581181389024,0.0416830310492,-0.0410631195974
1505434024409837072,0.211379777535,-0.255648134032,0.270103335381,0.060514043652,0.0441345220612,-0.0395091009464
1505434024410777021,0.211602762449,-0.25595605247,0.270103335381,0.0602790703359,0.0438356515596,-0.0395091009464
1505434024416606980,0.211842642792,-0.256233260984,0.270103335381,0.0600284277809,0.0435681343658,-0.0395091009464
1505434024423352179,0.213392938401,-0.257087350296,0.271414220333,0.0597621146604,0.0428923006114,-0.0395091009464
1505434024426675440,0.213395564843,-0.257417513148,0.271414220333,0.0597464492246,0.0425624991538,-0.0395091009464
1505434024435030600,0.214116055293,-0.259030900538,0.272091805935,0.0596681203722,0.0416672097651,-0.0395091009464
1505434024439452522,0.214815495931,-0.259745249154,0.27264636755,0.0594957965122,0.0409757876631,-0.0395091009464
1505434024444767193,0.214930932536,-0.260394577353,0.27264636755,0.0593548022921,0.0403315257988,-0.0395091009464
1505434024445391554,0.215192490941,-0.261710350468,0.27264636755,0.059041476513,0.0390271107395,-0.0395091009464
1505434024451005533,0.213028422994,-0.257782007133,0.27264636755,0.0613590205967,0.0428669103253,-0.0395091009464
1505434024458194100,0.213298318974,-0.259451736646,0.27264636755,0.0610926815074,0.0411063390333,-0.041192832845
1505434024460846705,0.214829719895,-0.261890389598,0.273820519447,0.0606696609086,0.0395179261162,-0.041192832845
1505434024466063178,0.214997846079,-0.26351815721,0.273820519447,0.0604346439487,0.0378984629828,-0.041192832845
1505434024476626275,0.213190184228,-0.263727691325,0.274407923222,0.0628183800898,0.0375742464907,-0.041192832845
1505434024481308743,0.21352973105,-0.265001959887,0.274407923222,0.0624266454184,0.0363150418368,-0.041192832845
1505434024490522031,0.215057007683,-0.266266800403,0.275577515364,0.0620348988619,0.0354959846333,-0.041192832845
1505434024491267788,0.215298641403,-0.267253565005,0.275577515364,0.0617528339864,0.0345200078705,-0.041192832845
1505434024499929587,0.216276470895,-0.268312872939,0.276167631149,0.0613297257212,0.0336692398752,-0.041192832845
1505434024503168070,0.216412522631,-0.269578419138,0.276167631149,0.0611416727073,0.032410370017,-0.041192832845
1505434024507889225,0.21670672523,-0.270775441692,0.276167631149,0.0607969023556,0.0312294427051,-0.0411440778283
1505434024511172357,0.217016347771,-0.27201751783,0.276167631149,0.0604364521875,0.0300011532741,-0.0411440778283
1505434024523992510,0.214133375146,-0.265852641551,0.277195483446,0.0646031583389,0.0361363294603,-0.0411440778283
1505434024525854087,0.214306775952,-0.267275050179,0.277195483446,0.0643713971012,0.0347222570177,-0.0411440778283
1505434024532286995,0.2149285415,-0.268496125178,0.277763158083,0.064272069961,0.0336245313515,-0.0411440778283
1505434024537624700,0.2152320669,-0.269575138901,0.277763158083,0.0639244189338,0.0325589155462,-0.0411440778283
1505434024542600740,0.215475039509,-0.270917801097,0.277763158083,0.0636264249386,0.0312273837065,-0.0411440778283
1505434024549497460,0.21695583734,-0.271977961088,0.278741955757,0.0630800866544,0.0301606896268,-0.0411440778283
1505434024553484244,0.217344252425,-0.273410734785,0.278741955757,0.0626330667621,0.0287451049561,-0.0411440778283
1505434024556257110,0.212442964315,-0.274263890847,0.278741955757,0.0674951145051,0.0276910688298,-0.0411440778283
1505434024563888675,0.213275494593,-0.275172869664,0.279203355312,0.0670480389251,0.0267906309426,-0.0398372368622
1505434024566577863,0.213433591146,-0.276195668191,0.279203355312,0.0668493331146,0.0257749403664,-0.0398372368622
1505434024571350199,0.213763098969,-0.276660069716,0.279203355312,0.0665015911422,0.0253240305057,-0.0398372368622
1505434024578193545,0.213837821064,-0.27769587004,0.279203355312,0.0663856758218,0.0242920279181,-0.0398372368622
1505434024584008405,0.212186351879,-0.27760569446,0.28008762002,0.0688994251799,0.0236899459572,-0.0398372368622
1505434024590216746,0.212209478938,-0.27827289521,0.28008762002,0.0688497440655,0.0230241956375,-0.0398372368622
1505434024591658847,0.212290805355,-0.27955897603,0.28008762002,0.0687172618166,0.021742374154,-0.0398372368622
1505434024601353150,0.2131926072,-0.280081845435,0.280824691057,0.0685185344515,0.0208927208617,-0.0398372368622
1505434024605679152,0.210713074571,-0.281668962363,0.280824691057,0.0709328901937,0.0192081115451,-0.0398372368622
1505434024609112082,0.211227002903,-0.282033824159,0.281213253736,0.0707672721814,0.0183251956153,-0.0396025244409
1505434024612109497,0.211289962371,-0.282536429004,0.281213253736,0.0706844628601,0.0178254775546,-0.0396025244409
1505434024617879249,0.211532869172,-0.28268077186,0.281213253736,0.070436031669,0.0176908650819,-0.0396025244409
1505434024630675408,0.212354445959,-0.28065520849,0.281880140305,0.0703200958549,0.0186720010833,-0.0396025244409
1505434024630683112,0.212639677198,-0.280568239976,0.281880140305,0.0700385315316,0.018770194332,-0.0396025244409
1505434024633066877,0.212695170999,-0.280004387461,0.281880140305,0.0700054053886,0.0193358018635,-0.0396025244409
1505434024637079457,0.212618369877,-0.279850978364,0.281880140305,0.0700882200924,0.0194860499524,-0.0396025244409
1505434024641578284,0.212823749047,-0.280417369898,0.282160192728,0.070137907474,0.0188539848729,-0.0396025244409
1505434024646721381,0.214933705705,-0.288045233859,0.282160192728,0.0677276014728,0.0113156395189,-0.0396025244409
1505434024651511271,0.21479483014,-0.289173781448,0.282160192728,0.0678216864967,0.0101824784128,-0.0396025244409
1505434024656760917,0.214685879967,-0.289547099364,0.282160192728,0.0679157707769,0.00980513963295,-0.0396025244409
1505434024662410658,0.215155781821,-0.288026766084,0.282710343599,0.0679784935282,0.0096638109951,-0.0386297159243
1505434024669669608,0.209475818794,-0.290628781128,0.282950311899,0.0737810394702,0.00651223302853,-0.0386297159243
1505434024671685884,0.209486688333,-0.288632065725,0.282950311899,0.073847291407,0.00850787859582,-0.0386297159243
1505434024677631480,0.209448261565,-0.287481989534,0.282950311899,0.0739301055751,0.0096556127433,-0.0386297159243
1505434024681931238,0.209218142023,-0.284858896001,0.282950311899,0.0742613575981,0.0122678621163,-0.0386297159243
1505434024690330979,0.209120825073,-0.281166608915,0.283321321011,0.0748079024007,0.0142826414835,-0.0386297159243
1505434024695004966,0.208755344129,-0.279902397036,0.283321321011,0.0752219346831,0.0155317953023,-0.0386297159243
1505434024699012337,0.208426310152,-0.276863153979,0.283513426781,0.0758181167796,0.0174633687272,-0.0386297159243
1505434024702930015,0.208015920605,-0.276761812521,0.283513426781,0.0762321139798,0.0175487852928,-0.0386297159243
1505434024707078749,0.213217575758,-0.287277607004,0.283513426781,0.0706282183122,0.0072417244463,-0.0386297159243
1505434024711947948,0.212672669511,-0.287377294259,0.283513426781,0.071176901218,0.00704032095425,-0.0397642246653
1505434024716911649,0.212194775141,-0.287953681278,0.283513426781,0.0716315042723,0.00644539147319,-0.0397642246653
1505434024724548890,0.212046010281,-0.286285575735,0.283769309521,0.0720390644063,0.0065105516296,-0.0397642246653
1505434024728757761,0.211787195633,-0.284637488861,0.283827424049,0.0723525615367,0.00641798517894,-0.0397642246653
1505434024732893590,0.211592348798,-0.284014902872,0.283827424049,0.0725720044716,0.00703233312693,-0.0397642246653
1505434024737295152,0.21148388489,-0.282798289648,0.283827424049,0.0727287475739,0.00824367278032,-0.0397642246653
1505434024742409781,0.208125319365,-0.287017389769,0.283827424049,0.0759169331416,0.00389439226495,-0.0397642246653
1505434024747041035,0.208209722588,-0.284479486667,0.283827424049,0.0759334877949,0.00643364451715,-0.0397642246653
1505434024755629612,0.208233003918,-0.279412444352,0.284064084291,0.0762811341107,0.0098042096649,-0.0397642246653
1505434024758817225,0.207977461424,-0.276636340145,0.284064084291,0.0766453248201,0.0125771679831,-0.039644096242
1505434024762245514,0.207447989504,-0.271396469785,0.284137964249,0.0773736717912,0.0157164856554,-0.039644096242
1505434024767022429,0.206602470841,-0.270578677457,0.284137964249,0.0782509382567,0.016500124381,-0.039644096242
1505434024772183605,0.206100396669,-0.270290861087,0.284137964249,0.0787640251675,0.0167678155435,-0.039644096242
1505434024777202585,0.210556050779,-0.280136106428,0.284137964249,0.0739216683489,0.00710689996478,-0.039644096242
1505434024783311510,0.210397245474,-0.278393487009,0.284205049276,0.0741253576882,0.0065427076211,-0.039644096242
1505434024787706966,0.209830953509,-0.277253069043,0.284205049276,0.0747364037021,0.00765978527996,-0.039644096242
1505434024792465830,0.209153488251,-0.275795118572,0.284147441387,0.0753630816196,0.00781945118769,-0.039644096242
1505434024801486519,0.207657454263,-0.284002769348,0.284147441387,0.0765326404648,-0.000441044019512,-0.039644096242
1505434024805891322,0.206953543351,-0.282545941439,0.284147441387,0.0772937377957,0.000986740622032,-0.039644096242
1505434024808286569,0.206585653259,-0.281739780125,0.284147441387,0.0776908123407,0.00188285988533,-0.038290390129
1505434024812421070,0.206241094465,-0.277159003057,0.284138083458,0.0780878731309,0.00349119901012,-0.038290390129
1505434024817365404,0.20593465,-0.27694714095,0.284138083458,0.0784022032763,0.00369117481369,-0.038290390129
1505434024824410932,0.205647126987,-0.275517620628,0.284160166979,0.0787165248001,0.00380832411413,-0.038290390129
1505434024828844270,0.205206616474,-0.275780870788,0.284160166979,0.0791466349368,0.00352840371511,-0.038290390129
1505434024833530395,0.204828512675,-0.277008209677,0.284160166979,0.0794774777882,0.00228749024521,-0.038290390129
1505434024837578461,0.204525362349,-0.277575574265,0.284160166979,0.0797586866055,0.00170893662099,-0.038290390129
1505434024842513837,0.204167075985,-0.275578867323,0.284096062183,0.0800068062123,0.000500927709335,-0.038290390129
1505434024847336944,0.208886815525,-0.2845916134,0.284096062183,0.0749455089408,-0.00832453562706,-0.038290390129
1505434024856351654,0.208633095036,-0.284191451356,0.284127622843,0.0751936206594,-0.00930024836301,-0.038290390129
1505434024857965682,0.208362730982,-0.285595301037,0.284127622843,0.0753921063737,-0.0108389407208,-0.0399551122161
1505434024866838838,0.210460866328,-0.293802187232,0.284143686295,0.0729110762929,-0.0207771863841,-0.0399551122161
1505434024867441350,0.210407338825,-0.295555246441,0.284143686295,0.0728945360338,-0.022530984606,-0.0399551122161
1505434024872639436,0.210423708047,-0.294900064097,0.284104526043,0.0727952942596,-0.0236233281186,-0.0399551122161
1505434024877902007,0.21049047681,-0.296128461709,0.284104526043,0.072679511078,-0.0248480783041,-0.0399551122161
1505434024887794423,0.210490840469,-0.295568461286,0.284131318331,0.0726629705702,-0.0259234692727,-0.0399551122161
1505434024895368300,0.210585365442,-0.296102573277,0.284131318331,0.0725471862106,-0.0264533792381,-0.0399551122161
1505434024901526603,0.210644332806,-0.292969419976,0.284133434296,0.0724644824115,-0.0270989350724,-0.0399551122161
1505434024902163706,0.210788428925,-0.293091766831,0.284133434296,0.0723156142137,-0.027215428438,-0.0399551122161
1505434024902537528,0.210816192119,-0.293225478289,0.284133434296,0.0722825321427,-0.0273479241947,-0.0399551122161
1505434024908210753,0.210786094167,-0.293580107346,0.284133434296,0.0722825321427,-0.0277449535408,-0.0405289231323
1505434024912781038,0.216472577657,-0.297102531181,0.28409782052,0.0663401102943,-0.0330622365044,-0.0405289231323
1505434024918447154,0.216547205978,-0.29796778377,0.28409782052,0.0662304851006,-0.0339237547843,-0.0405289231323
1505434024923573345,0.216746415033,-0.296668379406,0.284044593573,0.0659485872243,-0.034645175069,-0.0405289231323
1505434024928095974,0.216918726541,-0.297444013085,0.284044593573,0.0657449902232,-0.0354131901221,-0.0405289231323
1505434024934210255,0.217231025898,-0.296093629737,0.284123897552,0.0654787429733,-0.0362284666561,-0.0405289231323
1505434024942359164,0.217410992297,-0.294170089786,0.284094333649,0.0652594761308,-0.0364643253235,-0.0405289231323
1505434024944076419,0.217629830264,-0.294571759712,0.284094333649,0.0650245430768,-0.0368567985656,-0.0405289231323
1505434024948312145,0.217498534416,-0.304381042105,0.284094333649,0.0647582802833,-0.0466633455513,-0.0405289231323
1505434024956574901,0.21771732619,-0.301741182596,0.284088164568,0.0645546636148,-0.0461324337798,-0.0405289231323
1505434024958021994,0.218030287384,-0.301479767701,0.284088164568,0.0642570641191,-0.0458522295811,-0.0404305107903
1505434024963104478,0.21832268172,-0.298367591686,0.284139990807,0.0640377757937,-0.045321323058,-0.0404305107903
1505434024970960849,0.215381073073,-0.311133804942,0.284050911665,0.0662904131939,-0.0602085188647,-0.0404305107903
1505434024973621072,0.215593936163,-0.311192956005,0.284050911665,0.0660753332002,-0.06025901777,-0.0404305107903
1505434024979300662,0.215718090717,-0.308510419581,0.28402030468,0.0659264295779,-0.0601110792309,-0.0404305107903
1505434024983598212,0.215860685001,-0.3090787752,0.28402030468,0.0657609791737,-0.0606732068,-0.0404305107903
1505434024990064369,0.215901810089,-0.306817931111,0.284004658461,0.0656947985988,-0.0609046590778,-0.0404305107903
1505434024993559463,0.215945902285,-0.307365314927,0.284004658461,0.0656286174571,-0.0614498133864,-0.0404305107903
1505434024998466503,0.212069823992,-0.324103516949,0.284004658461,0.0688249785072,-0.0783310060551,-0.0404305107903
1505434025003200659,0.212066913223,-0.320480304906,0.283967614174,0.0688415240769,-0.0770775128101,-0.0404305107903
1505434025013948185,0.212206519025,-0.316472464102,0.283942162991,0.0687257048956,-0.0761708899378,-0.0402575119953
1505434025014993166,0.212216751114,-0.314574014664,0.283942162991,0.068791887305,-0.0742735668622,-0.0402575119953
1505434025023848359,0.212181075856,-0.310559069803,0.283883035183,0.0688415240769,-0.0724585307186,-0.0402575119953
1505434025028476762,0.212110528642,-0.309432811802,0.283883035183,0.0689573422307,-0.0713360245273,-0.0402575119953
1505434025036948749,0.212108784056,-0.306255349844,0.283773481846,0.0688580696256,-0.0711219301655,-0.0402575119953
1505434025038422628,0.212150700933,-0.304803596411,0.283773481846,0.0688746149068,-0.0696696659646,-0.0402575119953
1505434025043394170,0.211625455647,-0.317737829327,0.283698379993,0.068692613442,-0.0853727769223,-0.0402575119953
1505434025048236251,0.211790090309,-0.313389252453,0.283659100533,0.0685602470377,-0.0835923806813,-0.0402575119953
1505434025058656578,0.212019608548,-0.305619431323,0.283509582281,0.068361695049,-0.0792219728918,-0.040195331235
1505434025063517055,0.212084678437,-0.303177958813,0.283509582281,0.0683947870912,-0.0767798576149,-0.040195331235
1505434025068566745,0.217011559998,-0.314004010228,0.283449321985,0.0628786170215,-0.0898339596298,-0.040195331235
1505434025073386781,0.216957215775,-0.312626505862,0.283449321985,0.0629882716848,-0.088459751702,-0.040195331235
1505434025078469470,0.216817135839,-0.31104193281,0.283449321985,0.063191913764,-0.0868820875904,-0.040195331235
1505434025092678054,0.216391363052,-0.30443112103,0.283171892166,0.0633485590169,-0.0866786321115,-0.040195331235
1505434025100389929,0.215808639054,-0.303718275699,0.283171892166,0.063959457674,-0.0859897790396,-0.040195331235
1505434025100712597,0.215510679371,-0.303721077012,0.283171892166,0.0642570641191,-0.0860045514541,-0.040195331235
1505434025103800824,0.215136487615,-0.30250138001,0.283171892166,0.064679966556,-0.0848008763409,-0.040195331235
1505434025108767853,0.210745334764,-0.32078136007,0.282816320658,0.0675642785314,-0.109364295382,-0.0417589263707
1505434025113325526,0.210532511572,-0.319138383678,0.282816320658,0.0678455051808,-0.107731635985,-0.0417589263707
1505434025123501162,0.210110742293,-0.314144443577,0.28268173337,0.0682259787327,-0.105504881049,-0.0417589263707
1505434025126208042,0.21434004774,-0.331388351995,0.28268173337,0.06328048246,-0.122557196691,-0.0417589263707
1505434025129764824,0.214239524337,-0.325064993088,0.28252825141,0.0633631909215,-0.119309164636,-0.0417589263707
1505434025134901128,0.214123147233,-0.322302971495,0.28252825141,0.0635947721079,-0.116554409281,-0.0417589263707
1505434025138692334,0.214196165343,-0.319762963811,0.28252825141,0.0636278548225,-0.114013567646,-0.0417589263707
1505434025143763609,0.213744687685,-0.313410299109,0.282361775637,0.0640248413438,-0.111339384807,-0.0417589263707
1505434025148837946,0.21327734133,-0.309067307386,0.2822496593,0.0644548973725,-0.1095559879,-0.0417589263707
1505434025156313534,0.212888397637,-0.307282311896,0.2822496593,0.0649180198261,-0.10778878568,-0.0417589263707
1505434025161599448,0.210761376285,-0.327160662192,0.281975030899,0.0658276793725,-0.131421642873,-0.0414239398616
1505434025163840206,0.210222252644,-0.326989078634,0.281975030899,0.0663734461613,-0.131272532746,-0.0414239398616
1505434025168792175,0.20919819594,-0.323548051474,0.281764119864,0.0672003232941,-0.130958080443,-0.0414239398616
1505434025173731448,0.208736383411,-0.323908429419,0.281764119864,0.0676468156528,-0.131337273862,-0.0414239398616
1505434025179366919,0.20830089646,-0.320743893231,0.281586140394,0.0679113964798,-0.131171950773,-0.0414239398616
1505434025184363771,0.20794905319,-0.320448108438,0.281586140394,0.0682751869892,-0.130890990285,-0.0414239398616
1505434025193451018,0.207608586818,-0.316776460425,0.281303554773,0.0683413297279,-0.130692853788,-0.0414239398616
1505434025202381892,0.207054215333,-0.313664627491,0.28122895956,0.0688208533697,-0.130708887482,-0.0414239398616
1505434025204055453,0.21129295373,-0.330819409312,0.28122895956,0.0638753357316,-0.147673418062,-0.0414239398616
1505434025208766760,0.210661634098,-0.327679225449,0.280982732773,0.0642060356697,-0.147887616357,-0.0417396470768
1505434025213921414,0.210420720573,-0.327900139445,0.280982732773,0.064437521171,-0.14811839067,-0.0417396470768
1505434025226035465,0.209724348346,-0.324784367068,0.280771613121,0.0649170148795,-0.148266410267,-0.0417396470768
1505434025230100403,0.209312754017,-0.325526316128,0.280771613121,0.0652972910209,-0.149024887924,-0.0417396470768
1505434025231286850,0.208780045698,-0.326394995199,0.280771613121,0.0657932875354,-0.149915039001,-0.0417396470768
1505434025234184018,0.208317564328,-0.327563572029,0.280771613121,0.0662066042733,-0.151101896237,-0.0417396470768
1505434025239126482,0.212628195445,-0.341428839287,0.280377060175,0.0606450335141,-0.17150911311,-0.0417396470768
1505434025244288662,0.212370818932,-0.342044573967,0.280377060175,0.0608764927735,-0.172135051188,-0.0417396470768
1505434025249278276,0.212121941179,-0.339308505203,0.280305027962,0.0610252861636,-0.17281042655,-0.0417396470768
1505434025256403098,0.21192167291,-0.339349357571,0.280305027962,0.061223675336,-0.172859600036,-0.0417396470768
1505434025260452970,0.211417528373,-0.336169788885,0.280085682869,0.0613889971026,-0.173205357261,-0.0423567234558
1505434025264350017,0.215689825157,-0.355670533986,0.280085682869,0.0562947914854,-0.192507705523,-0.0423567234558
1505434025269409166,0.215417603681,-0.35224510942,0.279840916395,0.0563278566979,-0.192375914829,-0.0423567234558
1505434025274105281,0.215407840805,-0.35247546331,0.279840916395,0.0563278566979,-0.192606475511,-0.0423567234558
1505434025280718082,0.215264512549,-0.348895117926,0.279760867357,0.0563939879024,-0.192540523588,-0.0423567234558
1505434025290397992,0.214914409999,-0.346004288813,0.279579639435,0.0565427818609,-0.19301790163,-0.0423567234558
1505434025290509154,0.214861372801,-0.34608438562,0.279579639435,0.0565923798656,-0.193100172407,-0.0423567234558
1505434025294890130,0.214833220442,-0.34596778165,0.279579639435,0.056625444459,-0.192984865105,-0.0423567234558
1505434025300537133,0.21895829663,-0.349708935226,0.27949693799,0.0521155851232,-0.20002332014,-0.0423567234558
1505434025304549187,0.219106500046,-0.349169367853,0.27949693799,0.0519903621051,-0.199477961178,-0.0423567234558
1505434025309539721,0.218932508413,-0.345283613959,0.279386162758,0.0518964446427,-0.199462481067,-0.0431570054832
1505434025314608304,0.219003129324,-0.34509951054,0.279386162758,0.0518338323739,-0.199275502229,-0.0431570054832
1505434025322881609,0.218882470356,-0.341494794743,0.279220104218,0.0518025256783,-0.198948176193,-0.0431570054832
1505434025327844449,0.218328249836,-0.375561848327,0.279220104218,0.0508864544841,-0.233007420368,-0.0431570054832
1505434025332236824,0.21824662718,-0.370854621683,0.279097288847,0.0508864544841,-0.232052638993,-0.0431570054832
1505434025334487006,0.218295111774,-0.370115096949,0.279097288847,0.0508699208015,-0.231311711044,-0.0431570054832
1505434025339316600,0.218216695427,-0.36577467651,0.278991162777,0.0508699208015,-0.230669443908,-0.0431570054832
1505434025344678992,0.218171059571,-0.364915316808,0.278991162777,0.0509525900451,-0.229812853269,-0.0431570054832
1505434025350027698,0.218212028125,-0.36098745981,0.278923243284,0.0508699208015,-0.229203359119,-0.0431570054832
1505434025356813220,0.21838097583,-0.359757794244,0.278923243284,0.0507541826183,-0.227967549505,-0.0431570054832
1505434025359634071,0.218384964232,-0.353959304979,0.278822302818,0.0506549785623,-0.22625318092,-0.0434614393078
1505434025365026796,0.218638284894,-0.351939872911,0.278822302818,0.0504896369064,-0.224224649586,-0.0434614393078
1505434025369664755,0.217572223143,-0.370377762361,0.278691411018,0.0504896369064,-0.245748658858,-0.0434614393078
1505434025374722480,0.217778218204,-0.367163252453,0.278691411018,0.050423499616,-0.242528234388,-0.0434614393078
1505434025379988953,0.217951250125,-0.359203622439,0.278612345457,0.0503408279039,-0.238626909119,-0.0434614393078
1505434025394265635,0.217944886488,-0.351246651337,0.278476506472,0.0503904308787,-0.234506294148,-0.0434614393078
1505434025399693010,0.218166198502,-0.344780221738,0.278477042913,0.0503077590131,-0.231325882111,-0.0434614393078
1505434025399979191,0.218086914328,-0.341275515259,0.278477042913,0.0505392399591,-0.227827929844,-0.0434614393078
1505434025400037806,0.216739812148,-0.366543076686,0.278477042913,0.0507872511704,-0.253130159691,-0.0434614393078
1505434025405521678,0.216577165302,-0.364574863018,0.278477042913,0.0510352589008,-0.251170871248,-0.0434614393078
1505434025409737612,0.216203837877,-0.358682432438,0.278359264135,0.0514981976864,-0.249493306574,-0.0429187412609
1505434025415949344,0.216177694907,-0.357749817891,0.278359264135,0.051564330938,-0.248562672521,-0.0429187412609
1505434025426085167,0.216137079594,-0.353300407567,0.278266578913,0.051564330938,-0.247349079181,-0.0429187412609
