%time,field.header.seq,field.header.stamp,field.header.frame_id,field.pose.position.x,field.pose.position.y,field.pose.position.z,field.pose.orientation.x,field.pose.orientation.y,field.pose.orientation.z,field.pose.orientation.w
1505434021268671185,0,1505434021268565187,0.237265020609,0.044562343508,-0.293189495802,-0.00643302500248,-0.999879181385,0.00662519736215,0.0125054419041
1505434021288328650,1,1505434021288154627,0.236819162965,0.0444325953722,-0.291614443064,-0.00618514697999,-0.999859988689,0.00726573867723,0.0137445414439
1505434021288346785,2,1505434021288167113,0.237221986055,0.0440809726715,-0.289780080318,-0.00650124810636,-0.999867498875,0.00822328776121,0.0124556394294
1505434021298514219,3,1505434021298381565,0.236899957061,0.0441767424345,-0.28796505928,-0.00684045674279,-0.999852716923,0.00863064546138,0.0131649598479
1505434021318044547,4,1505434021317855771,0.236898124218,0.0440190769732,-0.286161780357,-0.0067205731757,-0.99984395504,0.00914758723229,0.0135355778039
1505434021318050456,5,1505434021317893661,0.236587882042,0.0438844673336,-0.284441232681,-0.00701787089929,-0.999828755856,0.00908635929227,0.0145148802549
1505434021328305717,6,1505434021328186368,0.236613214016,0.0441082082689,-0.282582551241,-0.00648288568482,-0.999841094017,0.00852637551725,0.014250501059
1505434021348795055,7,1505434021348638069,0.236746683717,0.0443531535566,-0.280663698912,-0.00607326859608,-0.999862313271,0.00778690725565,0.0133396293968
1505434021348798373,8,1505434021348668655,0.236588180065,0.0442908667028,-0.278734177351,-0.00622513704002,-0.999858379364,0.00806738715619,0.013390449807
1505434021358036798,9,1505434021357920623,0.236464902759,0.0444379374385,-0.276903688908,-0.00625470886007,-0.999854981899,0.00754156336188,0.0139312436804
1505434021378517304,10,1505434021378296318,0.236420199275,0.0444476902485,-0.275039762259,-0.00624529784545,-0.999859392643,0.0070864725858,0.013851987198
1505434021378524768,11,1505434021378308657,0.236427932978,0.0443068630993,-0.273121237755,-0.00588724110276,-0.999860823154,0.00734693370759,0.0137706249952
1505434021388784901,12,1505434021388607043,0.236369252205,0.0444048009813,-0.271262675524,-0.00577640952542,-0.999866008759,0.00648742588237,0.013876946643
1505434021408284376,13,1505434021408065649,0.236169070005,0.0445830002427,-0.269329607487,-0.00545198982581,-0.999868035316,0.0059369513765,0.0141079528257
1505434021408290347,14,1505434021408124277,0.236198708415,0.0444312691689,-0.267502725124,-0.00571921095252,-0.999864280224,0.00667346408591,0.0139329023659
1505434021418578136,15,1505434021418419419,0.236346319318,0.0444950200617,-0.265647232533,-0.00604023970664,-0.999874413013,0.00650041550398,0.0131348958239
1505434021428836543,16,1505434021428668745,0.236396297812,0.0446925424039,-0.263759583235,-0.00584081653506,-0.999888181686,0.00496451044455,0.0128367319703
1505434021448201889,17,1505434021448003546,0.236285015941,0.0447010025382,-0.261951953173,-0.00576085224748,-0.999885976315,0.00508628226817,0.0129970088601
1505434021448213836,18,1505434021448015601,0.236137956381,0.0444895550609,-0.260146856308,-0.00584911135957,-0.99988168478,0.00604612566531,0.0128839602694
1505434021458418931,19,1505434021458224799,0.23597599566,0.0442950278521,-0.258259356022,-0.00488797063008,-0.999879777431,0.00631572306156,0.0132925147191
1505434021479297891,20,1505434021478796572,0.235780730844,0.0446669012308,-0.256609708071,-0.00500947097316,-0.999884724617,0.00492017716169,0.0134615469724
1505434021479302240,21,1505434021478809464,0.235689923167,0.0446449778974,-0.254907459021,-0.00539375469089,-0.999879598618,0.00514214811847,0.013609056361
1505434021488256929,22,1505434021488127321,0.235662579536,0.0442862585187,-0.25307187438,-0.00539992656559,-0.999873042107,0.00667501240969,0.0134196951985
1505434021508760626,23,1505434021508478772,0.235550403595,0.0443951115012,-0.25140941143,-0.00536138610914,-0.999873280525,0.00637945346534,0.0135668199509
1505434021508764021,24,1505434021508510351,0.235494434834,0.0446829162538,-0.249539807439,-0.00540225626901,-0.999878168106,0.00512432027608,0.0137184085324
1505434021518949328,25,1505434021518805063,0.235433638096,0.0441205352545,-0.247788369656,-0.00423305947334,-0.999880194664,0.00623858952895,0.0135208228603
1505434021538587438,26,1505434021538246304,0.235396102071,0.0439274944365,-0.245934665203,-0.00433453544974,-0.999875068665,0.00741069251671,0.0132688172162
1505434021538591641,27,1505434021538262964,0.235407531261,0.0446037314832,-0.244242176414,-0.00518080312759,-0.99989002943,0.00534385722131,0.0128239048645
1505434021548571003,28,1505434021548463363,0.235301405191,0.0448877438903,-0.242527857423,-0.00540905771777,-0.999893188477,0.00386260752566,0.0130168618634
1505434021569250641,29,1505434021569059064,0.235276967287,0.044831763953,-0.240802764893,-0.00552915269509,-0.999892055988,0.00358651904389,0.0131332669407
1505434021569255336,30,1505434021569095073,0.235241249204,0.0448572337627,-0.239128738642,-0.00571225536987,-0.999892055988,0.00378052005544,0.0129994032905
1505434021578516192,31,1505434021578338735,0.235098704696,0.0447280853987,-0.237413316965,-0.00552833080292,-0.999888122082,0.0044092326425,0.0131777543575
1505434021599060815,32,1505434021598780624,0.235063016415,0.0448162667453,-0.235807180405,-0.00519705237821,-0.999891281128,0.00412346608937,0.0131724104285
1505434021599065372,33,1505434021598793281,0.235001862049,0.0448117144406,-0.234288424253,-0.0054912599735,-0.999888241291,0.00421906169504,0.0132436808199
1505434021608205714,34,1505434021608082006,0.235026344657,0.0448885336518,-0.232669204473,-0.00587167637423,-0.999889552593,0.00440144911408,0.0129249477759
1505434021628683860,35,1505434021628487687,0.234974369407,0.0448069497943,-0.231081351638,-0.00602297531441,-0.999883055687,0.00537113007158,0.0129909403622
1505434021628686923,36,1505434021628515106,0.234903782606,0.0448671020567,-0.229596704245,-0.00575029384345,-0.999880552292,0.00511638307944,0.0134023940191
1505434021638906652,37,1505434021638706093,0.234748721123,0.0449477210641,-0.228036850691,-0.00552057987079,-0.999878585339,0.00490225572139,0.013722085394
1505434021660228387,38,1505434021659100201,0.23459841311,0.0446245856583,-0.226529121399,-0.00522366259247,-0.99987244606,0.00569330761209,0.013977590017
1505434021660231770,39,1505434021659111522,0.234539762139,0.0447047688067,-0.225036486983,-0.00552944140509,-0.999872624874,0.00553634762764,0.0139134638011
1505434021668587211,40,1505434021668403500,0.234587222338,0.0447269380093,-0.223536714911,-0.00565111124888,-0.999880135059,0.00558337522671,0.0132843432948
1505434021688029848,41,1505434021687846252,0.234793916345,0.0447595119476,-0.222070664167,-0.005862405058,-0.999890089035,0.00511120958254,0.0126168075949
1505434021688043676,42,1505434021687860877,0.234786868095,0.0448224842548,-0.220634013414,-0.00589217944071,-0.999898850918,0.00485251843929,0.0120075177401
1505434021698684994,43,1505434021698547982,0.234737202525,0.0447265617549,-0.219125598669,-0.00578700937331,-0.999893128872,0.00570783717558,0.0121527481824
1505434021718175060,44,1505434021717948345,0.234548613429,0.0449416227639,-0.217586308718,-0.00579559709877,-0.999889075756,0.00507423607633,0.0127508752048
1505434021718181484,45,1505434021717963573,0.234388202429,0.0447760410607,-0.216098576784,-0.00539759034291,-0.999883711338,0.00572647480294,0.0130628719926
1505434021728320791,46,1505434021728239752,0.234239906073,0.0447217300534,-0.214603051543,-0.00528580602258,-0.999875962734,0.00608090963215,0.013530369848
1505434021748952671,47,1505434021748720973,0.234103098512,0.0447138734162,-0.213110297918,-0.00519794831052,-0.999877512455,0.0061248014681,0.0134315267205
1505434021748959162,48,1505434021748787123,0.23413079977,0.0447466261685,-0.211592361331,-0.00543943187222,-0.999882996082,0.00611500814557,0.0129204848781
1505434021758141782,49,1505434021758002663,0.233950465918,0.0445978790522,-0.210081532598,-0.00523221539333,-0.999877393246,0.0065184822306,0.0132436947897
1505434021778808910,50,1505434021778514217,0.233930796385,0.0447483547032,-0.208557903767,-0.00537502486259,-0.999876081944,0.00597970979288,0.0135322501883
1505434021778814294,51,1505434021778528550,0.233966127038,0.0446969270706,-0.207058787346,-0.00528618739918,-0.999879300594,0.00594924716279,0.0133435577154
1505434021788179313,52,1505434021788044065,0.233943521976,0.0446073375642,-0.205397799611,-0.00525507656857,-0.999880731106,0.00647551985458,0.0129998866469
1505434021808651447,53,1505434021808434231,0.233911186457,0.0448059849441,-0.20395027101,-0.00522831827402,-0.999885976315,0.00559540092945,0.0130136553198
1505434021808781150,54,1505434021808558577,0.233876228333,0.0448944568634,-0.202540516853,-0.0052076401189,-0.999890327454,0.00473115500063,0.0130316847935
1505434021818996771,55,1505434021818815353,0.233774870634,0.0449453294277,-0.201095625758,-0.00514880754054,-0.999888777733,0.00428214529529,0.0133272418752
1505434021838368793,56,1505434021838200942,0.23370206356,0.0449589043856,-0.19966557622,-0.00518461037427,-0.999891281128,0.00418189400807,0.0131528545171
1505434021838372363,57,1505434021838217128,0.233656644821,0.0448786094785,-0.198173746467,-0.00530967628583,-0.99989259243,0.00496055698022,0.0127300806344
1505434021848626431,58,1505434021848491124,0.233635917306,0.0448890849948,-0.196868613362,-0.00525957811624,-0.999896526337,0.00511149037629,0.0123779252172
1505434021868117780,59,1505434021867962447,0.233586356044,0.0447033122182,-0.195474922657,-0.00494555337355,-0.999894976616,0.00590515462682,0.0122747588903
1505434021868121845,60,1505434021867987253,0.233494535089,0.0446224026382,-0.194087639451,-0.00492690643296,-0.999890089035,0.00601195124909,0.01262813434
1505434021878434455,61,1505434021878205323,0.233397901058,0.0446036495268,-0.192602917552,-0.00515256915241,-0.999879658222,0.00664889253676,0.0130392666906
1505434021898970776,62,1505434021898727395,0.233409881592,0.0445101559162,-0.191189795732,-0.00540880905464,-0.999877989292,0.00678894063458,0.0129864634946
1505434021898975513,63,1505434021898782828,0.233371317387,0.0444858595729,-0.189801231027,-0.00534777902067,-0.999881327152,0.00676148384809,0.0127724809572
1505434021908261940,64,1505434021908071155,0.233337014914,0.044690258801,-0.188463017344,-0.00541764264926,-0.999892532825,0.00547337625176,0.0124697927386
1505434021928706922,65,1505434021928441587,0.233279675245,0.0447678752244,-0.187133476138,-0.00512900855392,-0.999900400639,0.00441429438069,0.0123860845342
1505434021928713294,66,1505434021928470104,0.233174622059,0.0449109002948,-0.185656413436,-0.00502084381878,-0.99990260601,0.00426135072485,0.012303785421
1505434021939012027,67,1505434021938813062,0.233091637492,0.0446753688157,-0.184267729521,-0.00479585537687,-0.999897956848,0.00516166631132,0.0124237705022
1505434021958720701,68,1505434021958231995,0.233039170504,0.0446300506592,-0.182982429862,-0.0047733001411,-0.999894738197,0.00522371986881,0.012667119503
1505434021958746110,69,1505434021958256927,0.232950508595,0.0447170808911,-0.181670978665,-0.00484249927104,-0.999894857407,0.00486322073266,0.0127732418478
1505434021968815040,70,1505434021968642799,0.232912808657,0.0446094125509,-0.180434629321,-0.00497224135324,-0.999896764755,0.00512450421229,0.0124650876969
1505434021988302051,71,1505434021988088259,0.232907295227,0.0445432178676,-0.17917637527,-0.00497239502147,-0.999900877476,0.00517999613658,0.0121123474091
1505434021988305219,72,1505434021988100460,0.232870474458,0.044596914202,-0.177956804633,-0.00496270088479,-0.999906301498,0.00482570705935,0.0118094645441
1505434021998522419,73,1505434021998377755,0.232804268599,0.0444929897785,-0.176697984338,-0.00499848509207,-0.999900996685,0.00568623840809,0.0118622547016
1505434022018903659,74,1505434022018733583,0.232765674591,0.0444597378373,-0.175566151738,-0.00492427637801,-0.999898910522,0.00576122058555,0.0120286075398
1505434022018907492,75,1505434022018771617,0.232717245817,0.0443092919886,-0.174337565899,-0.00471296114847,-0.999894917011,0.00601384602487,0.0123222768307
1505434022028207876,76,1505434022027978448,0.232581079006,0.0443545207381,-0.173144087195,-0.00468335580081,-0.999894440174,0.00576385343447,0.0124920392409
1505434022048598844,77,1505434022048420634,0.232518479228,0.0445376262069,-0.17198958993,-0.00464732572436,-0.999900400639,0.00504209194332,0.0123407198116
1505434022048605793,78,1505434022048451786,0.232472926378,0.0445752814412,-0.170899271965,-0.00435418775305,-0.999904692173,0.00499434769154,0.0121041722596
1505434022058887421,79,1505434022058728005,0.23240685463,0.0444411858916,-0.169724285603,-0.00418927986175,-0.999898254871,0.00579654145986,0.0123422592878
1505434022078365513,80,1505434022078122900,0.23229534924,0.0443604588509,-0.168577238917,-0.00422517675906,-0.999892115593,0.0060506509617,0.0126997791231
1505434022078370099,81,1505434022078138499,0.232237905264,0.0444143824279,-0.167451962829,-0.0044341571629,-0.999893307686,0.00583516061306,0.0126360068098
1505434022088553643,82,1505434022088373076,0.232213437557,0.0443462692201,-0.166358813643,-0.00451798830181,-0.999894142151,0.00614107493311,0.0123989665881
1505434022108983661,83,1505434022108797346,0.232226788998,0.0443872995675,-0.165252402425,-0.00465805269778,-0.999899864197,0.00584658281878,0.0120148966089
1505434022108987674,84,1505434022108809988,0.232204079628,0.0443075634539,-0.16405570507,-0.0043177655898,-0.999901175499,0.00601606955752,0.0119491117075
1505434022118250540,85,1505434022118011822,0.232177749276,0.0443981774151,-0.162918880582,-0.00412625586614,-0.99990439415,0.00585404410958,0.0118285305798
1505434022138741852,86,1505434022138460868,0.232170909643,0.0444288551807,-0.161848381162,-0.00428932998329,-0.999905467033,0.00564230699092,0.011782434769
1505434022138747799,87,1505434022138477535,0.232075914741,0.0443818606436,-0.160694047809,-0.00423917500302,-0.999903976917,0.00522359600291,0.0121193043888
1505434022148843914,88,1505434022148693318,0.231909066439,0.0444040931761,-0.159483715892,-0.0042038988322,-0.999897658825,0.00530762970448,0.0126032112166
1505434022168297120,89,1505434022168136955,0.231829106808,0.0443803109229,-0.158403560519,-0.00416212901473,-0.999896645546,0.00544010149315,0.0126396110281
1505434022168301329,90,1505434022168169077,0.231738492846,0.0444952175021,-0.157321736217,-0.00404411926866,-0.999900043011,0.0050273113884,0.0125820748508
1505434022178558723,91,1505434022178378613,0.231716290116,0.0445501059294,-0.156244307756,-0.00396263366565,-0.999901533127,0.00534442206845,0.0123565709218
1505434022188819468,92,1505434022188613234,0.23173058033,0.0445000492036,-0.155267804861,-0.00394341256469,-0.999902367592,0.00581215508282,0.0120820160955
1505434022198959184,93,1505434022198797424,0.23173981905,0.044470064342,-0.154300123453,-0.00387178035453,-0.999905347824,0.00566420145333,0.0119249457493
1505434022208200592,94,1505434022208010692,0.231759086251,0.0444742031395,-0.15336368978,-0.00396239897236,-0.999909758568,0.00528299203143,0.0116996634752
1505434022228576084,95,1505434022228470384,0.231706753373,0.0444472618401,-0.152358219028,-0.00417383387685,-0.999904692173,0.00549903232604,0.0119584379718
1505434022238915511,96,1505434022238695149,0.231627225876,0.0444329231977,-0.151443660259,-0.00428741145879,-0.999897837639,0.00576947070658,0.0123566882685
1505434022238919927,97,1505434022238708707,0.231586411595,0.0443333871663,-0.150566056371,-0.00429073022678,-0.999892652035,0.00627261307091,0.0125260753557
1505434022258320747,98,1505434022258154907,0.231504335999,0.044275034219,-0.14971357584,-0.00423731608316,-0.999889612198,0.00683648930863,0.0124934436753
1505434022268743298,99,1505434022268406484,0.231434360147,0.0441779606044,-0.148818776011,-0.00390322203748,-0.999886393547,0.00760922301561,0.0124071268365
1505434022268748075,100,1505434022268428639,0.231402501464,0.0441784188151,-0.148011952639,-0.00382355879992,-0.999889194965,0.00757069000974,0.0122336149216
1505434022288295055,101,1505434022288082385,0.23143003881,0.0442304350436,-0.147173479199,-0.00395218282938,-0.999893069267,0.00762407993898,0.0118346419185
1505434022298590665,102,1505434022298351149,0.231469348073,0.0442664660513,-0.146377310157,-0.00412023579702,-0.99989926815,0.00769768096507,0.0111951911822
1505434022298595979,103,1505434022298365455,0.23149971664,0.04417540133,-0.145522519946,-0.0042310138233,-0.99989759922,0.00827488582581,0.010879619047
1505434022318954862,104,1505434022318722485,0.231464624405,0.0442448072135,-0.144618287683,-0.00432884320617,-0.999894917011,0.00831539276987,0.0110576683655
1505434022328237877,105,1505434022328046239,0.231408119202,0.0441870205104,-0.143698185682,-0.00440202094615,-0.999890446663,0.00839682389051,0.0113691287115
1505434022328253505,106,1505434022328061472,0.23138988018,0.0440819859505,-0.14281873405,-0.00411493470892,-0.999889791012,0.00836539920419,0.0115545652807
1505434022348678713,107,1505434022348537810,0.231341928244,0.044183190912,-0.14197832346,-0.00406481092796,-0.999892711639,0.008127133362,0.0114932367578
1505434022359001530,108,1505434022358769308,0.231296360493,0.0443104282022,-0.141181960702,-0.00389257725328,-0.999898076057,0.00767266657203,0.0113955410197
1505434022359010066,109,1505434022358782507,0.231222897768,0.0442783609033,-0.140269562602,-0.00388387939893,-0.999896168709,0.00778547348455,0.0114900656044
1505434022378430822,110,1505434022378203192,0.231093630195,0.0442754141986,-0.1393802315,-0.00400029448792,-0.999890565872,0.00787891354412,0.0118627166376
1505434022388748261,111,1505434022388511152,0.230975940824,0.0441739298403,-0.138486906886,-0.00407172553241,-0.999884128571,0.00829579588026,0.012099724263
1505434022388752820,112,1505434022388553131,0.230921134353,0.0442316867411,-0.137668162584,-0.0040554930456,-0.999887824059,0.00791747868061,0.0120484335348
1505434022398592315,113,1505434022397899765,0.230919033289,0.0442104563117,-0.13695499301,-0.00407765759155,-0.999889671803,0.00790871586651,0.0118911815807
1505434022418654769,114,1505434022418378796,0.230903968215,0.0441869199276,-0.136209055781,-0.00416310224682,-0.999889671803,0.00799678079784,0.0118044288829
1505434022418664497,115,1505434022418436314,0.230861797929,0.0441251434386,-0.135345578194,-0.00430257059634,-0.999879181385,0.00877889804542,0.0120839448646
1505434022428875663,116,1505434022428688483,0.230807095766,0.0441584587097,-0.134619042277,-0.00440829014406,-0.99987578392,0.00876057427377,0.012336502783
1505434022448389234,117,1505434022448069291,0.230792999268,0.0442393645644,-0.133874818683,-0.00435178820044,-0.999878585339,0.00843553617597,0.0123575776815
1505434022448405188,118,1505434022448083733,0.230838268995,0.0442377440631,-0.133219078183,-0.00446658581495,-0.999885499477,0.00832989346236,0.0118167130277
1505434022458546107,119,1505434022458372302,0.230880990624,0.0442033745348,-0.132538676262,-0.00448374822736,-0.999890506268,0.00838208571076,0.0113341640681
1505434022479189095,120,1505434022478859882,0.230868667364,0.044261187315,-0.131844460964,-0.00444918405265,-0.999892830849,0.0084076821804,0.0111299157143
1505434022479196297,121,1505434022478875199,0.230852469802,0.044150095433,-0.1311814785,-0.00442114518955,-0.999889671803,0.00878187920898,0.0111330682412
1505434022488342689,122,1505434022488139103,0.23085103929,0.0440688244998,-0.130485862494,-0.00457070115954,-0.999887287617,0.00913185719401,0.0110054807737
1505434022508833296,123,1505434022508622385,0.230869889259,0.0440179035068,-0.129797130823,-0.00478039961308,-0.999883890152,0.00956225953996,0.0108624109998
1505434022508837405,124,1505434022508674313,0.23086887598,0.0440083481371,-0.129154011607,-0.00464211357757,-0.999884009361,0.00969959516078,0.010787316598
1505434022518049372,125,1505434022517839653,0.230823770165,0.0439744926989,-0.128414854407,-0.00442672846839,-0.999877274036,0.0101454285905,0.011083974503
1505434022538487377,126,1505434022538265339,0.230689957738,0.0439604111016,-0.127737045288,-0.00426636915654,-0.999872922897,0.00996475759894,0.0116934841499
1505434022538505951,127,1505434022538283418,0.230558812618,0.0440418124199,-0.127092003822,-0.0042783417739,-0.999869942665,0.00960771366954,0.0122238723561
1505434022548625458,128,1505434022548540418,0.230470910668,0.0442223995924,-0.12641812861,-0.00434715021402,-0.999875962734,0.00874575227499,0.0123590445146
1505434022558915406,129,1505434022558804157,0.230455681682,0.0442526452243,-0.125812500715,-0.0043596662581,-0.999880135059,0.00867537409067,0.0120594389737
1505434022568195068,130,1505434022568026413,0.230470478535,0.0443149283528,-0.125238195062,-0.00430556386709,-0.999887526035,0.00840765982866,0.0116519406438
1505434022588649518,131,1505434022588446574,0.23050352931,0.0443154573441,-0.124713800848,-0.0042396504432,-0.99989259243,0.00828692875803,0.0113244829699
1505434022598903119,132,1505434022598669270,0.230548277497,0.0443239882588,-0.124173477292,-0.00425403239205,-0.999892711639,0.00841713510454,0.0112096248195
1505434022598906908,133,1505434022598683406,0.230595901608,0.0443222709,-0.123667687178,-0.00448419619352,-0.999892830849,0.00833401177078,0.0111667728052
1505434022607946118,134,1505434022607807238,0.230665832758,0.0442336574197,-0.123165600002,-0.00471442658454,-0.999893248081,0.00852620881051,0.0108900042251
1505434022628430780,135,1505434022628236947,0.230709925294,0.0440989360213,-0.122593306005,-0.00466302782297,-0.999891042709,0.00923538766801,0.0105303172022
1505434022628457115,136,1505434022628269217,0.230797514319,0.044049307704,-0.122030332685,-0.00470081204548,-0.999890983105,0.00980577617884,0.00998996198177
1505434022638666492,137,1505434022638483847,0.230840235949,0.0439739115536,-0.121443733573,-0.00461337063462,-0.999889314175,0.0103903412819,0.00960065424442
1505434022658381746,138,1505434022658000367,0.230863109231,0.0439249835908,-0.120946653187,-0.00456040678546,-0.999892354012,0.0103407036513,0.00935610570014
1505434022658386780,139,1505434022658021759,0.230819031596,0.0439904294908,-0.120460540056,-0.00452031288296,-0.999895274639,0.00999809894711,0.00943504832685
1505434022668370753,140,1505434022668208981,0.230767667294,0.0440948233008,-0.119967103004,-0.00458466075361,-0.999898195267,0.00952431187034,0.00958887021989
1505434022688881794,141,1505434022688690907,0.230684891343,0.0441732741892,-0.119472146034,-0.00475858850405,-0.999897181988,0.00923896860331,0.00988188572228
1505434022688893703,142,1505434022688708025,0.230596125126,0.0441124103963,-0.118963211775,-0.00474507454783,-0.999891281128,0.00952320266515,0.0102102905512
1505434022698306227,143,1505434022698159170,0.230443552136,0.0441710241139,-0.118455059826,-0.00473692687228,-0.999887108803,0.00928028393537,0.0108331469819
1505434022718846395,144,1505434022718579899,0.230354607105,0.044127844274,-0.117949686944,-0.00466873124242,-0.999882996082,0.00927548669279,0.0112294480205
1505434022718868327,145,1505434022718619425,0.230339407921,0.0440994724631,-0.11756119132,-0.00466340268031,-0.999882042408,0.00947047770023,0.0111533915624
1505434022728998204,146,1505434022728828994,0.230364844203,0.0441538728774,-0.117228537798,-0.00467352382839,-0.999888300896,0.00917185470462,0.010841392912
1505434022748521168,147,1505434022748285560,0.2304572016,0.0441403239965,-0.11690941453,-0.00460594287142,-0.999894380569,0.00925220455974,0.010219653137
1505434022748528128,148,1505434022748301711,0.230578914285,0.0442739799619,-0.116605982184,-0.00420077005401,-0.999905109406,0.00892294757068,0.009616503492
1505434022758647790,149,1505434022758521582,0.230811312795,0.0449135676026,-0.116222687066,-0.00259204488248,-0.999932289124,0.00736285978928,0.00862811598927
1505434022778173891,150,1505434022777948428,0.230614617467,0.0436472520232,-0.116052411497,-0.00558190047741,-0.999877750874,0.0109785767272,0.00962799508125
1505434022778179251,151,1505434022777965453,0.230646640062,0.0435904152691,-0.115780629218,-0.00575643591583,-0.999876022339,0.0109916245565,0.00969034805894
1505434022788527208,152,1505434022788351836,0.230628281832,0.043612845242,-0.115502275527,-0.00583867030218,-0.999874591827,0.0109974266961,0.00979179516435
1505434022808995182,153,1505434022808798214,0.230359762907,0.0430620387197,-0.115137889981,-0.00730141252279,-0.999835908413,0.012841812335,0.0104887224734
1505434022809012238,154,1505434022808811373,0.230459839106,0.0437887050211,-0.114746533334,-0.00547815253958,-0.999878406525,0.0109125748277,0.00970245990902
1505434022818260405,155,1505434022818035384,0.23051674664,0.0438238456845,-0.114429093897,-0.00492442818359,-0.999887108803,0.0110295405611,0.00893377047032
1505434022838759683,156,1505434022838501287,0.230474278331,0.0444776266813,-0.113876819611,-0.00293449615128,-0.999908804893,0.0107280742377,0.00766155868769
1505434022838802610,157,1505434022838518486,0.230626821518,0.0441607683897,-0.114016339183,-0.00488175591454,-0.999921262264,0.00875177979469,0.00754568865523
1505434022848915520,158,1505434022848736605,0.230663746595,0.0442329794168,-0.113725870848,-0.00488567911088,-0.999927163124,0.00836249534041,0.0072039780207
1505434022868262770,159,1505434022868176146,0.230701893568,0.0442689694464,-0.113438278437,-0.0048088952899,-0.99992954731,0.00809458084404,0.00723498733714
1505434022868384136,160,1505434022868208164,0.23068536818,0.0439859740436,-0.113187789917,-0.00547935627401,-0.999919593334,0.00854700617492,0.00759668834507
1505434022878689831,161,1505434022878488682,0.23066136241,0.0444158390164,-0.112944506109,-0.00464884657413,-0.999933600426,0.00695414561778,0.00792398676276
1505434022898219277,162,1505434022897958839,0.230589434505,0.044276509434,-0.112688608468,-0.00468766316772,-0.999922335148,0.00805041752756,0.00827935524285
1505434022898223358,163,1505434022897974936,0.230523750186,0.0442539379001,-0.112550467253,-0.00483796745539,-0.999914824963,0.00835557840765,0.00878329388797
1505434022908465143,164,1505434022908274617,0.23035889864,0.0440159551799,-0.112468697131,-0.00557948509231,-0.999896526337,0.00913293845952,0.00961263012141
1505434022928989071,165,1505434022928708266,0.230487048626,0.0448558665812,-0.112415120006,-0.00356276868843,-0.999927163124,0.00695531116799,0.00919665116817
1505434022929013054,166,1505434022928746234,0.230226844549,0.0436631552875,-0.112330719829,-0.00604265928268,-0.999862790108,0.0116254193708,0.0101348236203
1505434022938212559,167,1505434022937987199,0.230152055621,0.0437065027654,-0.112363055348,-0.00584825174883,-0.999869942665,0.0107727693394,0.0104754213244
1505434022948331246,168,1505434022948201730,0.230058655143,0.0437787957489,-0.112261757255,-0.00588167225942,-0.999865055084,0.0108360853046,0.010853279382
1505434022958655255,169,1505434022958386243,0.23002192378,0.0438336022198,-0.112153626978,-0.00584488222376,-0.999864935875,0.0105094667524,0.0112070860341
1505434022968754574,170,1505434022968611887,0.230037659407,0.0438904799521,-0.11207216233,-0.00600261101499,-0.999871075153,0.00968111958355,0.0113197006285
1505434022988322051,171,1505434022988069590,0.230086237192,0.044074319303,-0.112119808793,-0.00604956783354,-0.999883472919,0.00795462355018,0.0115356016904
1505434022988343705,172,1505434022988085558,0.230079486966,0.0440906025469,-0.111960448325,-0.00601054215804,-0.999881803989,0.00796595495194,0.0116922408342
1505434022998493762,173,1505434022998318421,0.22996544838,0.0441554374993,-0.111706480384,-0.00623112544417,-0.999884366989,0.00779081089422,0.0114723062143
1505434023019103280,174,1505434023018855082,0.229936107993,0.0441549494863,-0.111608199775,-0.00611540861428,-0.999883234501,0.00773777021095,0.0116732101887
1505434023019107929,175,1505434023018869709,0.229838237166,0.0442457832396,-0.111561976373,-0.00579378660768,-0.999881267548,0.00750030018389,0.0121495025232
1505434023028224586,176,1505434023028081711,0.229845806956,0.0443753004074,-0.111517749727,-0.00563394790515,-0.999884307384,0.00709735183045,0.012214356102
1505434023048744923,177,1505434023048507514,0.229901537299,0.0444386154413,-0.11147543788,-0.00543263973668,-0.999886393547,0.00706716906279,0.0121553139761
1505434023048749627,178,1505434023048566214,0.229969605803,0.0444386303425,-0.111532837152,-0.00543604791164,-0.999888658524,0.0069412230514,0.0120435580611
1505434023058107019,179,1505434023057922132,0.229954466224,0.0445474311709,-0.111571066082,-0.0050509464927,-0.999895393848,0.00646101357415,0.0119149498641
1505434023078701594,180,1505434023078328643,0.230141893029,0.0449804328382,-0.111505903304,-0.00405264412984,-0.999915838242,0.00531499087811,0.0111185405403
1505434023078711882,181,1505434023078382013,0.230304792523,0.0444002710283,-0.112072072923,-0.00640665413812,-0.999887883663,0.0045567555353,0.0127431675792
1505434023088808183,182,1505434023088636525,0.230111867189,0.0442900359631,-0.111663371325,-0.00549537874758,-0.999878525734,0.00796230323613,0.0122197531164
1505434023108173218,183,1505434023107958161,0.230026304722,0.0440603345633,-0.111558005214,-0.00570645183325,-0.999864041805,0.00932317879051,0.0123464176431
1505434023108178707,184,1505434023107972478,0.230026289821,0.0442156493664,-0.111605554819,-0.00533782364801,-0.999874532223,0.00869735237211,0.0121124144644
1505434023118395452,185,1505434023118202598,0.229999303818,0.0442325174809,-0.111564777792,-0.00533587578684,-0.999875068665,0.00867735780776,0.0120859546587
1505434023138863580,186,1505434023138625086,0.229961827397,0.0438618138433,-0.11133594811,-0.00545387156308,-0.999841570854,0.0117850108072,0.0121776591986
1505434023138881862,187,1505434023138664994,0.229897245765,0.0440606661141,-0.111514024436,-0.00573824578896,-0.999866604805,0.00913989730179,0.0122623946518
1505434023148132937,188,1505434023147836175,0.229986220598,0.0442605428398,-0.11147647351,-0.00536532746628,-0.999877095222,0.00845065712929,0.0120676951483
1505434023168464472,189,1505434023168243069,0.229982972145,0.0441148653626,-0.111374117434,-0.00540126720443,-0.999867975712,0.00950901024044,0.0120181562379
1505434023168484512,190,1505434023168299850,0.230001345277,0.044276252389,-0.111475281417,-0.00532052246854,-0.999878704548,0.00827447604388,0.0120723387226
1505434023178850727,191,1505434023178581781,0.230010867119,0.0442493855953,-0.111496552825,-0.00535317277536,-0.999877095222,0.00835112575442,0.0121447304264
1505434023198179552,192,1505434023197993357,0.229987233877,0.0444334112108,-0.111478984356,-0.00485782092437,-0.999883890152,0.00787308532745,0.0121076041833
1505434023208438367,193,1505434023208192977,0.230059653521,0.0450388863683,-0.111445531249,-0.00349876261316,-0.999908387661,0.00617284653708,0.0115223443136
1505434023208442820,194,1505434023208226953,0.229959204793,0.0439053736627,-0.11162006855,-0.00610726745799,-0.999856889248,0.00944938417524,0.0126320878044
1505434023218746837,195,1505434023218581745,0.22995236516,0.0438051782548,-0.111622653902,-0.00614712852985,-0.999849915504,0.0099903549999,0.012752411887
1505434023238439153,196,1505434023238003385,0.229922950268,0.0437290295959,-0.111592255533,-0.00610488839447,-0.999838113785,0.0108839627355,0.0129643334076
1505434023238446302,197,1505434023238065297,0.229863539338,0.0435227230191,-0.111480362713,-0.0061662402004,-0.999804317951,0.013093710877,0.0134840440005
1505434023248604660,198,1505434023248425380,0.229960277677,0.0436602160335,-0.111941166222,-0.00714298849925,-0.999845266342,0.00911664683372,0.0132412146777
1505434023268352218,199,1505434023268164032,0.229965209961,0.0441593304276,-0.111899569631,-0.00569680565968,-0.999872148037,0.00752828270197,0.012904019095
1505434023268409693,200,1505434023268178254,0.229942604899,0.0443649590015,-0.111873999238,-0.00544170709327,-0.999877631664,0.0071337511763,0.0128140570596
1505434023278759959,201,1505434023278435240,0.229948788881,0.0443749912083,-0.111911587417,-0.00532937655225,-0.999878764153,0.00718584703282,0.0127455927432
1505434023298416927,202,1505434023297940642,0.229949593544,0.0443618819118,-0.111977681518,-0.00534373614937,-0.999878227711,0.00711057754233,0.0128243137151
1505434023298430527,203,1505434023297955248,0.229967445135,0.0442777723074,-0.112048618495,-0.00532144820318,-0.999876856804,0.00722973933443,0.0128701021895
1505434023308455270,204,1505434023308271004,0.22993311286,0.04464590922,-0.112174600363,-0.00534847332165,-0.999897301197,0.00452306354418,0.0125007145107
1505434023328860157,205,1505434023328663961,0.229949757457,0.044302623719,-0.111988581717,-0.00537993060425,-0.99987334013,0.00760547304526,0.0129051115364
1505434023328897690,206,1505434023328678210,0.229932919145,0.0441526062787,-0.112009435892,-0.00529078394175,-0.999864757061,0.00832803547382,0.0131557136774
1505434023338027757,207,1505434023337853542,0.229925453663,0.0441472940147,-0.112036474049,-0.00527961086482,-0.999860584736,0.00856281723827,0.0133262425661
1505434023358702495,208,1505434023358316619,0.229911804199,0.0442152433097,-0.112032771111,-0.00540008116513,-0.999861240387,0.00843807123601,0.0133141642436
1505434023358707211,209,1505434023358335009,0.229945614934,0.0442035757005,-0.112083673477,-0.00540012214333,-0.999863684177,0.00848200451583,0.0130906710401
1505434023368766357,210,1505434023368564426,0.230026260018,0.044142909348,-0.112170174718,-0.00532839214429,-0.999868571758,0.00866092182696,0.0126315662637
1505434023388329792,211,1505434023388078659,0.230077669024,0.0440710783005,-0.1122604087,-0.00524000870064,-0.999873399734,0.0086366198957,0.0122921578586
1505434023388340387,212,1505434023388147421,0.230118975043,0.0440779291093,-0.112345837057,-0.00520132761449,-0.999878168106,0.00856443308294,0.0119704306126
1505434023398631432,213,1505434023398423213,0.230154827237,0.0440957807004,-0.112462669611,-0.00518631702289,-0.999879360199,0.00873186998069,0.011749307625
1505434023419152957,214,1505434023418871268,0.230209290981,0.0440004318953,-0.112635597587,-0.00514218630269,-0.999880850315,0.00896037276834,0.0114742675796
1505434023419207494,215,1505434023418888190,0.230248704553,0.0439871996641,-0.112803921103,-0.0050977896899,-0.999883174896,0.00906705763191,0.0112079624087
1505434023428275341,216,1505434023428173021,0.230253949761,0.0440212450922,-0.112951025367,-0.0050992956385,-0.999884784222,0.00896869041026,0.0111391842365
1505434023448899851,217,1505434023448682775,0.230245292187,0.0440430268645,-0.113130941987,-0.0050125583075,-0.999885380268,0.00888692028821,0.0111872246489
1505434023448907422,218,1505434023448697151,0.230246856809,0.0439930260181,-0.113340571523,-0.00498299300671,-0.999885797501,0.00888917874545,0.0111582763493
1505434023458856042,219,1505434023458642463,0.230291008949,0.0440013892949,-0.113583132625,-0.00498106935993,-0.999890625477,0.00866600964218,0.0109014287591
1505434023478929449,220,1505434023478674865,0.23033054173,0.0440490506589,-0.113853901625,-0.00498767569661,-0.999891579151,0.00880553014576,0.010698758997
1505434023478932638,221,1505434023478688971,0.230334997177,0.0441111698747,-0.114134043455,-0.00494091259316,-0.999893724918,0.00850044190884,0.0107660992071
1505434023488145869,222,1505434023487935644,0.230364620686,0.0441157855093,-0.11453063041,-0.00486202910542,-0.999898314476,0.00786659773439,0.01085968595
1505434023508547163,223,1505434023508343153,0.230396673083,0.04408704862,-0.114946968853,-0.00482039665803,-0.999899983406,0.00780366174877,0.0107676973566
1505434023508551808,224,1505434023508396512,0.23041498661,0.0440561398864,-0.115357458591,-0.00489636324346,-0.99989759922,0.00809825025499,0.0107352798805
1505434023518880323,225,1505434023518696301,0.230452284217,0.0439773723483,-0.115844108164,-0.00489459792152,-0.999894738197,0.00858965702355,0.0106179034337
1505434023538446484,226,1505434023538111503,0.230445936322,0.0439889356494,-0.116394892335,-0.00477820308879,-0.999893307686,0.00858603231609,0.0108059672639
1505434023538462285,227,1505434023538125432,0.230442866683,0.0440153703094,-0.116951838136,-0.00464175594971,-0.999891877174,0.00837913993746,0.0111590335146
1505434023548523402,228,1505434023548351035,0.230410933495,0.0440571531653,-0.117510698736,-0.0047183916904,-0.999887943268,0.00837435573339,0.0114806033671
1505434023569007181,229,1505434023568824127,0.230400547385,0.0440622195601,-0.118055179715,-0.00482847727835,-0.999883592129,0.00869303848594,0.0115735195577
1505434023569012144,230,1505434023568858022,0.230442717671,0.0439497567713,-0.118679843843,-0.00492261955515,-0.999882221222,0.00920836254954,0.0112496661022
1505434023578273936,231,1505434023578097449,0.230509892106,0.0439111664891,-0.119249664247,-0.00484794331715,-0.999885797501,0.00939971301705,0.0107969632372
1505434023598727929,232,1505434023598533393,0.230570554733,0.0439599081874,-0.119800142944,-0.00468997843564,-0.999889969826,0.00927060563117,0.0105891460553
1505434023598738513,233,1505434023598546250,0.230569124222,0.043900758028,-0.12034136802,-0.00449889805168,-0.999889373779,0.00915851350874,0.0108244819567
1505434023608875758,234,1505434023608732843,0.230557724833,0.0439460650086,-0.120873235166,-0.00445085857064,-0.999888420105,0.00875332858413,0.0112534407526
1505434023628260112,235,1505434023628112964,0.230528771877,0.0439459383488,-0.121426105499,-0.00458197761327,-0.999883472919,0.00868404470384,0.0116945868358
1505434023628263146,236,1505434023628140146,0.230493366718,0.0440579913557,-0.122004449368,-0.00462961802259,-0.999884784222,0.00827399548143,0.0118580171838
1505434023638587379,237,1505434023638415914,0.230514124036,0.0441151745617,-0.122584819794,-0.00452881213278,-0.999889969826,0.00788365676999,0.011725185439
1505434023658131785,238,1505434023657935619,0.230527639389,0.044160079211,-0.123297564685,-0.0043218890205,-0.999896287918,0.00753740174696,0.0114862145856
1505434023658149226,239,1505434023657947827,0.230510950089,0.0442051887512,-0.123965114355,-0.00409489590675,-0.999899029732,0.00734342588112,0.0114584583789
1505434023668569571,240,1505434023668358207,0.23055061698,0.0442348904908,-0.124604865909,-0.00418732082471,-0.99989926815,0.00749950949103,0.0112991835922
1505434023688999740,241,1505434023688772889,0.230590566993,0.0442143715918,-0.125276356936,-0.00434993766248,-0.999896347523,0.00791630428284,0.0112095056102
1505434023689013561,242,1505434023688843999,0.230666622519,0.0440842919052,-0.125961899757,-0.00444258982316,-0.999892771244,0.00835699215531,0.0111719137058
1505434023698260205,243,1505434023698067259,0.230746567249,0.0439311489463,-0.126728773117,-0.0043736747466,-0.999890267849,0.00868047215044,0.0111807715148
1505434023718686858,244,1505434023718445470,0.230747610331,0.0439347177744,-0.127458080649,-0.00425727153197,-0.999886155128,0.0087727252394,0.0115142297
1505434023718690673,245,1505434023718458037,0.230776518583,0.043884832412,-0.12820571661,-0.00436032237485,-0.999881386757,0.0089723514393,0.0117365624756
1505434023728788661,246,1505434023728636183,0.230789065361,0.0438831970096,-0.129000961781,-0.00466082850471,-0.999878287315,0.00903242453933,0.0118330791593
1505434023748327880,247,1505434023748084787,0.230774670839,0.0440143868327,-0.129774451256,-0.00471845874563,-0.999881863594,0.00832015741616,0.0120283467695
1505434023748339941,248,1505434023748096986,0.2307600528,0.0441893525422,-0.130540445447,-0.00455832714215,-0.999883890152,0.00783119630069,0.0122506190091
1505434023758542135,249,1505434023758310039,0.230765089393,0.0442245639861,-0.131349951029,-0.00447991443798,-0.999886393547,0.00754259387031,0.0122587103397
1505434023778291080,250,1505434023778122599,0.230795741081,0.044127445668,-0.132191538811,-0.00459587387741,-0.999886512756,0.00776515668258,0.0120621593669
1505434023778295268,251,1505434023778145530,0.230822488666,0.0440756939352,-0.132968857884,-0.004432071466,-0.999885559082,0.00828419066966,0.0118552278727
1505434023788510273,252,1505434023788349827,0.230848804116,0.0440495498478,-0.133807390928,-0.00418751500547,-0.999887049198,0.0084156114608,0.0117311161011
1505434023808967185,253,1505434023808766130,0.230879917741,0.0440978519619,-0.134716212749,-0.00410662777722,-0.999890863895,0.00798952579498,0.0117286276072
1505434023808986206,254,1505434023808815124,0.230877101421,0.0441714413464,-0.135655105114,-0.00413375534117,-0.99989336729,0.00695096608251,0.0121583929285
1505434023818416832,255,1505434023818066051,0.230844929814,0.0441866889596,-0.1366404742,-0.00405543996021,-0.999888658524,0.00673587340862,0.0126845221967
1505434023838879515,256,1505434023838664781,0.230874717236,0.0442519113421,-0.13753336668,-0.00416961777955,-0.999887228012,0.00658947322518,0.0128373857588
1505434023838886551,257,1505434023838698134,0.23089581728,0.0441554971039,-0.13847450912,-0.00438077701256,-0.999879419804,0.00746558746323,0.0128916827962
1505434023848060136,258,1505434023847900731,0.230955854058,0.0441723018885,-0.139410123229,-0.00435667484999,-0.999875128269,0.00780373206362,0.0130296526477
1505434023868642469,259,1505434023868431948,0.230987861753,0.0441234000027,-0.14038939774,-0.00388526800089,-0.999874532223,0.00793187879026,0.0131489019841
1505434023868647175,260,1505434023868444454,0.231077715755,0.0441780872643,-0.1413218081,-0.00381967308931,-0.999878406525,0.00774240819737,0.0129842106253
1505434023878844207,261,1505434023878657144,0.231181338429,0.0441636517644,-0.142168849707,-0.00397505098954,-0.999882936478,0.00766995269805,0.0126253059134
1505434023898581471,262,1505434023898356905,0.231289058924,0.044058393687,-0.143026858568,-0.0042223315686,-0.999885976315,0.00771870044991,0.0122777270153
1505434023898591960,263,1505434023898369176,0.231338828802,0.0442270040512,-0.143905803561,-0.00425854790956,-0.999894797802,0.0069092689082,0.0120226275176
1505434023908801078,264,1505434023908608788,0.231359764934,0.0443229004741,-0.144834682345,-0.00412608357146,-0.999899208546,0.00646603479981,0.0119475172833
1505434023928321612,265,1505434023927963377,0.231374546885,0.0443227738142,-0.14576792717,-0.00383568368852,-0.999900102615,0.00604777596891,0.0121839251369
1505434023928325782,266,1505434023927976236,0.231353282928,0.044312864542,-0.146741062403,-0.00386174512096,-0.999898314476,0.00584923382849,0.0124189816415
1505434023938534733,267,1505434023938396019,0.23132160306,0.0442390218377,-0.147729754448,-0.00392834795639,-0.999890387058,0.00624615699053,0.012832345441
1505434023958954298,268,1505434023958775861,0.231304824352,0.0441916063428,-0.148714587092,-0.00417588325217,-0.999881088734,0.0068165329285,0.0131872175261
1505434023958960610,269,1505434023958802133,0.231312960386,0.0442236848176,-0.149815991521,-0.00453209178522,-0.999879360199,0.00646880827844,0.0133713865653
1505434023968255518,270,1505434023968102143,0.231296181679,0.0443706475198,-0.15093357861,-0.00425848551095,-0.999882996082,0.00583163509145,0.0134850498289
1505434023988775541,271,1505434023988543175,0.23135201633,0.0443761274219,-0.151944056153,-0.00408487953246,-0.999888837337,0.00567340524867,0.0131684662774
1505434023988779875,272,1505434023988614707,0.231440275908,0.0444137826562,-0.15302747488,-0.0037908970844,-0.99989515543,0.00523078581318,0.0129564348608
1505434023998544662,273,1505434023998379263,0.231548026204,0.0443804003298,-0.154132768512,-0.00363885075785,-0.999896347523,0.00539412675425,0.0128446212038
1505434024019000794,274,1505434024018825836,0.231596678495,0.0444354861975,-0.155175551772,-0.00376999331638,-0.9998960495,0.00516703398898,0.0129200695083
1505434024019019323,275,1505434024018864171,0.231609895825,0.0445955134928,-0.156191393733,-0.00390266673639,-0.999897241592,0.00450651114807,0.0130366869271
1505434024028370671,276,1505434024028128947,0.231660693884,0.0445545427501,-0.157265454531,-0.003986524418,-0.999897360802,0.0043227840215,0.0130626447499
1505434024038635855,277,1505434024038466077,0.231673166156,0.0443996675313,-0.158326551318,-0.00401137862355,-0.999894380569,0.0046417908743,0.0131726032123
1505434024059001739,278,1505434024058826685,0.231700867414,0.0443703271449,-0.159425094724,-0.00394843518734,-0.999895095825,0.00442723138258,0.0132143860683
1505434024059006225,279,1505434024058839061,0.231732115149,0.0444305129349,-0.160624474287,-0.00408170884475,-0.999894320965,0.00396606232971,0.0133786918595
1505434024068208493,280,1505434024068065148,0.231773301959,0.0445192120969,-0.161787226796,-0.00425382843241,-0.999892055988,0.00404482707381,0.0134699083865
1505434024088648554,281,1505434024088478941,0.231852039695,0.0445270016789,-0.162974447012,-0.00429140636697,-0.999891579151,0.00403557019308,0.0134929129854
1505434024088653145,282,1505434024088515890,0.231891974807,0.0444503724575,-0.164144545794,-0.00438343314454,-0.999886989594,0.00450930185616,0.0136574720964
1505434024099050523,283,1505434024098865656,0.23192666471,0.0445737317204,-0.165392205119,-0.00447490392253,-0.999887168407,0.00428050430492,0.0136840371415
1505434024118495860,284,1505434024118281001,0.232052996755,0.0444725714624,-0.16670152545,-0.00413660146296,-0.999891996384,0.00449274387211,0.0133701208979
1505434024118523580,285,1505434024118296249,0.232130914927,0.0445235185325,-0.167951852083,-0.00404168013483,-0.999894440174,0.00442804815248,0.013235530816
1505434024128942843,286,1505434024128542699,0.232197836041,0.0444772727787,-0.169261693954,-0.00403621792793,-0.999893009663,0.00471530715004,0.0132465725765
1505434024148084812,287,1505434024147858938,0.232268437743,0.0445200763643,-0.170655980706,-0.00458820024505,-0.999893665314,0.00435284012929,0.013139908202
1505434024148183921,288,1505434024148106783,0.23228174448,0.0444710031152,-0.171882942319,-0.00489834742621,-0.99988669157,0.00457256101072,0.0134834637865
1505434024158520236,289,1505434024158372550,0.232308298349,0.0442943759263,-0.173203140497,-0.00491600204259,-0.99987924099,0.00530785974115,0.0137530118227
1505434024179159587,290,1505434024178916483,0.232438340783,0.0441914238036,-0.17452852428,-0.0047931172885,-0.999878585339,0.00597585644573,0.0135747259483
1505434024179162705,291,1505434024178928800,0.232500448823,0.0443671457469,-0.175789803267,-0.00487538799644,-0.999881803989,0.00593457045034,0.0133151626214
1505434024188399623,292,1505434024188212493,0.232536718249,0.0444562658668,-0.176935046911,-0.00491368770599,-0.999883592129,0.00581960752606,0.0132233463228
1505434024208774838,293,1505434024208627082,0.232618510723,0.0446170531213,-0.178255274892,-0.00483617838472,-0.999891579151,0.00464752828702,0.013109723106
1505434024208778164,294,1505434024208679364,0.232659950852,0.0446081012487,-0.179594576359,-0.00465222308412,-0.999894976616,0.00406123511493,0.0131100863218
1505434024218258583,295,1505434024217991497,0.232681676745,0.0446719676256,-0.18085809052,-0.00464079109952,-0.999894678593,0.00359006645158,0.0132757145911
1505434024228508964,296,1505434024228322727,0.232725262642,0.0447885207832,-0.182151779532,-0.00484532350674,-0.999889850616,0.00351950130425,0.0135785127059
1505434024238749756,297,1505434024238530887,0.232783079147,0.0446922779083,-0.183456450701,-0.00490210112184,-0.999884009361,0.00414633844048,0.0138132954016
1505434024248934707,298,1505434024248750004,0.232779875398,0.0446582473814,-0.184800371528,-0.00505645899102,-0.999878585339,0.00414896989241,0.0141457598656
1505434024268320249,299,1505434024268166517,0.23286062479,0.0448265820742,-0.186212852597,-0.00534853851423,-0.999875724316,0.00362611399032,0.0143836084753
1505434024268329519,300,1505434024268216374,0.232933863997,0.0447349734604,-0.187634825706,-0.00512493913993,-0.999878823757,0.00395977078006,0.0141588151455
1505434024278741368,301,1505434024278574356,0.232977122068,0.0446253344417,-0.18902784586,-0.00481906766072,-0.99987912178,0.00484856497496,0.0139674171805
1505434024298216966,302,1505434024297976418,0.233018293977,0.0446029789746,-0.190482214093,-0.00487483432516,-0.999877393246,0.0052580749616,0.0139213046059
1505434024298224263,303,1505434024297988658,0.233009502292,0.0448208339512,-0.192009225488,-0.00514321960509,-0.99987500906,0.00439339876175,0.0142914615571
1505434024308346842,304,1505434024308196238,0.233004838228,0.0448037497699,-0.193472012877,-0.00518063083291,-0.999871790409,0.00430645234883,0.0145285706967
1505434024329139760,305,1505434024328563654,0.233131483197,0.0446397215128,-0.1949416399,-0.00524941831827,-0.999872267246,0.00497541390359,0.0142513634637
1505434024329143145,306,1505434024328575346,0.233272314072,0.0447000302374,-0.196516662836,-0.00537971174344,-0.999876737595,0.00512500992045,0.0138291381299
1505434024338977523,307,1505434024338827778,0.233290538192,0.0447782538831,-0.197949111462,-0.00532964896411,-0.999876499176,0.00508929463103,0.0138766746968
1505434024358491765,308,1505434024358228460,0.233329713345,0.0447663888335,-0.199457332492,-0.00487878127024,-0.999874830246,0.00481726974249,0.0142626306042
1505434024358498786,309,1505434024358245187,0.233366161585,0.0448866412044,-0.200895607471,-0.00476445350796,-0.999873518944,0.00447155721486,0.0144980903715
1505434024368730096,310,1505434024368576256,0.233480796218,0.0449262745678,-0.202444210649,-0.00500078033656,-0.999877154827,0.00415713014081,0.0142605062574
1505434024388256367,311,1505434024387978993,0.233527988195,0.0448482967913,-0.203905045986,-0.00517573952675,-0.999877095222,0.00447996659204,0.0141077879816
1505434024388262283,312,1505434024388005067,0.233557254076,0.0448319427669,-0.205439448357,-0.00533666647971,-0.999878823757,0.00437509315088,0.0139588303864
1505434024398382730,313,1505434024398221031,0.233579322696,0.0449001714587,-0.207083880901,-0.00540515733883,-0.999874293804,0.0040099946782,0.0143561875448
1505434024418927045,314,1505434024418616160,0.233628824353,0.044882427901,-0.208540096879,-0.00555600970984,-0.99986988306,0.00426087155938,0.0145328389481
1505434024418933320,315,1505434024418667124,0.233661666512,0.0447036735713,-0.21008759737,-0.00522106839344,-0.999872982502,0.00531577691436,0.0140915885568
1505434024427967527,316,1505434024427799754,0.233751893044,0.0448536090553,-0.211753979325,-0.00516481231898,-0.999878764153,0.00467126816511,0.01392735634
1505434024438196934,317,1505434024437989480,0.233735620975,0.0449541807175,-0.213414728642,-0.00491460505873,-0.99987912178,0.00402893358842,0.014191894792
1505434024458564819,318,1505434024458419085,0.233838483691,0.0450027547777,-0.215036600828,-0.00511619821191,-0.999879360199,0.00386590347625,0.0141475247219
1505434024458568871,319,1505434024458450571,0.233908176422,0.0449167862535,-0.216722548008,-0.00567716313526,-0.999872207642,0.00447022449225,0.0142601942644
1505434024468819450,320,1505434024468649534,0.233962059021,0.044909644872,-0.218200013041,-0.00596849014983,-0.999864697456,0.00474598770961,0.0145735284314
1505434024488255375,321,1505434024488053945,0.234010323882,0.0447482168674,-0.219975799322,-0.00583683513105,-0.99986499548,0.0048856139183,0.0145599124953
1505434024488265451,322,1505434024488112470,0.233983725309,0.0446649864316,-0.221596702933,-0.00553228287026,-0.999863624573,0.00490278657526,0.0147705655545
1505434024498544019,323,1505434024498365744,0.234066978097,0.0448131561279,-0.223304033279,-0.00564478244632,-0.999871611595,0.00475872727111,0.0142241716385
1505434024518428575,324,1505434024518010192,0.234144434333,0.0448803417385,-0.224958971143,-0.00544886430725,-0.999876916409,0.004482019227,0.0140159055591
1505434024518436490,325,1505434024518026139,0.234218239784,0.0448556728661,-0.226629137993,-0.00506289349869,-0.999880194664,0.0039078281261,0.0140975899994
1505434024528426872,326,1505434024528323097,0.234306961298,0.045052330941,-0.228340774775,-0.00545153068379,-0.999877512455,0.00330752902664,0.0142925567925
1505434024548993102,327,1505434024548787468,0.234387263656,0.0448904894292,-0.230018213391,-0.00600226130337,-0.999869406223,0.00415678694844,0.0144176157191
1505434024549010915,328,1505434024548828338,0.23449575901,0.0448225140572,-0.231638491154,-0.00622842414305,-0.999872326851,0.00440069846809,0.0140422815457
1505434024558259406,329,1505434024558065655,0.234510600567,0.0450472459197,-0.233508825302,-0.00601295847446,-0.999879837036,0.00322604761459,0.0139170251787
1505434024578655260,330,1505434024578441199,0.23454067111,0.04485591501,-0.235225468874,-0.00536931073293,-0.999885559082,0.00378898158669,0.0136294802651
1505434024578666241,331,1505434024578491489,0.234506234527,0.0447888448834,-0.236919626594,-0.00521141896024,-0.999884903431,0.00420923670754,0.0136079201475
1505434024598309677,332,1505434024598022429,0.234562635422,0.044784322381,-0.23872487247,-0.00526225892827,-0.99988335371,0.0040575787425,0.0137555720285
1505434024598314659,333,1505434024598033876,0.234571292996,0.0447597764432,-0.240440815687,-0.00553330779076,-0.999881029129,0.0040443665348,0.0138187287375
1505434024608333982,334,1505434024608228767,0.234605655074,0.0447201021016,-0.242198556662,-0.00571651151404,-0.999882340431,0.00376297021285,0.0137270446867
1505434024629029169,335,1505434024628672819,0.23474535346,0.0446816980839,-0.243936643004,-0.00604059826583,-0.999882519245,0.00406388612464,0.0134873492643
1505434024629032200,336,1505434024628687174,0.234846547246,0.0446813441813,-0.245704814792,-0.00585727347061,-0.999884665012,0.00414032535627,0.0133926980197
1505434024638006181,337,1505434024637835079,0.234795466065,0.0447932742536,-0.247619703412,-0.00510921748355,-0.999885797501,0.00309516792186,0.013884935528
1505434024658639717,338,1505434024658379371,0.234748154879,0.0448180325329,-0.249404862523,-0.00502072274685,-0.999882698059,0.00313937477767,0.0141255408525
1505434024658644780,339,1505434024658481749,0.234768092632,0.0442435406148,-0.251229971647,-0.00466228602454,-0.999877512455,0.00554746668786,0.0138762006536
1505434024668935435,340,1505434024668746926,0.234889879823,0.0441316775978,-0.252948254347,-0.00509124994278,-0.9998716712,0.00629501836374,0.0138207636774
1505434024688317310,341,1505434024688164326,0.234935998917,0.0444671362638,-0.25491720438,-0.00555262155831,-0.999872624874,0.00498596718535,0.0141103910282
1505434024688380321,342,1505434024688189933,0.235022321343,0.0443217381835,-0.256761908531,-0.00526164565235,-0.999872207642,0.00512587139383,0.01419425942
1505434024698568667,343,1505434024698444877,0.23519320786,0.0443230867386,-0.25857001543,-0.00525101739913,-0.9998716712,0.00573155423626,0.0140079827979
1505434024719138550,344,1505434024718803944,0.235266268253,0.0443821512163,-0.260565787554,-0.00536187551916,-0.999875605106,0.00562399951741,0.0137259960175
1505434024719149392,345,1505434024718819755,0.235209152102,0.044613391161,-0.262410730124,-0.00553467450663,-0.999873578548,0.00488001666963,0.0140816215426
1505434024728285426,346,1505434024728074405,0.235125139356,0.0443635843694,-0.264281302691,-0.00590308057144,-0.999857187271,0.00556842330843,0.0148262819275
1505434024748542690,347,1505434024748418962,0.235266417265,0.044410135597,-0.26609903574,-0.0061638392508,-0.999847829342,0.00668217148632,0.0148873711005
1505434024748547549,348,1505434024748443918,0.235390618443,0.0445625707507,-0.267938137054,-0.00608078530058,-0.999849617481,0.00628575589508,0.0149745866656
1505434024758835791,349,1505434024758594327,0.235466405749,0.0445480309427,-0.269751966,-0.00572727527469,-0.999857008457,0.00620409846306,0.0146525613964
1505434024778227502,350,1505434024778026237,0.235547214746,0.0444515943527,-0.27161437273,-0.00566343171522,-0.999857664108,0.00649884901941,0.0145066305995
1505434024778240085,351,1505434024778042324,0.235641568899,0.044427998364,-0.273394733667,-0.00543785234913,-0.999866485596,0.00636079674587,0.0140334209427
1505434024788468236,352,1505434024788325697,0.235649421811,0.0445718839765,-0.275258004665,-0.00578371668234,-0.999863743782,0.00556819187477,0.0144225563854
1505434024808927881,353,1505434024808716647,0.235795900226,0.0447583831847,-0.277085840702,-0.00626598251984,-0.999864220619,0.0048859724775,0.0144361257553
1505434024808931288,354,1505434024808727773,0.235840588808,0.0445969365537,-0.2789478302,-0.00655390648171,-0.999861121178,0.00514533184469,0.0144341522828
1505434024818100616,355,1505434024817949709,0.235702112317,0.0444871149957,-0.280862778425,-0.00609718915075,-0.999856948853,0.00577298132703,0.0146839888766
1505434024838661073,356,1505434024838471530,0.23573037982,0.0445833578706,-0.282836675644,-0.00606239074841,-0.999865710735,0.00554018374532,0.0141818830743
1505434024838669420,357,1505434024838495538,0.235755383968,0.0444493591785,-0.284782528877,-0.00579693634063,-0.999864041805,0.00637783110142,0.0140582518652
1505434024848884317,358,1505434024848753831,0.235607877374,0.0443772636354,-0.28676584363,-0.00611371127889,-0.999852240086,0.00728878704831,0.0143211241812
1505434024858469348,359,1505434024858310065,0.235884606838,0.0443781502545,-0.288682967424,-0.00615451717749,-0.999861836433,0.00719562359154,0.0136561561376
1505434024868675626,360,1505434024868551053,0.235950604081,0.0445769280195,-0.290663719177,-0.00619327649474,-0.999863684177,0.00664338748902,0.0137916589156
1505434024878925238,361,1505434024878744503,0.236089661717,0.0445031821728,-0.292563050985,-0.00661054067314,-0.999856770039,0.00733623746783,0.0137424301356
1505434024898550026,362,1505434024898364282,0.236221045256,0.0443191193044,-0.294500917196,-0.00629355944693,-0.999860584736,0.00714563159272,0.0137132396922
1505434024898560885,363,1505434024898396065,0.235878378153,0.0442642308772,-0.296506583691,-0.0060471855104,-0.999843537807,0.00703624123707,0.015063197352
1505434024908695338,364,1505434024908590211,0.236063629389,0.0444198921323,-0.298371493816,-0.00630222214386,-0.999852895737,0.00666958466172,0.0144926737994
1505434024918948834,365,1505434024918815703,0.23596650362,0.0444775298238,-0.300207346678,-0.00665524881333,-0.999850988388,0.00654203211889,0.0145212113857
1505434024928153546,366,1505434024928029744,0.235929682851,0.0446850955486,-0.302279859781,-0.00594315864146,-0.99986332655,0.00548152206466,0.0144242839888
1505434024938539521,367,1505434024938259915,0.23621545732,0.0447750166059,-0.304166078568,-0.00606824550778,-0.999875247478,0.0050712665543,0.0136726051569
1505434024948580568,368,1505434024948472911,0.236131161451,0.0448517799377,-0.306087940931,-0.00591745972633,-0.999877989292,0.00481543829665,0.0136318746954
1505434024958753512,369,1505434024958652331,0.236427292228,0.0447288900614,-0.308008491993,-0.00559875136241,-0.99988669157,0.00539854820818,0.0128904161975
1505434024968019593,370,1505434024967867448,0.236406564713,0.0443595349789,-0.310115635395,-0.00642152689397,-0.999871551991,0.00648339791223,0.0131725985557
1505434024978286545,371,1505434024978086931,0.236477181315,0.0443831756711,-0.312077999115,-0.00634834216908,-0.999873697758,0.00615561148152,0.0132055394351
1505434024988461189,372,1505434024988313431,0.236391678452,0.0445381365716,-0.314129203558,-0.00599339930341,-0.999876022339,0.00627423590049,0.0131359500811
1505434024998640660,373,1505434024998526076,0.236550852656,0.0445698276162,-0.31609877944,-0.00572327617556,-0.99988591671,0.00585505180061,0.0126892728731
1505434025009019157,374,1505434025008767760,0.236315608025,0.0446289926767,-0.318115830421,-0.00527163082734,-0.999881744385,0.00567856384441,0.0132901025936
1505434025018707130,375,1505434025018120520,0.236604720354,0.0448345318437,-0.320121526718,-0.00476667983457,-0.999894320965,0.00483257882297,0.0128557765856
1505434025028600215,376,1505434025028426295,0.23677662015,0.0449045784771,-0.322093576193,-0.00494018057361,-0.999894499779,0.00465591810644,0.0128387212753
1505434025038739310,377,1505434025038617261,0.236575946212,0.0446850247681,-0.324237525463,-0.00535867596045,-0.999880373478,0.00491926539689,0.0136498771608
1505434025048034739,378,1505434025047798255,0.236814275384,0.0445738844573,-0.326257884502,-0.00551035068929,-0.999882698059,0.00492305541411,0.0134161710739
1505434025058245280,379,1505434025057982983,0.236960947514,0.0446022748947,-0.328340142965,-0.00550268124789,-0.999889075756,0.00480375671759,0.012984180823
