%time,field.header.seq,field.header.stamp,field.header.frame_id,field.pose.position.x,field.pose.position.y,field.pose.position.z,field.pose.orientation.x,field.pose.orientation.y,field.pose.orientation.z,field.pose.orientation.w
1505434021268670109,5338,1505434021268549692,-0.467070221901,0.418089151382,-1.09656882286,0.038251966238,0.0288421846926,-0.0626507103443,0.996885061264
1505434021288328541,5339,1505434021288137879,-0.465146958828,0.42256718874,-1.10592651367,0.0397582948208,0.0283998809755,-0.0631698966026,0.996806025505
1505434021288344117,5340,1505434021288162033,-0.463087469339,0.427076756954,-1.11579716206,0.0420582070947,0.0279667451978,-0.0637641847134,0.996686041355
1505434021298518869,5341,1505434021298361718,-0.460945725441,0.43145096302,-1.12492203712,0.0437846668065,0.0276959612966,-0.0643108263612,0.996584177017
1505434021318037825,5342,1505434021317834582,-0.458609759808,0.435593485832,-1.13436448574,0.0451519489288,0.0270073805004,-0.0647177100182,0.99651569128
1505434021318041965,5343,1505434021317865558,-0.456258356571,0.439825087786,-1.14355921745,0.0461884513497,0.0262902267277,-0.0649539530277,0.996472001076
1505434021328301457,5344,1505434021328169884,-0.453727483749,0.443867325783,-1.15229284763,0.0470196902752,0.0251340828836,-0.0646215453744,0.996484577656
1505434021348785800,5345,1505434021348620174,-0.451104313135,0.447822004557,-1.16137158871,0.0481302328408,0.0253640525043,-0.0648454353213,0.996411144733
1505434021348790605,5346,1505434021348663577,-0.448379307985,0.451709538698,-1.1698384285,0.0490976274014,0.0251274872571,-0.0644604489207,0.996394991875
1505434021358041221,5347,1505434021357904921,-0.445548266172,0.455501228571,-1.17839360237,0.049686126411,0.024651909247,-0.064336925745,0.996385633945
1505434021378454645,5348,1505434021378280067,-0.442695438862,0.459061712027,-1.18673789501,0.0501567274332,0.0241832602769,-0.0640836507082,0.996389806271
1505434021378461523,5349,1505434021378303544,-0.439494222403,0.46273329854,-1.19522058964,0.0511220507324,0.0235405098647,-0.0633172392845,0.996405124664
1505434021388783578,5350,1505434021388589897,-0.436404317617,0.466219961643,-1.20303857327,0.05126208812,0.023179076612,-0.0628717839718,0.996434688568
1505434021408276373,5351,1505434021408046747,-0.433267235756,0.469733387232,-1.21073877811,0.0512289740145,0.0228728000075,-0.0632410869002,0.99642008543
1505434021408281392,5352,1505434021408076214,-0.429896116257,0.473005831242,-1.21895837784,0.0523762181401,0.0217513013631,-0.0621572621167,0.996453821659
1505434021418572796,5353,1505434021418401316,-0.426546514034,0.476258814335,-1.2264162302,0.0523498095572,0.0214481130242,-0.0622211620212,0.99645781517
1505434021428817705,5354,1505434021428645091,-0.422967374325,0.479518383741,-1.23418056965,0.0527365133166,0.0210025720298,-0.0621729493141,0.996449828148
1505434021448192768,5355,1505434021447987292,-0.419408500195,0.482601195574,-1.24125635624,0.0526461042464,0.0207062885165,-0.0622720755637,0.996454656124
1505434021448197439,5356,1505434021448010583,-0.415733486414,0.485810130835,-1.2484139204,0.0528061054647,0.0202867314219,-0.0626111030579,0.99643355608
1505434021458400383,5357,1505434021458209280,-0.41195294261,0.488795995712,-1.2554628849,0.0523776188493,0.0197677258402,-0.0627398043871,0.996458530426
1505434021479291568,5358,1505434021478778118,-0.40802282095,0.49176248908,-1.26215291023,0.0527791082859,0.0195261444896,-0.0625385344028,0.996454715729
1505434021479296743,5359,1505434021478804298,-0.404271006584,0.494382679462,-1.26920187473,0.0523607283831,0.0190854836255,-0.0630064383149,0.996455848217
1505434021488242074,5360,1505434021488110728,-0.400214403868,0.497055441141,-1.27589976788,0.0529622733593,0.0183316189796,-0.0627429783344,0.996454834938
1505434021508751479,5361,1505434021508462787,-0.395894944668,0.499802529812,-1.28237891197,0.0529468730092,0.0178819745779,-0.0622013285756,0.996497809887
1505434021508756563,5362,1505434021508500430,-0.391739308834,0.502366662025,-1.28861284256,0.05299256742,0.017673747614,-0.0619910992682,0.996512115002
1505434021518941770,5363,1505434021518788860,-0.387286782265,0.504896819592,-1.29497289658,0.0532793104649,0.0168822593987,-0.0610959455371,0.996565878391
1505434021538557693,5364,1505434021538228552,-0.382916212082,0.507409453392,-1.30074906349,0.0531098023057,0.0170182231814,-0.0610989741981,0.996572494507
1505434021538568943,5365,1505434021538256321,-0.378354400396,0.509963572025,-1.30671179295,0.0533946715295,0.0159942340106,-0.0602249540389,0.996627449989
1505434021548572491,5366,1505434021548448135,-0.373658627272,0.512198388577,-1.31256341934,0.0529883541167,0.0156265199184,-0.0598187744617,0.99667930603
1505434021569218987,5367,1505434021569042427,-0.368993908167,0.514512777328,-1.31783938408,0.0530978292227,0.0156962126493,-0.0591410137713,0.996712863445
1505434021569225682,5368,1505434021569080776,-0.364076703787,0.516870141029,-1.32366764545,0.0536724738777,0.0149174928665,-0.0582020580769,0.996749281883
1505434021578514402,5369,1505434021578321163,-0.359269440174,0.518973886967,-1.32885169983,0.0535064637661,0.0147698651999,-0.0579691827297,0.996774077415
1505434021599046339,5370,1505434021598764312,-0.354342311621,0.521148443222,-1.3339984417,0.0532599836588,0.0143429739401,-0.057326387614,0.996830642223
1505434021599054929,5371,1505434021598788131,-0.349244505167,0.52334600687,-1.33923089504,0.052960023284,0.0133525403216,-0.0565378069878,0.996905386448
1505434021608200555,5372,1505434021608065312,-0.344149798155,0.52544516325,-1.34378504753,0.0524895228446,0.0130463680252,-0.0557901486754,0.996976494789
1505434021628675574,5373,1505434021628471504,-0.338898360729,0.52739751339,-1.34868073463,0.0525358431041,0.0127520496026,-0.0551292300224,0.997014582157
1505434021628680250,5374,1505434021628507260,-0.333679288626,0.529482901096,-1.35323917866,0.0523998178542,0.0121797323227,-0.0547106638551,0.997051954269
1505434021638901341,5375,1505434021638689391,-0.328325599432,0.531453192234,-1.35781824589,0.0531971007586,0.0119850356132,-0.0538137964904,0.997060894966
1505434021660204393,5376,1505434021659085422,-0.322913020849,0.533341705799,-1.36228907108,0.0536258630455,0.0116516146809,-0.0533715188503,0.997065663338
1505434021660211957,5377,1505434021659106915,-0.317443728447,0.53520488739,-1.36653470993,0.0536169819534,0.0113309528679,-0.0523171275854,0.99712574482
1505434021668581214,5378,1505434021668385610,-0.311818689108,0.536982178688,-1.37057828903,0.0538527294993,0.0110407704487,-0.0513168685138,0.997168242931
1505434021688017746,5379,1505434021687829195,-0.306302040815,0.538809359074,-1.37460398674,0.0539380833507,0.0107607487589,-0.0507471859455,0.997195839882
1505434021688021107,5380,1505434021687855183,-0.300643265247,0.540522813797,-1.37847816944,0.0540379360318,0.0103462189436,-0.0499486401677,0.997235119343
1505434021698679351,5381,1505434021698529750,-0.294804662466,0.542253315449,-1.38231110573,0.0540666244924,0.0100072585046,-0.0488515086472,0.997291445732
1505434021718127273,5382,1505434021717930005,-0.289135336876,0.544045209885,-1.38576436043,0.0542107485235,0.00980909727514,-0.0479804240167,0.99732786417
1505434021718169862,5383,1505434021717957323,-0.283227711916,0.545782387257,-1.38921582699,0.0549398735166,0.0092466622591,-0.0468759424984,0.997345864773
1505434021728316062,5384,1505434021728192049,-0.277367919683,0.547508776188,-1.3924574852,0.0551280863583,0.00865758955479,-0.0461206361651,0.997376024723
1505434021748950055,5385,1505434021748703607,-0.271449565887,0.549248158932,-1.39564919472,0.0556429624557,0.00849884841591,-0.0452620275319,0.997388064861
1505434021748954527,5386,1505434021748779813,-0.265429466963,0.55079638958,-1.39894533157,0.0558611676097,0.00805396493524,-0.0442175976932,0.997426390648
1505434021758137941,5387,1505434021757988747,-0.259422779083,0.552461564541,-1.40159606934,0.055997595191,0.00810829550028,-0.0431201942265,0.997466385365
1505434021778723397,5388,1505434021778491964,-0.253290593624,0.554260134697,-1.40429008007,0.0563060864806,0.00777571694925,-0.0421980693936,0.997491061687
1505434021778753718,5389,1505434021778523124,-0.247233793139,0.555779457092,-1.40720438957,0.0568208657205,0.00740329176188,-0.0412170141935,0.99750572443
1505434021788166027,5390,1505434021788025699,-0.241086751223,0.557414650917,-1.40951764584,0.0572470910847,0.00711201829836,-0.0402920730412,0.997521221638
1505434021808647597,5391,1505434021808417707,-0.234879493713,0.559098482132,-1.41200184822,0.0576442033052,0.00677027786151,-0.0392113961279,0.997543931007
1505434021808761481,5392,1505434021808552764,-0.22871850431,0.560803592205,-1.41407573223,0.0579602383077,0.00684450706467,-0.0383156724274,0.997559905052
1505434021818986629,5393,1505434021818786735,-0.222398594022,0.562232375145,-1.41612172127,0.0582347884774,0.00647997483611,-0.0369337573647,0.997598409653
1505434021838361949,5394,1505434021838183138,-0.216103971004,0.563943326473,-1.41828846931,0.0586259663105,0.00605679815635,-0.0359554067254,0.99761390686
1505434021838365127,5395,1505434021838210731,-0.20983800292,0.565414130688,-1.42014038563,0.0585437677801,0.00582700455561,-0.0347567759454,0.997662603855
1505434021848609799,5396,1505434021848473290,-0.203427836299,0.567100822926,-1.42159855366,0.0589545033872,0.00551605224609,-0.0331981703639,0.997693240643
1505434021868108707,5397,1505434021867946879,-0.197119772434,0.568862199783,-1.42330336571,0.0590560771525,0.0055458243005,-0.0323001183569,0.997716546059
1505434021868116175,5398,1505434021867980968,-0.190702453256,0.570506870747,-1.4242515564,0.0589762963355,0.00536762597039,-0.0308652240783,0.997767686844
1505434021878393823,5399,1505434021878186623,-0.184334889054,0.572051227093,-1.42586278915,0.0594984553754,0.00512396311387,-0.0294251609594,0.997781515121
1505434021898954345,5400,1505434021898707815,-0.177942544222,0.573712050915,-1.42713451385,0.0595698282123,0.00458930339664,-0.0283273421228,0.997811615467
1505434021899152448,5401,1505434021898773843,-0.171500474215,0.575393438339,-1.42781317234,0.059834446758,0.00437982939184,-0.0272390563041,0.997826993465
1505434021908215804,5402,1505434021908045160,-0.165103152394,0.577087700367,-1.4290907383,0.0598392114043,0.00393756851554,-0.0259544160217,0.997862815857
1505434021928611036,5403,1505434021928425877,-0.158700063825,0.578753173351,-1.4297015667,0.060303747654,0.0038289364893,-0.024779766798,0.997865080833
1505434021928690911,5404,1505434021928464378,-0.152348816395,0.580633938313,-1.42987704277,0.0603924803436,0.00391990505159,-0.0238751303405,0.997881472111
1505434021939004673,5405,1505434021938793277,-0.145945668221,0.582447469234,-1.4307898283,0.0609783045948,0.00390564021654,-0.0229026414454,0.997868597507
1505434021958466980,5406,1505434021958213138,-0.139518424869,0.584167599678,-1.4309309721,0.0608517192304,0.00342797324993,-0.0218068044633,0.997902750969
1505434021958474697,5407,1505434021958249917,-0.133106023073,0.586138546467,-1.43105363846,0.0613018907607,0.0036130095832,-0.0205587893724,0.997901022434
1505434021968810851,5408,1505434021968623611,-0.126700267196,0.58813393116,-1.43122661114,0.06121243909,0.00349826202728,-0.0193883888423,0.997930288315
1505434021988305568,5409,1505434021988070989,-0.12026616931,0.590196490288,-1.4305151701,0.0607613436878,0.00339934136719,-0.0185763500631,0.997973620892
1505434021988310977,5410,1505434021988095686,-0.113858446479,0.592143177986,-1.43063080311,0.0606704726815,0.00327595928684,-0.017166165635,0.998004853725
1505434021998515703,5411,1505434021998358587,-0.107470139861,0.594285190105,-1.42989861965,0.0599069185555,0.00280746817589,-0.0161725692451,0.998069047928
1505434022018895737,5412,1505434022018714163,-0.101152546704,0.596348941326,-1.42939674854,0.0598681010306,0.00276051275432,-0.0148745467886,0.998091638088
1505434022018899449,5413,1505434022018761710,-0.0948223024607,0.598541140556,-1.42911493778,0.0603361055255,0.00264939316548,-0.0134981442243,0.998083353043
1505434022028203850,5414,1505434022027962602,-0.0886230245233,0.60065895319,-1.42797517776,0.0599970407784,0.00271364697255,-0.012991597876,0.998110353947
1505434022048579352,5415,1505434022048400454,-0.0822676047683,0.602966606617,-1.42738902569,0.0605926960707,0.00269148289226,-0.0114423269406,0.998093366623
1505434022048583241,5416,1505434022048443857,-0.0760928988457,0.605302989483,-1.42625892162,0.0599239394069,0.00256976415403,-0.0107405669987,0.998141884804
1505434022058884686,5417,1505434022058710502,-0.0699568465352,0.60761487484,-1.42484343052,0.0595030784607,0.00259259319864,-0.00995040871203,0.998175144196
1505434022078334239,5418,1505434022078102276,-0.0637364760041,0.609997332096,-1.42385160923,0.058992434293,0.00218163710088,-0.00880171917379,0.998217284679
1505434022078339644,5419,1505434022078132406,-0.0576366707683,0.612423717976,-1.42217683792,0.0582995638251,0.00202311296016,-0.00799314305186,0.998265147209
1505434022088550675,5420,1505434022088344561,-0.0515617243946,0.61483091116,-1.42065799236,0.0583833605051,0.00231939484365,-0.00703454110771,0.998266756535
1505434022108967603,5421,1505434022108780376,-0.0454863160849,0.617243945599,-1.41901433468,0.0587727986276,0.00218857778236,-0.00582692353055,0.998251974583
1505434022108976672,5422,1505434022108805076,-0.0394762642682,0.619689822197,-1.41731750965,0.0591393895447,0.00251344335265,-0.00477333785966,0.998235106468
1505434022118244974,5423,1505434022117993428,-0.0334216021001,0.622286975384,-1.41556704044,0.0601874254644,0.00230176514015,-0.0028860073071,0.9981803298
1505434022138723409,5424,1505434022138439493,-0.0274623334408,0.624742507935,-1.41358160973,0.0603792145848,0.00210307748057,-0.00143799290527,0.998172283173
1505434022138727471,5425,1505434022138470974,-0.0215501468629,0.627251565456,-1.41149580479,0.0604754351079,0.00209826976061,-0.000141358628753,0.998167514801
1505434022148832171,5426,1505434022148673474,-0.0156656429172,0.629809975624,-1.40922212601,0.0606572143734,0.00206841016188,0.00172532559372,0.998155117035
1505434022168284374,5427,1505434022168109769,-0.00988021306694,0.632299304008,-1.40694987774,0.0609953701496,0.00213637645356,0.00305460300297,0.998131096363
1505434022168291871,5428,1505434022168146964,-0.00416563032195,0.63501739502,-1.40466916561,0.0613010190427,0.00207388470881,0.00420899316669,0.998108327389
1505434022178553326,5429,1505434022178359333,0.00147374742664,0.637630045414,-1.40195465088,0.0615470148623,0.00200884370133,0.00549198873341,0.998087048531
1505434022188791153,5430,1505434022188595949,0.00705760298297,0.640255570412,-1.39936864376,0.0620710477233,0.00215945695527,0.00685757724568,0.998045802116
1505434022198954922,5431,1505434022198779389,0.012686368078,0.642915070057,-1.39676713943,0.0629513561726,0.00184472266119,0.00850030686706,0.997978687286
1505434022208147989,5432,1505434022207994672,0.0181507077068,0.64553296566,-1.39371550083,0.0628804415464,0.00190233136527,0.00953760463744,0.997973680496
1505434022228564990,5433,1505434022228421275,0.0235728975385,0.648297488689,-1.39107263088,0.0636272951961,0.0019433471607,0.0109438672662,0.99791187048
1505434022238892591,5434,1505434022238675344,0.0288578830659,0.651067495346,-1.38780939579,0.0638927146792,0.00193804805167,0.0118549279869,0.997884452343
1505434022238903073,5435,1505434022238703280,0.0340667776763,0.653804719448,-1.38449394703,0.0639729127288,0.00198320369236,0.0127426087856,0.997868299484
1505434022258297904,5436,1505434022258135493,0.0392064414918,0.656703293324,-1.38129854202,0.0639903694391,0.00209140451625,0.0134393721819,0.997857809067
1505434022268731493,5437,1505434022268364761,0.0443191491067,0.659466803074,-1.37755548954,0.0639313310385,0.0019140454242,0.0142815802246,0.997850239277
1505434022268742447,5438,1505434022268421286,0.0493845492601,0.66222256422,-1.37418413162,0.0638630613685,0.00210544420406,0.0154689196497,0.997836530209
1505434022288292640,5439,1505434022288058151,0.0542765818536,0.665142178535,-1.37041842937,0.0630474239588,0.00228580762632,0.0160760972649,0.997878432274
1505434022298569112,5440,1505434022298326394,0.0591464713216,0.667913734913,-1.36642742157,0.062657572329,0.00231485418044,0.0170827880502,0.997886180878
1505434022298574796,5441,1505434022298359842,0.0638967379928,0.670739591122,-1.36263918877,0.0625915378332,0.00217035645619,0.0180306024849,0.997873961926
1505434022318946553,5442,1505434022318704443,0.068776704371,0.673489809036,-1.35874533653,0.0629046782851,0.00184512883425,0.0194516088814,0.997828245163
1505434022328214897,5443,1505434022328024977,0.0733489170671,0.676394402981,-1.35461139679,0.0631865039468,0.00169538788032,0.0202344190329,0.99779510498
1505434022328220162,5444,1505434022328054609,0.0778629183769,0.679180979729,-1.35029244423,0.0634000822902,0.00207114731893,0.0209283269942,0.997766554356
1505434022348676845,5445,1505434022348521587,0.0822002664208,0.682058990002,-1.34609055519,0.0634175315499,0.00208995887078,0.0213443301618,0.997756659985
1505434022358993801,5446,1505434022358751735,0.0865833461285,0.684983551502,-1.34161150455,0.0633713081479,0.00206792820245,0.0222281813622,0.997740328312
1505434022359000222,5447,1505434022358777056,0.0907800123096,0.687845468521,-1.33699762821,0.0630504637957,0.00197560852394,0.0228681731969,0.997746348381
1505434022378419681,5448,1505434022378181192,0.0949158295989,0.690817415714,-1.33252394199,0.0629126355052,0.00191306544002,0.0230235308409,0.99775159359
1505434022388719630,5449,1505434022388479570,0.0989559963346,0.69364964962,-1.3276194334,0.0626773461699,0.00187884352636,0.0234572775662,0.997756361961
1505434022388735842,5450,1505434022388545888,0.102847650647,0.696566581726,-1.32279419899,0.06294696033,0.00246923184022,0.0238411929458,0.997729003429
1505434022398586205,5451,1505434022397879926,0.106707699597,0.699507772923,-1.31806886196,0.0634433552623,0.00256825168617,0.0241340454668,0.997690320015
1505434022418576252,5452,1505434022418354076,0.11050401628,0.702312648296,-1.31290400028,0.0637039169669,0.00255714729428,0.0245643462986,0.997663259506
1505434022418580639,5453,1505434022418428090,0.114155583084,0.705200850964,-1.30802094936,0.0641571879387,0.00276957266033,0.0251607019454,0.997618734837
1505434022428849108,5454,1505434022428667646,0.11771825701,0.708028614521,-1.30277609825,0.0636363551021,0.00276883528568,0.0254039857537,0.997645914555
1505434022448377646,5455,1505434022448049791,0.121180288494,0.710777044296,-1.29701602459,0.0630126446486,0.00299321184866,0.0257634539157,0.997675597668
1505434022448390944,5456,1505434022448077766,0.124620512128,0.71368432045,-1.29207825661,0.0631167814136,0.00293951621279,0.0262576900423,0.997656345367
1505434022458505587,5457,1505434022458353374,0.12786410749,0.71651750803,-1.28626799583,0.0623015165329,0.0029202408623,0.025938924402,0.997715950012
1505434022479153297,5458,1505434022478836324,0.131065577269,0.719376802444,-1.28081321716,0.0631273463368,0.00288490462117,0.0263986606151,0.997652113438
1505434022479163315,5459,1505434022478869476,0.134176954627,0.722177147865,-1.27542328835,0.0632864162326,0.00287568732165,0.0262992922217,0.997644662857
1505434022488340749,5460,1505434022488118546,0.137135401368,0.72488629818,-1.26945519447,0.0636224225163,0.00325037864968,0.0261770226061,0.997625350952
1505434022508812247,5461,1505434022508603089,0.140097036958,0.727677047253,-1.26359117031,0.0641140937805,0.00362211512402,0.0264026951045,0.997586667538
1505434022508827150,5462,1505434022508633031,0.142891198397,0.730450332165,-1.25795638561,0.0640979111195,0.00351996324025,0.0263615138829,0.997589170933
1505434022518113519,5463,1505434022517819759,0.14566630125,0.73315423727,-1.25164484978,0.0638175830245,0.00380773516372,0.0264693684876,0.997603237629
1505434022538477209,5464,1505434022538244039,0.148324325681,0.735870778561,-1.245408535,0.0633379369974,0.00418919930235,0.0266854446381,0.997626543045
1505434022538481098,5465,1505434022538276076,0.150930166245,0.738540410995,-1.23935949802,0.0635405927896,0.0043912017718,0.0268852654845,0.997607350349
1505434022548621662,5466,1505434022548491470,0.153391465545,0.741194307804,-1.23283779621,0.0633811950684,0.00458904122934,0.0268085803837,0.997618675232
1505434022558904116,5467,1505434022558789445,0.1558342278,0.743767797947,-1.22657132149,0.0641526058316,0.00486155273393,0.0271842200309,0.997557878494
1505434022568189005,5468,1505434022568007132,0.158097460866,0.746468245983,-1.22036337852,0.06444452703,0.00510075641796,0.027058461681,0.997541308403
1505434022588642993,5469,1505434022588427593,0.160348534584,0.749044179916,-1.21356379986,0.0646750852466,0.00528126675636,0.0270256325603,0.997526407242
1505434022598886698,5470,1505434022598649737,0.162441715598,0.751661360264,-1.20705509186,0.0650627315044,0.00566547736526,0.0270334724337,0.997498869896
1505434022598891443,5471,1505434022598677211,0.164525568485,0.7542309165,-1.20032894611,0.0646465495229,0.00598168931901,0.0269376654178,0.99752664566
1505434022607945450,5472,1505434022607791201,0.166476681828,0.756639242172,-1.19317388535,0.0640521422029,0.00609220191836,0.0269376318902,0.997564315796
1505434022628400853,5473,1505434022628215484,0.168350189924,0.759273588657,-1.18674588203,0.0641167387366,0.00621016090736,0.0266807656735,0.997566282749
1505434022628408106,5474,1505434022628247419,0.17006072402,0.761836051941,-1.1793692112,0.0633753091097,0.00656504835933,0.0258402861655,0.997633516788
1505434022638661512,5475,1505434022638457827,0.171753391623,0.764283001423,-1.17226147652,0.063529483974,0.00709731597453,0.0255546309054,0.997627496719
1505434022658345200,5476,1505434022657983244,0.173407748342,0.766747534275,-1.16538536549,0.0633113309741,0.00728218257427,0.0251117516309,0.997651278973
1505434022658376348,5477,1505434022658007775,0.174840822816,0.769224703312,-1.1577706337,0.0622550658882,0.00760584091768,0.0240139793605,0.997742295265
1505434022668356420,5478,1505434022668193363,0.176328703761,0.771649360657,-1.15063548088,0.0615847334266,0.00756720779464,0.0235357414931,0.997795641422
1505434022688866450,5479,1505434022688671597,0.1775842309,0.774116337299,-1.14324867725,0.0602189637721,0.00758897513151,0.0223676636815,0.997905731201
1505434022688871908,5480,1505434022688701492,0.178943827748,0.776346623898,-1.13557958603,0.0596621595323,0.00775664392859,0.0218872856349,0.997948467731
1505434022698296581,5481,1505434022698138423,0.180202946067,0.778647959232,-1.12809109688,0.0592462532222,0.00795745756477,0.0213387403637,0.997983574867
1505434022718822037,5482,1505434022718556205,0.181318789721,0.780811011791,-1.12056398392,0.0587967671454,0.00820109713823,0.0206318758428,0.998023033142
1505434022718832049,5483,1505434022718608887,0.182386279106,0.783020675182,-1.11286962032,0.0585324391723,0.00831194873899,0.0198636762798,0.998053193092
1505434022729001723,5484,1505434022728811426,0.183513239026,0.785136222839,-1.10514724255,0.0582364499569,0.00872466620058,0.0195825025439,0.998072624207
1505434022748490479,5485,1505434022748262980,0.184431999922,0.787182450294,-1.09739112854,0.0573874488473,0.00900728628039,0.0186674725264,0.998136818409
1505434022748503532,5486,1505434022748295928,0.185398265719,0.789130032063,-1.0894215107,0.0567555427551,0.00910107698292,0.0181744862348,0.99818110466
1505434022758643278,5487,1505434022758503362,0.186196610332,0.791081428528,-1.08146643639,0.0560313053429,0.00927982013673,0.0172697603703,0.99823653698
1505434022778134080,5488,1505434022777928923,0.186977744102,0.792969107628,-1.0736951828,0.0553849674761,0.00955366156995,0.0165028646588,0.998282968998
1505434022778139574,5489,1505434022777958686,0.187755450606,0.794665694237,-1.06529641151,0.0545148774981,0.00985480006784,0.0159389339387,0.998337090015
1505434022788524820,5490,1505434022788336643,0.188460022211,0.796525239944,-1.05765080452,0.0544024333358,0.0102498847991,0.0153297670186,0.99834883213
1505434022808986243,5491,1505434022808781687,0.189091980457,0.798215866089,-1.04923117161,0.0534850396216,0.0105627989396,0.0145712103695,0.998406469822
1505434022808991059,5492,1505434022808805833,0.189640536904,0.799945533276,-1.04090750217,0.0526702180505,0.0111739747226,0.0138243697584,0.998453736305
1505434022818253044,5493,1505434022818015283,0.19020844996,0.801631391048,-1.03308677673,0.0520730987191,0.0110944798216,0.0130810532719,0.998495936394
1505434022838725850,5494,1505434022838479045,0.190637692809,0.803340435028,-1.02421867847,0.0501132830977,0.0113477632403,0.0114929685369,0.998612940311
1505434022838731598,5495,1505434022838511944,0.191072151065,0.804982602596,-1.01607227325,0.0492170006037,0.0114918770269,0.0107534611598,0.998664140701
1505434022848907056,5496,1505434022848718904,0.191484838724,0.806694328785,-1.0077188015,0.0472174026072,0.0113735767081,0.0093522015959,0.998776137829
1505434022868263469,5497,1505434022868126955,0.191749155521,0.808248639107,-0.998963117599,0.0458869300783,0.0115931881592,0.00837235618383,0.998844325542
1505434022868367932,5498,1505434022868198394,0.192093804479,0.809946894646,-0.990799188614,0.0450611449778,0.011884348467,0.00756595749408,0.998884856701
1505434022878682881,5499,1505434022878466754,0.192266359925,0.811455726624,-0.98199737072,0.0436832010746,0.0122283250093,0.00631606951356,0.998950600624
1505434022898177516,5500,1505434022897934233,0.192498221993,0.813041567802,-0.973525702953,0.0428422912955,0.0125125134364,0.00537681905553,0.99898904562
1505434022898184034,5501,1505434022897968808,0.192787066102,0.81461006403,-0.965106189251,0.0414113327861,0.0124549940228,0.00431587686762,0.999055206776
1505434022908430983,5502,1505434022908256033,0.19287353754,0.816057860851,-0.956283152103,0.0397918336093,0.0128111904487,0.00327576533891,0.999120473862
1505434022928978244,5503,1505434022928687796,0.19301250577,0.817610561848,-0.947640657425,0.0382676534355,0.0131135256961,0.00235097622499,0.9991787076
1505434022928985555,5504,1505434022928735359,0.193171739578,0.819007217884,-0.939141333103,0.0369785986841,0.0135358683765,0.00161387654953,0.999223053455
1505434022938213727,5505,1505434022937966146,0.193279117346,0.820497751236,-0.930360615253,0.0362298153341,0.013712476939,0.000771689577959,0.99924904108
1505434022948325978,5506,1505434022948183440,0.193369120359,0.82195609808,-0.92168211937,0.0357410013676,0.0140162883326,1.11707104224e-05,0.999262809753
1505434022958643757,5507,1505434022958365350,0.193361595273,0.823385596275,-0.913152635098,0.0353934206069,0.0141141954809,-0.000756098714191,0.999273538589
1505434022968749006,5508,1505434022968592704,0.193387910724,0.824767291546,-0.904552936554,0.034632127732,0.0141781680286,-0.00154501642101,0.999298274517
1505434022988312649,5509,1505434022988046044,0.193535104394,0.826126873493,-0.895633399487,0.0337971039116,0.0146567700431,-0.0018673002487,0.999319493771
1505434022988317237,5510,1505434022988079546,0.193564087152,0.827464282513,-0.887378931046,0.0327366963029,0.0146761983633,-0.00206172349863,0.999354183674
1505434022998449589,5511,1505434022998296409,0.193733498454,0.829086244106,-0.878091931343,0.0304098594934,0.0150010483339,-0.0040468997322,0.999416768551
1505434023019092805,5512,1505434023018832603,0.193441182375,0.830285072327,-0.86946451664,0.0297890938818,0.0152592230588,-0.00360834342428,0.999433219433
1505434023019101202,5513,1505434023018863739,0.193469583988,0.831567645073,-0.861075401306,0.0289662275463,0.0153789147735,-0.00398111948743,0.999454140663
1505434023028219686,5514,1505434023028064524,0.193448886275,0.832914054394,-0.851884543896,0.0273882970214,0.0154305864125,-0.00455289613456,0.999495446682
1505434023048720689,5515,1505434023048484494,0.193272933364,0.834309637547,-0.84305793047,0.0266193859279,0.0161863006651,-0.00509474100545,0.99950158596
1505434023048733216,5516,1505434023048558015,0.193339645863,0.835608243942,-0.834735751152,0.0255727712065,0.0156183429062,-0.0056016119197,0.99953520298
1505434023058094152,5517,1505434023057904890,0.193196415901,0.836895644665,-0.825837731361,0.0243125613779,0.0158652327955,-0.00640485621989,0.999557971954
1505434023078631381,5518,1505434023078307132,0.193178340793,0.838238716125,-0.817475259304,0.0233611594886,0.0159117970616,-0.00669861584902,0.999577999115
1505434023078642604,5519,1505434023078370238,0.193106308579,0.839560210705,-0.808464288712,0.0215412583202,0.0163402687758,-0.00746659375727,0.99960654974
1505434023088809691,5520,1505434023088620829,0.193072214723,0.840822279453,-0.799745798111,0.0201408788562,0.0165757853538,-0.00767888780683,0.999630212784
1505434023108146854,5521,1505434023107940757,0.192917495966,0.842200100422,-0.791362166405,0.018082100898,0.0164676234126,-0.00872508436441,0.999662816525
1505434023108166827,5522,1505434023107966635,0.192759618163,0.843498885632,-0.782303929329,0.0157972723246,0.0163268316537,-0.00976736471057,0.999694168568
1505434023118390036,5523,1505434023118179969,0.192628324032,0.844895839691,-0.773755192757,0.0139370113611,0.01587655209,-0.0106993829831,0.999719619751
1505434023138850141,5524,1505434023138602357,0.192589074373,0.846110701561,-0.765274763107,0.0122966086492,0.0159569010139,-0.0111962882802,0.999734401703
1505434023138857954,5525,1505434023138636657,0.192513749003,0.847427666187,-0.756554305553,0.0109628466889,0.0164647102356,-0.0116929868236,0.999735951424
1505434023148125132,5526,1505434023147812441,0.192447006702,0.848646819592,-0.748106300831,0.0102367065847,0.0166561994702,-0.012032286264,0.999736428261
1505434023168458040,5527,1505434023168222025,0.19231185317,0.849886775017,-0.739755392075,0.00922969728708,0.01672206074,-0.012885033153,0.999734461308
1505434023168465156,5528,1505434023168290622,0.192212313414,0.851067125797,-0.731319665909,0.00864750705659,0.0165587626398,-0.013234410435,0.999737858772
1505434023178853219,5529,1505434023178557667,0.192241638899,0.852260649204,-0.722903490067,0.00761185679585,0.016856988892,-0.0134408492595,0.999738574028
1505434023198174271,5530,1505434023197973156,0.192163780332,0.853396952152,-0.714650392532,0.00645328732207,0.0169097967446,-0.0137247769162,0.999741971493
1505434023208431951,5531,1505434023208175144,0.192109256983,0.854605317116,-0.70618480444,0.00481925625354,0.0170000120997,-0.0139706796035,0.999746263027
1505434023208437074,5532,1505434023208220314,0.192095473409,0.855677247047,-0.698019623756,0.00378993526101,0.017303859815,-0.0142225231975,0.999741911888
1505434023218747879,5533,1505434023218564533,0.192043289542,0.856860399246,-0.689769804478,0.0024106556084,0.0175339188427,-0.0147348353639,0.999734818935
1505434023238416460,5534,1505434023237981867,0.192078843713,0.857886254787,-0.681426763535,0.00159418093972,0.0177277233452,-0.0148185165599,0.999731719494
1505434023238425512,5535,1505434023238056509,0.191997379065,0.859039485455,-0.673530817032,0.000959476165008,0.0178848318756,-0.015188023448,0.999724209309
1505434023248586560,5536,1505434023248397701,0.191994860768,0.860031843185,-0.665544629097,8.04758674349e-05,0.0179168898612,-0.0156073039398,0.999717652798
1505434023268341059,5537,1505434023268146812,0.192038998008,0.861079156399,-0.657342433929,-0.000701289682183,0.0181545689702,-0.0157714691013,0.999710559845
1505434023268345314,5538,1505434023268172376,0.192058727145,0.862034499645,-0.649716854095,-0.00146717531607,0.0183423683047,-0.0159040726721,0.999704182148
1505434023278680631,5539,1505434023278408816,0.192095205188,0.862998187542,-0.641480505466,-0.00306432647631,0.0185840148479,-0.0161615982652,0.999691963196
1505434023298400053,5540,1505434023297919842,0.192159995437,0.863937616348,-0.633654773235,-0.0043789264746,0.0187317151576,-0.0162841789424,0.999682366848
1505434023298408495,5541,1505434023297949189,0.192187204957,0.864893972874,-0.626122713089,-0.00577504327521,0.0187939740717,-0.0165073666722,0.999670386314
1505434023308447422,5542,1505434023308252660,0.192282408476,0.865786373615,-0.617991387844,-0.00729480711743,0.0188682656735,-0.0169324018061,0.999651968479
1505434023328851029,5543,1505434023328646094,0.19236625731,0.866670966148,-0.610658586025,-0.00795898679644,0.0189681444317,-0.0170944239944,0.999642252922
1505434023328855600,5544,1505434023328672195,0.192451104522,0.867485165596,-0.60291326046,-0.00945499539375,0.0191514007747,-0.0178009215742,0.999613404274
1505434023338020414,5545,1505434023337816907,0.192519038916,0.868343710899,-0.59525847435,-0.0105731217191,0.0196682028472,-0.0180086549371,0.999588489532
1505434023358649642,5546,1505434023358294239,0.192698657513,0.869105935097,-0.588089704514,-0.0117213735357,0.0196793116629,-0.018202746287,0.999571919441
1505434023358686139,5547,1505434023358328014,0.192797079682,0.869956612587,-0.580429852009,-0.01357659325,0.0195491630584,-0.0189261212945,0.999537527561
1505434023368770858,5548,1505434023368547271,0.192971363664,0.870698094368,-0.57318264246,-0.0146123431623,0.0194766372442,-0.0190943777561,0.999521195889
1505434023388307774,5549,1505434023388055210,0.193099975586,0.871444404125,-0.566063940525,-0.0164515562356,0.019482569769,-0.0197991076857,0.999478757381
1505434023388320025,5550,1505434023388088147,0.19327108562,0.872164666653,-0.55863815546,-0.017768021673,0.0196327678859,-0.0200973078609,0.999447345734
1505434023398598177,5551,1505434023398402242,0.193508371711,0.872892141342,-0.551690638065,-0.0187999792397,0.0196514297277,-0.0202859342098,0.999424278736
1505434023419145194,5552,1505434023418848948,0.193702548742,0.873519957066,-0.544784963131,-0.0196798574179,0.0197783745825,-0.0206157807261,0.999398112297
1505434023419168938,5553,1505434023418881682,0.193915486336,0.87418192625,-0.537857651711,-0.0203215181828,0.0199294388294,-0.0208500642329,0.999377369881
1505434023428270399,5554,1505434023428117594,0.194237470627,0.87480455637,-0.531075000763,-0.0205885712057,0.0201067570597,-0.0210442990065,0.999364256859
1505434023448873457,5555,1505434023448664684,0.194456100464,0.875353991985,-0.524511218071,-0.0209444053471,0.0201702676713,-0.02151709795,0.999345541
1505434023448885181,5556,1505434023448691193,0.194735631347,0.875917375088,-0.517823398113,-0.0213823448867,0.019963061437,-0.0217883232981,0.999334573746
1505434023458851483,5557,1505434023458623427,0.195080429316,0.876493275166,-0.511467039585,-0.0219920631498,0.0198855549097,-0.0221040602773,0.999315917492
1505434023478920979,5558,1505434023478650085,0.195343911648,0.877086818218,-0.504975616932,-0.0228608418256,0.019986204803,-0.0224296133965,0.999287128448
1505434023478925282,5559,1505434023478683369,0.195769503713,0.877621471882,-0.498396068811,-0.0235753040761,0.0201373938471,-0.0224315263331,0.999267458916
1505434023488119983,5560,1505434023487918843,0.196140348911,0.878011584282,-0.492419153452,-0.0236141085625,0.0205302201211,-0.0225730314851,0.999255359173
1505434023508499310,5561,1505434023508321584,0.196506634355,0.878540873528,-0.48624458909,-0.024236259982,0.0205975025892,-0.022935166955,0.999230802059
1505434023508526106,5562,1505434023508353814,0.196996957064,0.879000306129,-0.480041861534,-0.0240935143083,0.0207147169858,-0.0226472038776,0.999238491058
1505434023518883206,5563,1505434023518678322,0.197408974171,0.879416465759,-0.474388360977,-0.0241351146251,0.0209323987365,-0.0227379538119,0.999230921268
1505434023538425128,5564,1505434023538093622,0.197909995914,0.879794120789,-0.468285739422,-0.0247927457094,0.0211003702134,-0.0226612631232,0.99921298027
1505434023538431987,5565,1505434023538119480,0.19842107594,0.880159378052,-0.46258687973,-0.0251892562956,0.0210546925664,-0.0224359147251,0.999209105968
1505434023548509458,5566,1505434023548330293,0.198902457952,0.880542874336,-0.456945955753,-0.0261380355805,0.0210896916687,-0.0224347282201,0.999184012413
1505434023568971693,5567,1505434023568803309,0.199461147189,0.880981504917,-0.451031386852,-0.0273409988731,0.0212969705462,-0.0223744623363,0.999148786068
1505434023568977625,5568,1505434023568834832,0.20002168417,0.881218135357,-0.445819199085,-0.0277689248323,0.021414866671,-0.0220231823623,0.999142289162
1505434023578277633,5569,1505434023578079329,0.200557813048,0.881570458412,-0.440191239119,-0.0288439374417,0.0215027127415,-0.0222861543298,0.999104082584
1505434023598705015,5570,1505434023598513841,0.201177120209,0.881852626801,-0.434782534838,-0.0289236530662,0.021646188572,-0.022031256929,0.999104380608
1505434023598765815,5571,1505434023598541073,0.20177911222,0.882137477398,-0.429864317179,-0.0292661041021,0.0215303860605,-0.021897085011,0.999099850655
1505434023608861647,5572,1505434023608715668,0.202429026365,0.88236117363,-0.424511015415,-0.0298436693847,0.0216567143798,-0.0218870937824,0.999080240726
1505434023628251063,5573,1505434023628097566,0.203010797501,0.882662177086,-0.419586777687,-0.0302181169391,0.0217244438827,-0.0218592584133,0.999068081379
1505434023628255772,5574,1505434023628132920,0.203675225377,0.882913649082,-0.414698511362,-0.0308809857816,0.021628594026,-0.0216654259712,0.999054133892
1505434023638577581,5575,1505434023638395269,0.204382881522,0.883174300194,-0.40962138772,-0.0316999703646,0.0215432923287,-0.0216338634491,0.99903100729
1505434023658103169,5576,1505434023657919734,0.205119922757,0.883328914642,-0.405094504356,-0.0317327529192,0.0213991757482,-0.0212743207812,0.999040782452
1505434023658107983,5577,1505434023657942790,0.205807924271,0.883616089821,-0.400491982698,-0.0322653613985,0.021256044507,-0.0216300785542,0.99901920557
1505434023668479243,5578,1505434023668342122,0.206456199288,0.883852958679,-0.395832806826,-0.0323019213974,0.0213864333928,-0.021497098729,0.999018073082
1505434023688986972,5579,1505434023688750046,0.207245707512,0.884098887444,-0.391557008028,-0.0324413254857,0.021431164816,-0.021308850497,0.99901664257
1505434023688994404,5580,1505434023688782202,0.208037897944,0.884327948093,-0.387148588896,-0.0329912677407,0.0213857162744,-0.021354906261,0.998998641968
1505434023698260035,5581,1505434023698049922,0.20877866447,0.884563565254,-0.382773786783,-0.0333784371614,0.0214419029653,-0.0211783982813,0.99898827076
1505434023718643302,5582,1505434023718428606,0.209614083171,0.884875953197,-0.378752291203,-0.0340879522264,0.0215429067612,-0.0211422946304,0.998962938786
1505434023718666860,5583,1505434023718452979,0.210368230939,0.885135471821,-0.37454688549,-0.0346286445856,0.0216698646545,-0.0210960693657,0.998942553997
1505434023728789399,5584,1505434023728621590,0.211190864444,0.885486066341,-0.3706420362,-0.0351642109454,0.0216253064573,-0.0208137184381,0.998930752277
1505434023748311736,5585,1505434023748069676,0.212094739079,0.885787367821,-0.36689132452,-0.035611640662,0.0214177053422,-0.0207075122744,0.998921573162
1505434023748322303,5586,1505434023748091899,0.212857827544,0.886277556419,-0.363076418638,-0.0363886989653,0.0213046073914,-0.0205463916063,0.998899281025
1505434023758435480,5587,1505434023758292343,0.213763535023,0.886645615101,-0.359406501055,-0.0366342701018,0.0213618651032,-0.0200627129525,0.998898923397
1505434023778259851,5588,1505434023778073347,0.21469399333,0.887079060078,-0.356035172939,-0.0370524525642,0.021288568154,-0.019805252552,0.998890221119
1505434023778263077,5589,1505434023778134924,0.215546086431,0.887632608414,-0.352539926767,-0.0373840890825,0.0213724616915,-0.0193432942033,0.998885154724
1505434023788498069,5590,1505434023788335893,0.216526299715,0.88823056221,-0.34922811389,-0.0370463095605,0.0216017439961,-0.0189317446202,0.998900651932
1505434023808952448,5591,1505434023808747413,0.217377647758,0.888827502728,-0.346216231585,-0.0367892719805,0.0213680937886,-0.0188446156681,0.99891680479
1505434023809000321,5592,1505434023808775966,0.218330845237,0.889535009861,-0.343088120222,-0.0364721156657,0.0212224163115,-0.018347542733,0.998940825462
1505434023818420288,5593,1505434023818049522,0.219264268875,0.890153646469,-0.34023219347,-0.0360784493387,0.0211742408574,-0.0180497262627,0.998961567879
1505434023838861114,5594,1505434023838642837,0.220132753253,0.890933394432,-0.337411284447,-0.036267131567,0.02090456523,-0.0180806498975,0.998959898949
1505434023838864866,5595,1505434023838675785,0.221133902669,0.891636371613,-0.334508538246,-0.0362417064607,0.0209989156574,-0.0174438618124,0.998970210552
1505434023848055530,5596,1505434023847883480,0.222097232938,0.89239192009,-0.332005679607,-0.0358907543123,0.0211376603693,-0.0171472523361,0.998985052109
1505434023868564156,5597,1505434023868414816,0.223023250699,0.89323592186,-0.329483598471,-0.0359530188143,0.0211668815464,-0.017085140571,0.998983323574
1505434023868615758,5598,1505434023868439465,0.22401727736,0.894150555134,-0.326767385006,-0.0356942526996,0.0213219150901,-0.0166415125132,0.998996675014
1505434023878837926,5599,1505434023878635714,0.22493621707,0.895037829876,-0.324763923883,-0.0349786356091,0.0215894896537,-0.0163673404604,0.999020814896
1505434023898513437,5600,1505434023898337672,0.225956305861,0.895911097527,-0.32247081399,-0.034656625241,0.0214976016432,-0.0158334970474,0.999042570591
1505434023898539805,5601,1505434023898364140,0.226915955544,0.896994829178,-0.320144057274,-0.0344998426735,0.0213429257274,-0.0155036300421,0.999056458473
1505434023908791760,5602,1505434023908593517,0.227867156267,0.898045659065,-0.318480938673,-0.0341196246445,0.0211156085134,-0.0150166843086,0.999081790447
1505434023928305655,5603,1505434023927947161,0.228877723217,0.899204015732,-0.31620439887,-0.0345510728657,0.0211747195572,-0.014849039726,0.999068200588
1505434023928316109,5604,1505434023927970874,0.229872748256,0.900369822979,-0.314250707626,-0.0343823134899,0.0211973246187,-0.0142028704286,0.99908298254
1505434023938411168,5605,1505434023938188599,0.230865672231,0.901516795158,-0.312865912914,-0.034104950726,0.0210963841528,-0.0136742237955,0.999101996422
1505434023958910340,5606,1505434023958759988,0.231838271022,0.902871489525,-0.310799330473,-0.0339887849987,0.0211151577532,-0.0134214395657,0.999108910561
1505434023958916156,5607,1505434023958795272,0.232774019241,0.904138207436,-0.309331089258,-0.0332250371575,0.0215317178518,-0.0128636434674,0.999133110046
1505434023968249496,5608,1505434023968084312,0.233841493726,0.905373036861,-0.308085262775,-0.0325715430081,0.0217459369451,-0.0121579486877,0.999158799648
1505434023988745808,5609,1505434023988524635,0.234813600779,0.906751513481,-0.306223452091,-0.0324307009578,0.021819613874,-0.0117306504399,0.99916690588
1505434023988763637,5610,1505434023988552991,0.23575361073,0.90805888176,-0.305385619402,-0.0318378992379,0.0222215019166,-0.01120305527,0.999183118343
1505434023998600569,5611,1505434023998360311,0.236751571298,0.909514546394,-0.303797572851,-0.0323337763548,0.0224453676492,-0.010858268477,0.999166071415
1505434024018985180,5612,1505434024018807813,0.237668573856,0.910905182362,-0.302364706993,-0.0328079126775,0.0225824248046,-0.0106295775622,0.999149978161
1505434024018990083,5613,1505434024018854515,0.238633573055,0.912316501141,-0.301870495081,-0.0326710119843,0.0224808286875,-0.0102126570418,0.999161124229
1505434024028288116,5614,1505434024028110852,0.239578068256,0.913973391056,-0.300172388554,-0.0337549448013,0.0222435984761,-0.0107608409598,0.999124646187
1505434024038641610,5615,1505434024038444663,0.240440368652,0.91549539566,-0.299520790577,-0.0334803909063,0.0218440685421,-0.0108217094094,0.999141931534
1505434024058982762,5616,1505434024058810952,0.241342619061,0.916995108128,-0.298937946558,-0.0330755412579,0.0214988254011,-0.0109293749556,0.999161839485
1505434024058989086,5617,1505434024058833910,0.242195233703,0.918583750725,-0.297906398773,-0.0324171297252,0.0212550703436,-0.0113752717152,0.999183654785
1505434024068211564,5618,1505434024068038426,0.243117377162,0.920161545277,-0.297561049461,-0.0304904486984,0.0217491928488,-0.0109750330448,0.99923813343
1505434024088641268,5619,1505434024088452420,0.244029089808,0.921702742577,-0.2970674932,-0.0288375653327,0.022389870137,-0.0109581621364,0.999273180962
1505434024088646813,5620,1505434024088508936,0.244859606028,0.923364281654,-0.29653275013,-0.0273313038051,0.0223721191287,-0.0113543113694,0.999311506748
1505434024099055383,5621,1505434024098846204,0.245785146952,0.924961686134,-0.296287953854,-0.0255950633436,0.0221982281655,-0.0111908437684,0.99936324358
1505434024118488544,5622,1505434024118251382,0.246595233679,0.926634967327,-0.295938074589,-0.0248309131712,0.0216892343014,-0.0116773014888,0.999388098717
1505434024118492265,5623,1505434024118290221,0.247433811426,0.928335666656,-0.295828670263,-0.0234803948551,0.0214322023094,-0.0116325002164,0.999426841736
1505434024128937783,5624,1505434024128523332,0.248385101557,0.929927170277,-0.295561820269,-0.0217828210443,0.0217232294381,-0.0112773021683,0.99946308136
1505434024148074662,5625,1505434024147841671,0.249196499586,0.931624650955,-0.29548355937,-0.0202633552253,0.0218554195017,-0.0118318498135,0.999485731125
1505434024148080031,5626,1505434024147869084,0.250093460083,0.933190345764,-0.295506566763,-0.01810079813,0.0221517980099,-0.0114183211699,0.999525547028
1505434024158516472,5627,1505434024158356484,0.250993788242,0.93475496769,-0.295313179493,-0.0162789858878,0.0221739932895,-0.0112222051248,0.999558568001
1505434024179152522,5628,1505434024178897460,0.251750320196,0.936351060867,-0.29565757513,-0.0146657731384,0.0221608802676,-0.0113262878731,0.999582648277
1505434024179155786,5629,1505434024178923674,0.252715170383,0.93783724308,-0.295549809933,-0.0132567733526,0.0221500899643,-0.0106925116852,0.999609529972
1505434024188351927,5630,1505434024188196731,0.253591090441,0.939387440681,-0.295518487692,-0.0126154292375,0.0218279510736,-0.0106571977958,0.999625325203
1505434024208762351,5631,1505434024208601640,0.254417538643,0.940872251987,-0.295947492123,-0.0115229496732,0.0218779724091,-0.0103569012135,0.999640583992
1505434024208765734,5632,1505434024208672372,0.25532335043,0.942249774933,-0.29555028677,-0.0109575679526,0.0219033863395,-0.00999139621854,0.999650120735
1505434024218252345,5633,1505434024217973672,0.256122499704,0.943686306477,-0.296102195978,-0.00985136255622,0.0217075254768,-0.00983190722764,0.999667465687
1505434024228504313,5634,1505434024228305404,0.257009804249,0.94501465559,-0.29620179534,-0.00854718592018,0.0216623283923,-0.00918121170253,0.999686598778
1505434024238732930,5635,1505434024238512054,0.257896482944,0.946404516697,-0.296221226454,-0.00772926723585,0.0215390976518,-0.00925932079554,0.999695241451
1505434024248923852,5636,1505434024248734354,0.258740127087,0.947557508945,-0.296903222799,-0.00633503543213,0.0217364504933,-0.00865165144205,0.999706149101
1505434024268311180,5637,1505434024268148529,0.259608238935,0.948824882507,-0.296499013901,-0.00625506881624,0.0220138337463,-0.00827462691814,0.99970382452
1505434024268316402,5638,1505434024268175758,0.260374635458,0.950076878071,-0.297131806612,-0.00551293976605,0.0220149103552,-0.00803047884256,0.999710261822
1505434024278735751,5639,1505434024278555814,0.261212766171,0.951178908348,-0.297374933958,-0.00507686659694,0.0216412898153,-0.00751769449562,0.999724626541
1505434024298176347,5640,1505434024297959378,0.262030273676,0.952323913574,-0.297406971455,-0.00468442356214,0.0212927162647,-0.0075443633832,0.999733805656
1505434024298181351,5641,1505434024297983684,0.262861788273,0.953344643116,-0.298219025135,-0.0032172917854,0.021339058876,-0.00686704926193,0.999743461609
1505434024308342680,5642,1505434024308179028,0.26367431879,0.954312980175,-0.297906607389,-0.00304457475431,0.0214153844863,-0.00670009758323,0.999743640423
1505434024329122374,5643,1505434024328539926,0.264428913593,0.955204606056,-0.298665374517,-0.0017461150419,0.0214319527149,-0.00629696296528,0.999748885632
1505434024329126753,5644,1505434024328570659,0.265208363533,0.956030488014,-0.299071520567,-0.000950495770667,0.0211766827852,-0.00580425700173,0.99975836277
1505434024338976609,5645,1505434024338808517,0.265924811363,0.956905841827,-0.299021452665,-0.000463450880488,0.0205317866057,-0.00597484456375,0.999771237373
1505434024358469837,5646,1505434024358209699,0.266680896282,0.957609295845,-0.300218433142,0.00153151527047,0.0202088989317,-0.00536963157356,0.999780118465
1505434024358478069,5647,1505434024358237973,0.267438232899,0.958288252354,-0.299758166075,0.00245739798993,0.0204731207341,-0.0054900473915,0.999772369862
1505434024368724716,5648,1505434024368560132,0.26814943552,0.959048748016,-0.300593137741,0.00449267495424,0.0213205646724,-0.00507998839021,0.999749660492
1505434024388219813,5649,1505434024387950249,0.268865823746,0.959660828114,-0.30100864172,0.00582128949463,0.0212714523077,-0.00475736986846,0.999745488167
1505434024388223852,5650,1505434024388000006,0.269469708204,0.960445642471,-0.301019340754,0.00644621485844,0.0203178841621,-0.00536883948371,0.999758303165
1505434024398365533,5651,1505434024398200962,0.270103335381,0.961081624031,-0.302138447762,0.00850682798773,0.0197091791779,-0.00517787318677,0.999756157398
1505434024418918207,5652,1505434024418595548,0.270730108023,0.961730897427,-0.30183160305,0.0091481199488,0.0199811067432,-0.00581622635946,0.99974155426
1505434024418951390,5653,1505434024418625903,0.271414220333,0.962431550026,-0.302306711674,0.0111547624692,0.021096598357,-0.00551373884082,0.999700009823
1505434024427962822,5654,1505434024427784973,0.272091805935,0.962921559811,-0.303022414446,0.0137052973732,0.021214151755,-0.00490055745468,0.999669015408
1505434024438190546,5655,1505434024437971095,0.27264636755,0.96347784996,-0.303039073944,0.0152062838897,0.0205163471401,-0.0052746552974,0.999659955502
1505434024458558954,5656,1505434024458402476,0.273271739483,0.964074730873,-0.303721129894,0.0173236355186,0.0202599447221,-0.00489175086841,0.999632716179
1505434024458563664,5657,1505434024458445305,0.273820519447,0.964561998844,-0.303873240948,0.0180546492338,0.0199717003852,-0.00479201832786,0.999625980854
1505434024468787447,5658,1505434024468633812,0.274407923222,0.965082347393,-0.303856998682,0.0184770580381,0.0203570909798,-0.00465519959107,0.999611198902
1505434024488241119,5659,1505434024488035544,0.275065273046,0.965435147285,-0.304271757603,0.0198443774134,0.0203678123653,-0.00378576712683,0.999588429928
1505434024488244896,5660,1505434024488064458,0.275577515364,0.965840041637,-0.304287344217,0.0203982908279,0.0200572516769,-0.00384855293669,0.999583363533
1505434024498518527,5661,1505434024498346481,0.276167631149,0.966225385666,-0.304479181767,0.0220540892333,0.0205060709268,-0.00314091821201,0.999541580677
1505434024518408074,5662,1505434024517991445,0.27670031786,0.966534852982,-0.30464926362,0.0234054587781,0.0203469041735,-0.00291526899673,0.999514758587
1505434024518413030,5663,1505434024518019882,0.277195483446,0.966786086559,-0.304615676403,0.0245279241353,0.0203273296356,-0.00281911320053,0.999488472939
1505434024528414890,5664,1505434024528278402,0.277763158083,0.967007100582,-0.304735869169,0.026056792587,0.0201846901327,-0.00209378777072,0.999454438686
1505434024548961377,5665,1505434024548769883,0.278227806091,0.967246592045,-0.304835855961,0.0266330502927,0.0199528262019,-0.00196392671205,0.999444246292
1505434024548964788,5666,1505434024548820168,0.278741955757,0.96743530035,-0.304707765579,0.027850208804,0.019889138639,-0.00128753727768,0.999413430691
1505434024558230199,5667,1505434024558048892,0.279203355312,0.967568516731,-0.304612547159,0.0288087371737,0.0198896788061,-0.00116494507529,0.999386370182
1505434024578642796,5668,1505434024578424751,0.279622107744,0.967674016953,-0.304514408112,0.0296540521085,0.0202528703958,-0.000903148844372,0.999354600906
1505434024578650852,5669,1505434024578482485,0.28008762002,0.967836737633,-0.304020881653,0.0303919538856,0.0203150473535,-0.00051023584092,0.9993314147
1505434024598299088,5670,1505434024598003764,0.280465871096,0.967937767506,-0.304148942232,0.0312854386866,0.0199212729931,-0.000343541847542,0.999311864376
1505434024598333242,5671,1505434024598029147,0.280824691057,0.967971265316,-0.303686857224,0.0318490937352,0.0198035445064,-0.000203048519325,0.999296426773
1505434024608329184,5672,1505434024608213526,0.281213253736,0.968022465706,-0.303146481514,0.0323521830142,0.0196934901178,-0.000113109919766,0.999282479286
1505434024629022115,5673,1505434024628655478,0.281533420086,0.968089878559,-0.302971571684,0.0327648669481,0.019940411672,8.22184938443e-06,0.999264240265
1505434024629025590,5674,1505434024628681953,0.281880140305,0.968090474606,-0.302096694708,0.0331533737481,0.0198009423912,0.000227555501624,0.999254047871
1505434024637985640,5675,1505434024637816030,0.282160192728,0.968113780022,-0.302033483982,0.0335865169764,0.0193312652409,0.000200011680136,0.999248802662
1505434024658622206,5676,1505434024658362312,0.282454282045,0.967981040478,-0.301203101873,0.0337204262614,0.019713582471,0.000389674067264,0.999236762524
1505434024658626114,5677,1505434024658427699,0.282710343599,0.967999815941,-0.300308704376,0.0336589626968,0.0198462940753,0.000128796833451,0.999236345291
1505434024668930270,5678,1505434024668731519,0.282950311899,0.967982232571,-0.299985587597,0.0339996404946,0.0196257978678,2.34179751715e-05,0.999229192734
1505434024688303076,5679,1505434024688148653,0.283110409975,0.967885315418,-0.298674196005,0.0337692759931,0.0194630995393,-0.000399132724851,0.999240040779
1505434024688367054,5680,1505434024688183494,0.283321321011,0.967789232731,-0.298327684402,0.0343405120075,0.0195808634162,-0.000391572277294,0.999218344688
1505434024698567504,5681,1505434024698425594,0.283513426781,0.967677414417,-0.297241598368,0.0339854955673,0.0198748279363,-0.000513623584993,0.999224543571
1505434024719007472,5682,1505434024718784785,0.283634483814,0.96763831377,-0.295936465263,0.0334848538041,0.0196002740413,-0.00107119290624,0.999246418476
1505434024719012935,5683,1505434024718813203,0.283769309521,0.967555820942,-0.295654803514,0.0337628982961,0.0192326083779,-0.0013546453556,0.999243855476
1505434024728282187,5684,1505434024728052769,0.283827424049,0.967369496822,-0.293926686049,0.0331586040556,0.0186718460172,-0.00213208654895,0.999273359776
1505434024748542439,5685,1505434024748403915,0.283939689398,0.967284619808,-0.293037414551,0.0335265211761,0.0186243802309,-0.00241871387698,0.999261319637
1505434024748547120,5686,1505434024748437340,0.284064084291,0.967154622078,-0.292241364717,0.0342307016253,0.0197573695332,-0.00218754913658,0.999216258526
1505434024758831322,5687,1505434024758579329,0.284137964249,0.967029392719,-0.290167212486,0.033754311502,0.0205976907164,-0.00280734174885,0.999213933945
1505434024778213859,5688,1505434024778008356,0.284240305424,0.967012822628,-0.289680242538,0.0345515236259,0.0207055993378,-0.00283616920933,0.999184370041
1505434024778222139,5689,1505434024778035775,0.284205049276,0.966991126537,-0.287868916988,0.0337021499872,0.0199635829777,-0.00395262613893,0.999224662781
1505434024788463492,5690,1505434024788310519,0.284147441387,0.967095971107,-0.286595344543,0.0336148887873,0.018982347101,-0.00511094694957,0.999241530895
1505434024808900850,5691,1505434024808702351,0.284198880196,0.967035055161,-0.285618126392,0.0342044457793,0.0187261682004,-0.00536642828956,0.999225020409
1505434024808916126,5692,1505434024808723141,0.284138083458,0.967156529427,-0.283636927605,0.0341595560312,0.0191988367587,-0.00641523580998,0.99921131134
1505434024818097088,5693,1505434024817917012,0.284160166979,0.967224955559,-0.282336503267,0.0355701930821,0.020156821236,-0.00638251937926,0.999143481255
1505434024838649737,5694,1505434024838453519,0.284129947424,0.967196166515,-0.280931204557,0.0365650989115,0.0201828014106,-0.00680883927271,0.999104261398
1505434024838656448,5695,1505434024838489462,0.284096062183,0.967219114304,-0.279142171144,0.0368001759052,0.0197403915226,-0.007523288019,0.999099373817
1505434024848880072,5696,1505434024848736748,0.284127622843,0.967251956463,-0.277776509523,0.0378337129951,0.0197086520493,-0.00740877492353,0.999062180519
1505434024858445930,5697,1505434024858292794,0.284143686295,0.967199265957,-0.2759539783,0.0379378795624,0.019133195281,-0.00782687496394,0.999066233635
1505434024868670875,5698,1505434024868527838,0.284104526043,0.967233598232,-0.274203360081,0.0387200191617,0.0192152578384,-0.00792058929801,0.999033868313
1505434024878918544,5699,1505434024878730310,0.284131318331,0.967094898224,-0.272568166256,0.0399365201592,0.0196569748223,-0.00759892491624,0.998979926109
1505434024898510836,5700,1505434024898345419,0.284080088139,0.967029988766,-0.270587295294,0.0401912890375,0.0197649914771,-0.0080290902406,0.998964190483
1505434024898528755,5701,1505434024898390032,0.284133434296,0.966924786568,-0.268786668777,0.0413685031235,0.0199763756245,-0.007311464753,0.998917520046
1505434024908691340,5702,1505434024908575631,0.28409782052,0.966805934906,-0.266755402088,0.0413904562593,0.0197962578386,-0.0073792305775,0.998919665813
1505434024918945178,5703,1505434024918801288,0.284044593573,0.966658949852,-0.264723747969,0.041307400912,0.0197078026831,-0.0075497450307,0.998923540115
1505434024928147735,5704,1505434024927999250,0.284123897552,0.966391980648,-0.262547969818,0.0411883220077,0.019713126123,-0.00708970660344,0.998931765556
1505434024938544228,5705,1505434024938241533,0.284094333649,0.966196119785,-0.260379880667,0.0407978966832,0.0197735391557,-0.00708641950041,0.998946547508
1505434024948575923,5706,1505434024948458649,0.284088164568,0.965950787067,-0.258262246847,0.0409474335611,0.0199587866664,-0.00661244755611,0.998940050602
1505434024958745963,5707,1505434024958637084,0.284139990807,0.965618550777,-0.255671679974,0.0409583412111,0.0198650434613,-0.0062493099831,0.99894374609
1505434024968012614,5708,1505434024967852928,0.284050911665,0.965394258499,-0.253653913736,0.0410735458136,0.0197805166245,-0.00637464458123,0.998939931393
1505434024978291556,5709,1505434024978068477,0.28402030468,0.965025246143,-0.251113176346,0.0411056242883,0.0198693312705,-0.00592444650829,0.998939633369
1505434024988451090,5710,1505434024988295943,0.284004658461,0.964678108692,-0.248618394136,0.0403942056,0.0198274161667,-0.00582974916324,0.998970091343
1505434024998629923,5711,1505434024998512270,0.283967614174,0.964273512363,-0.246248319745,0.0399508737028,0.0199247058481,-0.00545431720093,0.998988091946
1505434025009038285,5712,1505434025008751537,0.283942162991,0.963906168938,-0.243129268289,0.0388129465282,0.019947130233,-0.00552287045866,0.999032139778
1505434025018705979,5713,1505434025018101456,0.283883035183,0.963554859161,-0.240929886699,0.0382952392101,0.0197215527296,-0.00553755136207,0.999056458473
1505434025028598585,5714,1505434025028411906,0.283773481846,0.963047862053,-0.237962350249,0.0373470894992,0.0196493398398,-0.00540947541595,0.999094486237
1505434025038723936,5715,1505434025038602649,0.283698379993,0.962652206421,-0.235198870301,0.0366388000548,0.0198174212128,-0.00545657705516,0.999117136002
1505434025047953392,5716,1505434025047783404,0.283659100533,0.962167859077,-0.232623919845,0.0360479094088,0.0199193488806,-0.00525014661252,0.999137699604
1505434025058241686,5717,1505434025057969287,0.283509582281,0.961670517921,-0.229208528996,0.0347143113613,0.0197012703866,-0.00555274449289,0.999187648296
1505434025068541908,5718,1505434025068260210,0.283449321985,0.96118324995,-0.22676935792,0.0342764593661,0.0201231632382,-0.00540408212692,0.999195218086
1505434025078618737,5719,1505434025078470338,0.283295631409,0.960620999336,-0.22354541719,0.0331326387823,0.0206110421568,-0.00561237288639,0.999222695827
1505434025088830029,5720,1505434025088680052,0.283171892166,0.960148334503,-0.220368131995,0.0322629250586,0.0206987690181,-0.00586029002443,0.999247848988
1505434025108391836,5721,1505434025108087972,0.283036530018,0.959687829018,-0.217924073339,0.0318025574088,0.0203093681484,-0.00605544028804,0.999269485474
1505434025108396396,5722,1505434025108111889,0.282816320658,0.959152340889,-0.214332997799,0.0307924728841,0.0193898975849,-0.00682134740055,0.999314427376
