%time,field.header.seq,field.header.stamp,field.header.frame_id,field.pose.position.x,field.pose.position.y,field.pose.position.z,field.pose.orientation.x,field.pose.orientation.y,field.pose.orientation.z,field.pose.orientation.w
1505419079910454896,8495,1505419079910290931,world,0.302928686142,0.455192476511,0.225038826466,0.00541856465861,0.0461060628295,-0.017380585894,0.998770594597
1505419079920704061,8496,1505419079920568667,world,0.303919374943,0.457549870014,0.224740877748,0.00553704658523,0.0463184341788,-0.0169236920774,0.998768031597
1505419079931192376,8497,1505419079930843667,world,0.305010646582,0.460033506155,0.225113689899,0.00520855002105,0.0460424050689,-0.0165941547602,0.998788177967
1505419079941260542,8498,1505419079941166528,world,0.306161165237,0.462532818317,0.224933713675,0.00555267790332,0.0464094653726,-0.01599567011,0.998778998852
1505419079951116532,8499,1505419079950914583,world,0.30713391304,0.465073436499,0.224849373102,0.00526143005118,0.0465506613255,-0.0158351510763,0.998776555061
1505419079960260598,8500,1505419079960086936,world,0.308192074299,0.467796206474,0.225199565291,0.00484794564545,0.0462830886245,-0.0157271958888,0.998792767525
1505419079970592171,8501,1505419079970382484,world,0.309285849333,0.470408648252,0.224823370576,0.00535620376468,0.0465109609067,-0.0151293212548,0.998788833618
1505419079980782974,8502,1505419079980654616,world,0.310339093208,0.47315505147,0.225131526589,0.00461050402373,0.0461038611829,-0.0151774752885,0.998810708523
1505419079991097709,8503,1505419079990913400,world,0.311367213726,0.476009994745,0.225074738264,0.00442927144468,0.0459424071014,-0.014711366035,0.998825967312
1505419080000258943,8504,1505419080000113121,world,0.312427401543,0.478767037392,0.225150763988,0.00402667559683,0.0459942705929,-0.0143094053492,0.998831093311
1505419080010637789,8505,1505419080010437590,world,0.313456982374,0.481712669134,0.225300878286,0.00338457082398,0.0456616394222,-0.014389785938,0.998847603798
1505419080021106394,8506,1505419080020834785,world,0.314522117376,0.484607636929,0.225087806582,0.00331731210463,0.0458819754422,-0.0136989466846,0.998847365379
1505419080030570862,8507,1505419080030283896,world,0.315608799458,0.487549811602,0.225692853332,0.0025770009961,0.0458467081189,-0.013462388888,0.998854517937
1505419080040792557,8508,1505419080040534074,world,0.316598415375,0.490555137396,0.225417256355,0.00221566576511,0.0457233823836,-0.0130592407659,0.998866379261
1505419080051077101,8509,1505419080050855401,world,0.317613899708,0.493460983038,0.225258395076,0.00226360210218,0.0455243997276,-0.0125570716336,0.998881697655
1505419080060287103,8510,1505419080060118813,world,0.318628430367,0.496573388577,0.225952938199,0.00100843072869,0.0452931374311,-0.0127019071952,0.998892486095
1505419080070797664,8511,1505419080070398880,world,0.319593250751,0.49964505434,0.22535726428,0.00129504117649,0.0453480482101,-0.0120403254405,0.998897790909
1505419080081119782,8512,1505419080080961043,world,0.320601075888,0.502811431885,0.2257925421,0.000554628961254,0.0452523119748,-0.011808604002,0.998905658722
1505419080090745284,8513,1505419080090521464,world,0.321610331535,0.505881428719,0.225923955441,-8.05920208222e-05,0.0452802442014,-0.0113689927384,0.998909652233
1505419080100929603,8514,1505419080100726358,world,0.322577655315,0.508978903294,0.225530281663,-6.80263256072e-05,0.0452014580369,-0.0107637504116,0.998919904232
1505419080111235870,8515,1505419080111003583,world,0.323514401913,0.512216866016,0.226135477424,-0.00108832016122,0.0447852350771,-0.0108252512291,0.998937427998
1505419080120647311,8516,1505419080120342601,world,0.324459284544,0.51534807682,0.225791528821,-0.000966489256825,0.0446112342179,-0.0102153960615,0.998951733112
1505419080130863097,8517,1505419080130619806,world,0.325414270163,0.518559813499,0.225628480315,-0.00119511445519,0.0443060137331,-0.00999203883111,0.998967349529
1505419080141146668,8518,1505419080140985208,world,0.326324105263,0.521739244461,0.226139426231,-0.00180131744128,0.0443020164967,-0.00978104025126,0.998968660831
1505419080150417899,8519,1505419080150250767,world,0.327189177275,0.52494096756,0.225441008806,-0.00108060205821,0.0442060120404,-0.00912404246628,0.998980224133
1505419080160616346,8520,1505419080160453976,world,0.328098893166,0.528228223324,0.225865036249,-0.00202930136584,0.0439900681376,-0.00940013676882,0.99898570776
1505419080170980778,8521,1505419080170717234,world,0.328970730305,0.531403660774,0.225975260139,-0.00220768386498,0.044365812093,-0.00887592881918,0.998973488808
1505419080181100075,8522,1505419080180959950,world,0.329839169979,0.534670054913,0.225473254919,-0.00201069843024,0.0441850870848,-0.00844761263579,0.998985648155
1505419080190523376,8523,1505419080190334244,world,0.330594092607,0.537999689579,0.225913092494,-0.00259885122068,0.0441140644252,-0.00897433795035,0.998982846737
1505419080200784814,8524,1505419080200623457,world,0.331514656544,0.541175067425,0.225478455424,-0.0013327866327,0.044422082603,-0.0082934005186,0.998977541924
1505419080211132491,8525,1505419080210852488,world,0.332290381193,0.544497072697,0.2253818959,-0.00126820697915,0.0439457297325,-0.00881186500192,0.998994290829
1505419080221242381,8526,1505419080221079102,world,0.333023875952,0.547758579254,0.225424185395,-0.00111128750723,0.0437846295536,-0.00886087864637,0.999001145363
1505419080231029109,8527,1505419080230343445,world,0.333829492331,0.551087141037,0.225036591291,-0.000542041962035,0.043484158814,-0.00860207993537,0.999017000198
1505419080240790740,8528,1505419080240615900,world,0.334600865841,0.554443001747,0.225178211927,-0.00139683717862,0.0430223830044,-0.00932887662202,0.999029636383
1505419080251087562,8529,1505419080250880921,world,0.335307121277,0.557628810406,0.225085407495,-0.00150829181075,0.0431704968214,-0.00918199308217,0.999024450779
1505419080260258447,8530,1505419080260088512,world,0.336042255163,0.560955524445,0.224878832698,-0.00146393757313,0.0429679229856,-0.00952631235123,0.999029994011
1505419080270650511,8531,1505419080270391656,world,0.336690247059,0.564289391041,0.224918425083,-0.00226980005391,0.0427154675126,-0.0100841866806,0.999033808708
1505419080280798190,8532,1505419080280643792,world,0.337490588427,0.567527890205,0.22475092113,-0.00207104650326,0.0425245054066,-0.00971030723304,0.999046087265
1505419080291346575,8533,1505419080291025497,world,0.338173151016,0.570827066898,0.224529206753,-0.00243591982871,0.0420285798609,-0.0103057818487,0.999060332775
1505419080300465818,8534,1505419080300284280,world,0.338660985231,0.574273824692,0.224246323109,-0.00316697312519,0.0418453291059,-0.010890471749,0.999059736729
1505419080310899877,8535,1505419080310566708,world,0.339546769857,0.577352881432,0.224320873618,-0.00272471783683,0.0418978184462,-0.0107835652307,0.999059975147
1505419080321122104,8536,1505419080320919265,world,0.340158045292,0.580613970757,0.224128603935,-0.00320353335701,0.0417448841035,-0.0115117570385,0.999056816101
1505419080330314229,8537,1505419080330114785,world,0.340782135725,0.583714485168,0.223807051778,-0.00295586232096,0.0414708591998,-0.0115927513689,0.999068081379
1505419080340566171,8538,1505419080340348435,world,0.341547787189,0.586891412735,0.223742216825,-0.00299996440299,0.0412503965199,-0.0117405876517,0.999075353146
1505419080350848801,8539,1505419080350635381,world,0.342046141624,0.590096533298,0.223418667912,-0.00300246360712,0.041273035109,-0.0122697148472,0.999068081379
1505419080361246931,8540,1505419080361098386,world,0.342805176973,0.59332126379,0.223307862878,-0.00240501132794,0.0410406291485,-0.01213189587,0.999080896378
1505419080370628720,8541,1505419080370394648,world,0.343432843685,0.596442878246,0.222933739424,-0.00233794935048,0.0406794920564,-0.0125900693238,0.999090135098
1505419080380763416,8542,1505419080380647356,world,0.343995928764,0.599595367908,0.222440853715,-0.00209375983104,0.0401084497571,-0.0128410747275,0.999110579491
1505419080391050012,8543,1505419080390923353,world,0.344667941332,0.602684438229,0.222558364272,-0.00204381579533,0.0398664101958,-0.0127915088087,0.999121010303
1505419080400410248,8544,1505419080400137681,world,0.345258772373,0.605836510658,0.222032025456,-0.00199697795324,0.0395537093282,-0.0128981154412,0.999132156372
1505419080410565105,8545,1505419080410373948,world,0.345866620541,0.608930885792,0.221738934517,-0.00198322627693,0.0391765087843,-0.0128316748887,0.999147951603
1505419080420765837,8546,1505419080420611230,world,0.346600681543,0.612005412579,0.221610635519,-0.00162158510648,0.0390804521739,-0.0127684129402,0.999153196812
1505419080431113800,8547,1505419080430908318,world,0.347093611956,0.615094721317,0.220924675465,-0.000965437444393,0.038933429867,-0.0128733571619,0.999158382416
1505419080441201658,8548,1505419080441103797,world,0.347795009613,0.618179857731,0.220866173506,-0.000485454016598,0.0388055145741,-0.0127273844555,0.999165594578
1505419080450473479,8549,1505419080450319643,world,0.348426997662,0.62117934227,0.220462739468,-0.000226228788961,0.0384585671127,-0.0126786958426,0.999179720879
1505419080460706159,8550,1505419080460570364,world,0.348946720362,0.624343574047,0.219918236136,0.00014263423509,0.0379642546177,-0.01275065355,0.999197781086
1505419080471092544,8551,1505419080470853699,world,0.349670767784,0.627411723137,0.219954073429,0.00025160307996,0.0377553589642,-0.0126934163272,0.999206364155
1505419080481263072,8552,1505419080481123135,world,0.350198954344,0.630473792553,0.219295069575,0.000683147984091,0.0376037061214,-0.0128494361416,0.999209880829
1505419080490503914,8553,1505419080490335826,world,0.350782811642,0.633537113667,0.218990311027,0.00109704467468,0.0371682681143,-0.01297889743,0.999224126339
1505419080500849102,8554,1505419080500620291,world,0.351416110992,0.636551737785,0.21880877018,0.00119898747653,0.0367682166398,-0.0130723658949,0.999237596989
1505419080511140987,8555,1505419080510980056,world,0.351927429438,0.639657080173,0.218177333474,0.00122449186165,0.03633877635,-0.0130240703002,0.999253869057
1505419080520514090,8556,1505419080520322173,world,0.352615207434,0.642732560635,0.218224003911,0.000585174711887,0.0360078029335,-0.0131451934576,0.999264895916
1505419080530945858,8557,1505419080530709770,world,0.353172212839,0.645753502846,0.21768078208,0.000509996665642,0.0360280424356,-0.0131293768063,0.999264419079
1505419080541173288,8558,1505419080541007960,world,0.353748500347,0.648670494556,0.217322349548,0.000207243792829,0.035632930696,-0.0131373349577,0.99927854538
1505419080550455834,8559,1505419080550296162,world,0.354348510504,0.651763558388,0.217339172959,-8.43470406835e-05,0.0353932157159,-0.0131517229602,0.999286830425
1505419080560696599,8560,1505419080560519986,world,0.354878604412,0.654737651348,0.216476529837,0.000330895534717,0.0350304767489,-0.0130893737078,0.999300479889
1505419080570961485,8561,1505419080570765818,world,0.355505734682,0.657772123814,0.216512516141,-0.000324743421515,0.0343534350395,-0.0133761130273,0.999320149422
1505419080581139669,8562,1505419080581047028,world,0.356124520302,0.660589993,0.215989425778,-0.000395857525291,0.0340922921896,-0.0131737394258,0.999331772327
1505419080590525471,8563,1505419080590355695,world,0.356665313244,0.663548529148,0.215591013432,-0.000701777404174,0.0338426716626,-0.0131016084924,0.999341070652
1505419080600838036,8564,1505419080600664559,world,0.357285231352,0.666540920734,0.215675354004,-0.00148408079986,0.0337290652096,-0.0131625439972,0.999343216419
1505419080611131434,8565,1505419080610938151,world,0.35791271925,0.669322907925,0.214797884226,-0.00112530379556,0.0334885343909,-0.0128242736682,0.999356210232
1505419080620348029,8566,1505419080620176879,world,0.358468830585,0.672295749187,0.214821189642,-0.0017281860346,0.0326791107655,-0.0132752470672,0.999376296997
1505419080630950719,8567,1505419080630450062,world,0.359039366245,0.675140023232,0.214328169823,-0.00166485295631,0.0321541205049,-0.0131672751158,0.999394834042
1505419080640827502,8568,1505419080640677144,world,0.35963305831,0.67792224884,0.213670104742,-0.00147940509487,0.0315633416176,-0.0130939017981,0.999414861202
1505419080651163309,8569,1505419080650971012,world,0.360139369965,0.680730462074,0.21367430687,-0.00171377579682,0.0311086047441,-0.0135493315756,0.999422729015
1505419080660274696,8570,1505419080660152181,world,0.360754400492,0.683439970016,0.212749272585,-0.000938989280257,0.031022593379,-0.0129521284252,0.999434292316
1505419080670627375,8571,1505419080670405417,world,0.361331105232,0.686281502247,0.212802663445,-0.00135779217817,0.0307166520506,-0.0132998293266,0.999438762665
1505419080680783291,8572,1505419080680629643,world,0.361887156963,0.689023733139,0.212319090962,-0.00110706302803,0.0304194428027,-0.0132710551843,0.999448478222
1505419080691095069,8573,1505419080690883345,world,0.362537652254,0.691600859165,0.211525201797,-0.000433686916949,0.0301321782172,-0.0128510352224,0.999463200569
1505419080701219252,8574,1505419080701080267,world,0.363103628159,0.694291174412,0.211804822087,-0.00103672710247,0.02983991988,-0.0131500540301,0.999467611313
1505419080710588631,8575,1505419080710367842,world,0.363659411669,0.696868658066,0.210632890463,0.000158275273861,0.0294433366507,-0.0126418825239,0.999486505985
1505419080720797589,8576,1505419080720642820,world,0.364218562841,0.699465274811,0.21065723896,-2.72324141406e-05,0.0289260204881,-0.0130005152896,0.999497115612
1505419080731235390,8577,1505419080731022104,world,0.364814311266,0.702031135559,0.210098475218,0.000412400811911,0.0285372380167,-0.0129086412489,0.999509334564
1505419080740406394,8578,1505419080740254221,world,0.365391999483,0.704522848129,0.209293752909,0.000942826853134,0.0280310250819,-0.0128191942349,0.999524414539
1505419080750723909,8579,1505419080750483668,world,0.365900784731,0.707055211067,0.209584981203,0.000293385761324,0.0274488255382,-0.0133331390098,0.999534249306
1505419080761120082,8580,1505419080760941206,world,0.366462886333,0.709547460079,0.208380460739,0.00108917080797,0.0269601214677,-0.0129749048501,0.999551713467
1505419080770318552,8581,1505419080770109494,world,0.36701053381,0.711796820164,0.208428174257,0.000458432448795,0.0266401059926,-0.0133531605825,0.999555826187
1505419080780564559,8582,1505419080780381916,world,0.367600470781,0.714280068874,0.208026573062,0.000768310856074,0.0262377280742,-0.0131512498483,0.999568998814
1505419080790742684,8583,1505419080790645252,world,0.368182212114,0.716526389122,0.2070594877,0.00135414116085,0.0258913822472,-0.0130081959069,0.999579131603
1505419080801008313,8584,1505419080800856928,world,0.368711233139,0.718807160854,0.207462176681,0.00092790852068,0.025701565668,-0.0134055800736,0.999579310417
1505419080811369969,8585,1505419080811161746,world,0.369313538074,0.721063792706,0.206268727779,0.00191307323985,0.025580001995,-0.0130274407566,0.999585986137
1505419080820594637,8586,1505419080820432071,world,0.369780570269,0.723091125488,0.206229746342,0.00140112626832,0.0252881478518,-0.0134713575244,0.999588489532
1505419080830842322,8587,1505419080830698325,world,0.370382964611,0.725367665291,0.206001102924,0.0012860611314,0.0248109679669,-0.0134680904448,0.999600589275
1505419080841235419,8588,1505419080841037460,world,0.370931833982,0.727402865887,0.204993933439,0.00180314027239,0.0243881493807,-0.0133050810546,0.999612390995
1505419080850427106,8589,1505419080850235096,world,0.37141174078,0.729419350624,0.205246582627,0.00123196118511,0.0238513592631,-0.0139366583899,0.999617576599
1505419080860664585,8590,1505419080860519571,world,0.372066944838,0.731430113316,0.204255387187,0.00226789759472,0.0232305843383,-0.0134223392233,0.99963748455
1505419080871044361,8591,1505419080870837476,world,0.372501164675,0.733287215233,0.203882649541,0.00236859475262,0.0228936690837,-0.013717699796,0.999641001225
1505419080880237034,8592,1505419080880088389,world,0.373132109642,0.735238194466,0.2037409693,0.00256886682473,0.0225772373378,-0.013854233548,0.999645769596
1505419080890469085,8593,1505419080890336540,world,0.373711317778,0.737027823925,0.202757954597,0.00356519641355,0.0223895981908,-0.0132925035432,0.999654591084
1505419080900771384,8594,1505419080900571974,world,0.374257385731,0.738842785358,0.202849715948,0.00318375532515,0.0220112446696,-0.0134631721303,0.999661982059
1505419080911001166,8595,1505419080910814794,world,0.374887555838,0.74060100317,0.202242717147,0.00374121824279,0.021705808118,-0.0130740655586,0.999671936035
1505419080920274447,8596,1505419080920130134,world,0.375368416309,0.742179512978,0.201625049114,0.00372668728232,0.0213754642755,-0.0131764458492,0.999677717686
1505419080930929125,8597,1505419080930413379,world,0.376013427973,0.743831813335,0.201692789793,0.00338591006584,0.0210731253028,-0.013208726421,0.999684870243
1505419080940776141,8598,1505419080940656360,world,0.376538693905,0.745405733585,0.200960323215,0.00371450581588,0.0208821911365,-0.012965939939,0.999690949917
1505419080951049757,8599,1505419080950883915,world,0.377102702856,0.746986806393,0.200656965375,0.00370841077529,0.0204752236605,-0.012993292883,0.999699115753
1505419080961206046,8600,1505419080961083971,world,0.377740502357,0.748423278332,0.200278699398,0.00390520505607,0.0202054325491,-0.0126371532679,0.999708294868
1505419080970627171,8601,1505419080970357573,world,0.378258317709,0.74985063076,0.199728921056,0.00416142167524,0.0198790282011,-0.0125272301957,0.999715328217
1505419080980799596,8602,1505419080980625269,world,0.378837555647,0.751250982285,0.19949619472,0.00403731595725,0.0195820201188,-0.0126159861684,0.999720454216
1505419080991033399,8603,1505419080990906191,world,0.379387140274,0.752575516701,0.199122145772,0.0043226396665,0.0193849503994,-0.0125376498327,0.999724090099
1505419081000461797,8604,1505419081000308907,world,0.379968285561,0.753940343857,0.198676556349,0.00428463798016,0.0189211647958,-0.0124924108386,0.999733746052
1505419081010755040,8605,1505419081010559142,world,0.380624294281,0.755104422569,0.198325738311,0.00463029136881,0.018614185974,-0.0121009331197,0.999742686749
1505419081021018480,8606,1505419081020848200,world,0.381148457527,0.756342589855,0.197830796242,0.00492999190465,0.0183810237795,-0.0120382616296,0.999746382236
1505419081031362566,8607,1505419081031159609,world,0.381765782833,0.757548987865,0.197627618909,0.00504759093747,0.0180906355381,-0.011795011349,0.999754011631
1505419081040648029,8608,1505419081040439238,world,0.382290095091,0.758630335331,0.19716489315,0.00513160554692,0.0178747940809,-0.0116888526827,0.999758720398
1505419081050905229,8609,1505419081050711785,world,0.382843703032,0.759621024132,0.196794226766,0.00539244245738,0.0175331253558,-0.0112486453727,0.99976849556
1505419081061059158,8610,1505419081060958204,world,0.38349545002,0.760621130466,0.196477293968,0.00550200184807,0.0173038877547,-0.0107264723629,0.999777555466
1505419081070326547,8611,1505419081070165533,world,0.384023278952,0.76167434454,0.196007207036,0.00568034872413,0.0172310099006,-0.0103510031477,0.999781727791
1505419081080633525,8612,1505419081080446929,world,0.384585469961,0.762607395649,0.195853278041,0.00577504467219,0.0170135051012,-0.0101391058415,0.999787211418
1505419081090912233,8613,1505419081090699117,world,0.385129988194,0.763502776623,0.195382043719,0.00593649875373,0.0166061129421,-0.0098689775914,0.999795734882
1505419081101055160,8614,1505419081100959095,world,0.385704398155,0.764357686043,0.19513399899,0.00607561087236,0.0162021294236,-0.00931936781853,0.999806880951
1505419081110273776,8615,1505419081110103566,world,0.386268436909,0.765119552612,0.194814130664,0.00599416298792,0.0159078668803,-0.00900309719145,0.999814987183
1505419081120535242,8616,1505419081120372163,world,0.386786878109,0.765936255455,0.194348633289,0.00621694745496,0.0156862661242,-0.0088398559019,0.999818563461
1505419081130986581,8617,1505419081130649668,world,0.387306928635,0.766686856747,0.19432002306,0.00610592402518,0.0155286444351,-0.00888668838888,0.99982124567
1505419081141103883,8618,1505419081140926683,world,0.387785106897,0.76736164093,0.193831548095,0.00626601045951,0.0155585883185,-0.00877468939871,0.999820828438
1505419081150631647,8619,1505419081150153262,world,0.388297498226,0.768053710461,0.193680182099,0.00638950522989,0.015310915187,-0.00852257758379,0.999826014042
1505419081160593185,8620,1505419081160429980,world,0.388760298491,0.768695414066,0.19343984127,0.00632546748966,0.0149842407554,-0.00836266390979,0.999832749367
1505419081170890733,8621,1505419081170702122,world,0.389267504215,0.769239068031,0.19293834269,0.00654779141769,0.0148286521435,-0.00813843216747,0.999835431576
1505419081181061948,8622,1505419081180919306,world,0.389713764191,0.769827306271,0.193129211664,0.00605406658724,0.0145552065223,-0.00846657156944,0.999839901924
1505419081190366327,8623,1505419081190070676,world,0.390146136284,0.770345985889,0.192365169525,0.00646256981418,0.0142165571451,-0.00819745101035,0.999844491482
1505419081200609910,8624,1505419081200430012,world,0.390593707561,0.770782887936,0.192384660244,0.00635501788929,0.0137242088094,-0.00806435756385,0.999853074551
1505419081210948877,8625,1505419081210741405,world,0.391000509262,0.771239101887,0.192084133625,0.00623939419165,0.0135853886604,-0.00820059422404,0.999854624271
1505419081221160004,8626,1505419081221018758,world,0.39145553112,0.771570324898,0.191540241241,0.00675164023414,0.0135049810633,-0.00788635015488,0.999854922295
1505419081230421805,8627,1505419081230241434,world,0.391826659441,0.772003829479,0.19199860096,0.00616731261835,0.0133045371622,-0.00837207958102,0.99985742569
1505419081240767012,8628,1505419081240591151,world,0.392245322466,0.772351980209,0.19103962183,0.0069698151201,0.0132067436352,-0.00806919112802,0.999855935574
1505419081251023328,8629,1505419081250872694,world,0.392624765635,0.772599697113,0.191299200058,0.00644005369395,0.0132021652535,-0.00820812024176,0.999858379364
1505419081260331007,8630,1505419081260109884,world,0.392984867096,0.772876799107,0.1910623312,0.00646173534915,0.0133837200701,-0.00821861345321,0.999855816364
1505419081280906669,8631,1505419081280654175,world,0.393350422382,0.77316147089,0.190585300326,0.00651003280655,0.013201017864,-0.00810000021011,0.999858856201
1505419081280928628,8632,1505419081280677537,world,0.393675684929,0.773334562778,0.191071346402,0.00588485505432,0.0129218678921,-0.0085614817217,0.999862492085
1505419081291179789,8633,1505419081291033324,world,0.394010514021,0.773551106453,0.190085411072,0.00659495405853,0.0125724254176,-0.0083565833047,0.999864339828
1505419081310892705,8634,1505419081310505927,world,0.394323557615,0.773688971996,0.190445199609,0.00609740801156,0.0121715292335,-0.00863221567124,0.999870061874
1505419081310896960,8635,1505419081310524759,world,0.394637018442,0.77381002903,0.190152347088,0.00641189562157,0.0120634827763,-0.00850747246295,0.999870479107
1505419081320967487,8636,1505419081320809194,world,0.395012557507,0.77386713028,0.189603880048,0.00668824510649,0.0120939966291,-0.00813368149102,0.999871432781
1505419081340573288,8637,1505419081340299359,world,0.395301967859,0.77389639616,0.190179988742,0.00603178003803,0.0118761621416,-0.00838563684374,0.999876141548
1505419081340578209,8638,1505419081340319361,world,0.395661890507,0.773943126202,0.189185768366,0.00692710326985,0.0118010118604,-0.00767424982041,0.999876916409
1505419081350982785,8639,1505419081350555404,world,0.395902782679,0.773968577385,0.189707458019,0.00620043184608,0.0117417415604,-0.00795695371926,0.999880135059
1505419081370979214,8640,1505419081370245377,world,0.396157354116,0.773912489414,0.189368471503,0.00640203757212,0.0119016617537,-0.00775790261105,0.999878525734
1505419081370987204,8641,1505419081370267844,world,0.3965087533,0.773816943169,0.18885140121,0.00658894237131,0.0118416221812,-0.00723383808509,0.999882042408
1505419081380842536,8642,1505419081380556150,world,0.396716594696,0.77374368906,0.189517587423,0.00583007186651,0.0114492084831,-0.00754782697186,0.999889016151
1505419081401243102,8643,1505419081401023060,world,0.396996676922,0.773615062237,0.188500642776,0.00675714481622,0.0111740175635,-0.00694115879014,0.999890625477
1505419081401247459,8644,1505419081401103551,world,0.397183299065,0.773454785347,0.18896843493,0.00614871503785,0.010769139044,-0.00718182511628,0.999897301197
1505419081410771321,8645,1505419081410346466,world,0.397407650948,0.773314058781,0.188749864697,0.00610522832721,0.0106808478013,-0.00711201643571,0.999899029732
1505419081431228744,8646,1505419081430817307,world,0.397658497095,0.773103237152,0.188107341528,0.00640838174149,0.0106254024431,-0.00658011157066,0.999901354313
1505419081431250231,8647,1505419081430836466,world,0.397800177336,0.772933006287,0.188929155469,0.00551006477326,0.0103696836159,-0.00682361563668,0.999907791615
1505419081441176073,8648,1505419081441023438,world,0.3980461061,0.772615075111,0.187972247601,0.00655450439081,0.0105439210311,-0.00609616935253,0.999904334545
1505419081460705016,8649,1505419081460513908,world,0.398187607527,0.772359013557,0.188358694315,0.00617404095829,0.0104799838737,-0.00640264712274,0.999905526638
1505419081460719870,8650,1505419081460571135,world,0.398359537125,0.772110879421,0.188338145614,0.00649013090879,0.0105597497895,-0.0063425549306,0.999903082848
1505419081471244226,8651,1505419081470999514,world,0.398487657309,0.771765708923,0.187680676579,0.00696534616873,0.0105379112065,-0.00592156918719,0.99990272522
1505419081490833225,8652,1505419081490500735,world,0.39856928587,0.771518349648,0.18837928772,0.00616013398394,0.0101017393172,-0.00622782902792,0.999910593033
1505419081491030931,8653,1505419081490519631,world,0.398742198944,0.771089911461,0.187694519758,0.00700948480517,0.0102201113477,-0.00561854010448,0.999907374382
1505419081501178929,8654,1505419081501035807,world,0.3987839818,0.770749866962,0.187849223614,0.00663921423256,0.00973319914192,-0.00604674033821,0.999912321568
1505419081520755176,8655,1505419081520545260,world,0.398891121149,0.770484685898,0.188095122576,0.00633341772482,0.00973333325237,-0.00603222474456,0.99991440773
1505419081520762335,8656,1505419081520568599,world,0.399021744728,0.769943296909,0.187422648072,0.00673705758527,0.00984671432525,-0.00523831741884,0.999915063381
1505419081531176192,8657,1505419081530948434,world,0.399004220963,0.769598722458,0.188032269478,0.00532017834485,0.00964453537017,-0.00589344603941,0.999922037125
1505419081550676967,8658,1505419081550469926,world,0.399112284184,0.769164443016,0.187702149153,0.0055933482945,0.0100948624313,-0.00531504815444,0.999919295311
1505419081550690939,8659,1505419081550521432,world,0.39909055829,0.768760800362,0.187804564834,0.00488403625786,0.00985198374838,-0.00573888793588,0.999923050404
1505419081560876289,8660,1505419081560754082,world,0.39911699295,0.768395245075,0.188075244427,0.00426342245191,0.00978247262537,-0.00593029521406,0.999925494194
1505419081571230213,8661,1505419081571026748,world,0.399103492498,0.767823278904,0.18749165535,0.00460304366425,0.00965042319149,-0.0056471680291,0.999926865101
1505419081580490359,8662,1505419081580304522,world,0.398996442556,0.767490267754,0.187835723162,0.00370092317462,0.00914946943521,-0.00635778997093,0.999931037426
1505419081590973923,8663,1505419081590600007,world,0.399036705494,0.767032384872,0.187696814537,0.00410517910495,0.00959513243288,-0.00597623828799,0.999927699566
1505419081611394211,8664,1505419081611107707,world,0.398974150419,0.766489028931,0.187671124935,0.00383707648143,0.00937190279365,-0.00639475788921,0.999928236008
1505419081611400093,8665,1505419081611128421,world,0.398847103119,0.766074836254,0.18771904707,0.00355202611536,0.00937077403069,-0.00676685804501,0.999926865101
1505419081620707417,8666,1505419081620551762,world,0.398829191923,0.76550424099,0.187595024705,0.00385220698081,0.00934215355664,-0.00664308248088,0.999926865101
1505419081631089496,8667,1505419081630841049,world,0.398664087057,0.765047252178,0.187516584992,0.00348668638617,0.00897837337106,-0.00718737440184,0.999927759171
1505419081641278643,8668,1505419081641118225,world,0.398675858974,0.764490604401,0.187600255013,0.00368822203018,0.00935814809054,-0.00676753977314,0.999926507473
1505419081650876451,8669,1505419081650371336,world,0.398577481508,0.763839781284,0.187590613961,0.00370969064534,0.00922894664109,-0.00682054692879,0.999927222729
1505419081671205297,8670,1505419081670872231,world,0.398425012827,0.763353168964,0.187449499965,0.00350430957042,0.00925623159856,-0.00722358422354,0.999924898148
1505419081671210711,8671,1505419081670949314,world,0.398349046707,0.762744545937,0.18760766089,0.00367493904196,0.0094121703878,-0.00712529243901,0.999923586845
1505419081680495929,8672,1505419081680303305,world,0.398114591837,0.762186586857,0.187401235104,0.00339668872766,0.00884966738522,-0.00777223985642,0.999924838543
1505419081700938983,8673,1505419081700745805,world,0.398018807173,0.761540055275,0.187376856804,0.00366307422519,0.00876752659678,-0.00778264552355,0.999924600124
1505419081700944731,8674,1505419081700764865,world,0.397845417261,0.760877609253,0.18752206862,0.00373610202223,0.00850535836071,-0.00804556719959,0.999924480915
1505419081711287969,8675,1505419081711067428,world,0.397668987513,0.760316491127,0.187244653702,0.00393666047603,0.00843570940197,-0.00831168051809,0.999922156334
1505419081730991440,8676,1505419081730590731,world,0.397491931915,0.759588301182,0.18744751811,0.00400116713718,0.00853360630572,-0.00844037067145,0.999919950962
1505419081730996322,8677,1505419081730612391,world,0.397303342819,0.758904397488,0.187242031097,0.00429754797369,0.0083506628871,-0.00874661467969,0.999917626381
1505419081741072766,8678,1505419081740917924,world,0.39716142416,0.758243381977,0.187082201242,0.00462264707312,0.00848641619086,-0.00885242782533,0.999914109707
1505419081760543697,8679,1505419081760344927,world,0.396948456764,0.757597923279,0.187555596232,0.00444896193221,0.0087053636089,-0.00909087527543,0.999910891056
1505419081760556305,8680,1505419081760381731,world,0.396765172482,0.75684273243,0.187112852931,0.00471953302622,0.00878049992025,-0.00928884651512,0.999907255173
1505419081770936730,8681,1505419081770801885,world,0.396542161703,0.756044149399,0.187408342957,0.00422872649506,0.0087235243991,-0.00956561136991,0.999907255173
1505419081791037489,8682,1505419081790466965,world,0.396350562572,0.755304634571,0.187250599265,0.00424639228731,0.00832387804985,-0.00955034606159,0.999910652637
1505419081791044873,8683,1505419081790485786,world,0.396160125732,0.754676163197,0.187089860439,0.00411915918812,0.00811948347837,-0.00974494125694,0.99991106987
1505419081801005710,8684,1505419081800810436,world,0.395882964134,0.753977000713,0.187621057034,0.00351305142976,0.00812212843448,-0.0101652983576,0.999909102917
1505419081811277116,8685,1505419081811052209,world,0.395696341991,0.753182709217,0.18705971539,0.00394321512431,0.0080797187984,-0.0101378634572,0.999908208847
1505419081820505656,8686,1505419081820342954,world,0.39542850852,0.752361774445,0.187424957752,0.00345793180168,0.00806493777782,-0.0104186441749,0.999907195568
1505419081830876250,8687,1505419081830638907,world,0.395191460848,0.751636147499,0.187475889921,0.00337727647275,0.00786318723112,-0.0105247888714,0.999907970428
1505419081841189220,8688,1505419081840944693,world,0.395025968552,0.750890851021,0.187153935432,0.00356650911272,0.00789401400834,-0.0105873104185,0.999906420708
1505419081860578405,8689,1505419081860378221,world,0.394715309143,0.750137925148,0.187721520662,0.00316054816358,0.00793648697436,-0.0109781557694,0.999903261662
1505419081860584420,8690,1505419081860395788,world,0.394594609737,0.749336242676,0.187225520611,0.0037457679864,0.00796784646809,-0.0107589699328,0.999903440475
1505419081870838911,8691,1505419081870652199,world,0.394275665283,0.748548090458,0.187404498458,0.00345456623472,0.00804780144244,-0.0111077772453,0.999899983406
1505419081881090053,8692,1505419081880942693,world,0.394007563591,0.747804105282,0.187744036317,0.00327028147876,0.00773740047589,-0.0114451190457,0.999899148941
1505419081890818741,8693,1505419081890196407,world,0.393823891878,0.747015416622,0.187226310372,0.00356282223947,0.00765168946236,-0.0115890027955,0.999897241592
1505419081900584149,8694,1505419081900475984,world,0.39349719882,0.746250212193,0.187754437327,0.0029309282545,0.00756060145795,-0.0119278775528,0.999895989895
1505419081921202165,8695,1505419081921024356,world,0.393349140882,0.74549382925,0.187451854348,0.00340714515187,0.00738249579445,-0.0117997666821,0.999897360802
1505419081921212727,8696,1505419081921090028,world,0.393043100834,0.744741022587,0.187430620193,0.00330522400327,0.00751667981967,-0.0121761802584,0.999892115593
1505419081930656906,8697,1505419081930456233,world,0.392785578966,0.743992626667,0.18789871037,0.00289168348536,0.00761577673256,-0.012525267899,0.9998883605
1505419081951101890,8698,1505419081950913376,world,0.392621994019,0.743173718452,0.187474533916,0.00322588719428,0.00766657013446,-0.0122777596116,0.99989002943
1505419081951105245,8699,1505419081950933276,world,0.392298132181,0.742447078228,0.187759265304,0.00270810443908,0.00758250849321,-0.0125469202176,0.999888896942
1505419081960238976,8700,1505419081960099019,world,0.392197161913,0.741624414921,0.187925890088,0.00284779723734,0.00758328894153,-0.0123333623633,0.999891161919
1505419081980829041,8701,1505419081980607474,world,0.391941100359,0.74076706171,0.187539234757,0.00313942693174,0.00781078357249,-0.0123131964356,0.999888718128
1505419081980833606,8702,1505419081980669672,world,0.391672462225,0.740007281303,0.188015535474,0.0027213874273,0.0078307390213,-0.0126403253525,0.999885737896
1505419081991096366,8703,1505419081990882019,world,0.391527831554,0.739300787449,0.187768861651,0.00299754808657,0.00781386345625,-0.0124081447721,0.999887943268
1505419082001258530,8704,1505419082001120651,world,0.391154885292,0.738569974899,0.187781006098,0.00225293193944,0.00754186930135,-0.0128827150911,0.999885976315
1505419082010754688,8705,1505419082010479517,world,0.391037136316,0.737734019756,0.188176989555,0.00175287446473,0.00736100738868,-0.0129914628342,0.999886929989
1505419082020959332,8706,1505419082020792266,world,0.390793114901,0.736898958683,0.18775087595,0.00175263639539,0.00735155679286,-0.0128596965224,0.999888718128
1505419082031259534,8707,1505419082031054692,world,0.390487968922,0.736197352409,0.188158616424,0.000982049736194,0.00724635040388,-0.0132311992347,0.999885737896
1505419082040525064,8708,1505419082040322659,world,0.390380501747,0.735442698002,0.18817833066,0.00103687879164,0.00757098849863,-0.0130798695609,0.999885261059
1505419082050850755,8709,1505419082050558443,world,0.390099227428,0.734592199326,0.187905058265,0.000601202831604,0.0076115722768,-0.0132465977222,0.999883115292
1505419082071195861,8710,1505419082071004509,world,0.389914929867,0.733835756779,0.188487276435,-0.000107678293716,0.00760495709255,-0.0132642621174,0.999883055687
1505419082071212151,8711,1505419082071051528,world,0.389738827944,0.733017385006,0.188028529286,0.000209964244277,0.00776844099164,-0.0127863222733,0.999888062477
1505419082080512587,8712,1505419082080356466,world,0.389475166798,0.732258737087,0.188257277012,-0.000433851149864,0.00747775612399,-0.013183475472,0.999885082245
1505419082100987503,8713,1505419082100807279,world,0.389354795218,0.731446921825,0.188396975398,-0.000373859424144,0.00764242140576,-0.0130316652358,0.999885797501
1505419082100992215,8714,1505419082100862938,world,0.389072090387,0.730601251125,0.187920451164,-0.000301296211546,0.00766641134396,-0.0129884332418,0.999886214733
1505419082110217876,8715,1505419082110099627,world,0.388860195875,0.729783415794,0.188422828913,-0.00088813592447,0.00748578691855,-0.0131779992953,0.999884784222
1505419082120401758,8716,1505419082120275226,world,0.388691902161,0.729024350643,0.188161358237,-0.000425603182521,0.007822599262,-0.012771054171,0.999887824059
1505419082130654559,8717,1505419082130489260,world,0.38843101263,0.728260040283,0.187998965383,-0.000742444302887,0.00754277873784,-0.0129684964195,0.999887108803
1505419082140997652,8718,1505419082140846576,world,0.388268947601,0.727442979813,0.188341632485,-0.00102673599031,0.007548824884,-0.0129299378023,0.999887347221
1505419082151306666,8719,1505419082151128228,world,0.388031989336,0.726555347443,0.18779976666,-0.000452547596069,0.00770015176386,-0.0125853773206,0.999891042709
1505419082160490312,8720,1505419082160336384,world,0.387776792049,0.725755751133,0.1879042238,-0.000717137241736,0.00755333155394,-0.0128776337951,0.999888241291
1505419082170920553,8721,1505419082170566173,world,0.387597978115,0.724982023239,0.188069596887,-0.000612163858023,0.00787876173854,-0.0125363916159,0.999890208244
1505419082181193437,8722,1505419082181051050,world,0.387375324965,0.724206924438,0.187516376376,-0.000754570995923,0.00768689112738,-0.0124321365729,0.999892890453
1505419082190526588,8723,1505419082190301023,world,0.387163072824,0.7234146595,0.187932372093,-0.00145351688843,0.00745114358142,-0.0125497272238,0.999892413616
1505419082200796871,8724,1505419082200636658,world,0.386929422617,0.722617566586,0.187607705593,-0.00136066647246,0.00761370686814,-0.0123073076829,0.999894320965
1505419082211162609,8725,1505419082210949613,world,0.386692464352,0.721863389015,0.187412887812,-0.001895141555,0.00735883926973,-0.0128714246675,0.999888241291
1505419082220328570,8726,1505419082220152230,world,0.386447131634,0.721139073372,0.187759578228,-0.00226788944565,0.0077291848138,-0.013004405424,0.999882996082
1505419082230557948,8727,1505419082230408347,world,0.386240363121,0.720415771008,0.187114343047,-0.00164245825727,0.00771289085969,-0.0128361145034,0.999886572361
1505419082240823955,8728,1505419082240665882,world,0.385964423418,0.719666421413,0.187238067389,-0.00202854163945,0.00744594307616,-0.0134643195197,0.999879598618
1505419082251063522,8729,1505419082250943772,world,0.385738760233,0.718940258026,0.187117278576,-0.00152303767391,0.00752106867731,-0.0132335219532,0.999883055687
1505419082260217701,8730,1505419082260091481,world,0.385573923588,0.718231618404,0.186492532492,-0.00120895274449,0.00715649267659,-0.0132852634415,0.999885380268
1505419082270427932,8731,1505419082270272399,world,0.385279774666,0.71754950285,0.186875090003,-0.00187095056754,0.00732039567083,-0.0135862529278,0.99987912178
1505419082280675438,8732,1505419082280559792,world,0.385093480349,0.716872632504,0.186448305845,-0.00174976838753,0.00736040109769,-0.013292347081,0.999882996082
1505419082290958125,8733,1505419082290789218,world,0.384876340628,0.716163992882,0.186140090227,-0.00232174037956,0.00711753498763,-0.0135312350467,0.999880433083
1505419082301233929,8734,1505419082301081217,world,0.384623378515,0.71549063921,0.186400234699,-0.00296727521345,0.00737954536453,-0.0133523922414,0.999879181385
1505419082310524876,8735,1505419082310353264,world,0.38448753953,0.714892268181,0.185673251748,-0.00286788772792,0.007128150668,-0.0128495376557,0.999887883663
1505419082320854040,8736,1505419082320669702,world,0.384212881327,0.714261770248,0.185898795724,-0.00363115617074,0.0073123741895,-0.0132027436048,0.999879479408
1505419082331120059,8737,1505419082330947002,world,0.383954316378,0.713656306267,0.185521826148,-0.00329215964302,0.00731625268236,-0.0132551221177,0.99988001585
1505419082340317535,8738,1505419082340186755,world,0.383805006742,0.713026404381,0.184846535325,-0.00299173174426,0.00692924112082,-0.0132867051288,0.999883234501
1505419082350499415,8739,1505419082350407566,world,0.383441329002,0.712423980236,0.185006782413,-0.00336728477851,0.00713671697304,-0.0137211605906,0.999874711037
1505419082361064971,8740,1505419082360835522,world,0.383278340101,0.711934328079,0.184449255466,-0.00292025692761,0.00709923822433,-0.0134233795106,0.999880433083
1505419082370226554,8741,1505419082370104792,world,0.383140683174,0.711340725422,0.184111982584,-0.00326883839443,0.00691440235823,-0.0133410515264,0.999881744385
1505419082380510034,8742,1505419082380357106,world,0.382830500603,0.710736632347,0.18411244452,-0.00391552830115,0.00711203087121,-0.0132850762457,0.999878764153
1505419082390740613,8743,1505419082390623893,world,0.382736980915,0.710210025311,0.183434441686,-0.00375597411767,0.00721323303878,-0.0126587664708,0.999886870384
1505419082401035168,8744,1505419082400901182,world,0.382450133562,0.709727346897,0.183385625482,-0.00468934606761,0.00740448245779,-0.0129308560863,0.999877989292
1505419082410350133,8745,1505419082410120635,world,0.38221642375,0.709193885326,0.183049067855,-0.00503139942884,0.00734034506604,-0.0127858342603,0.999878704548
1505419082420502622,8746,1505419082420343821,world,0.382102489471,0.708665549755,0.182286798954,-0.00523887015879,0.00702837761492,-0.0126152038574,0.999882042408
1505419082430833355,8747,1505419082430598831,world,0.381730467081,0.708223462105,0.182325974107,-0.00646314956248,0.00710963178426,-0.0129830911756,0.999869525433
1505419082441076563,8748,1505419082440865946,world,0.381622463465,0.707847774029,0.181817635894,-0.00669523281977,0.00714176287875,-0.0125630348921,0.999873161316
1505419082451283517,8749,1505419082451107437,world,0.381382584572,0.707336366177,0.181234046817,-0.00736274989322,0.0072103147395,-0.0126048708335,0.99986743927
1505419082460480347,8750,1505419082460389124,world,0.381089866161,0.706985712051,0.181033656001,-0.00845103897154,0.00723781948909,-0.0126768238842,0.999857723713
1505419082470821135,8751,1505419082470673258,world,0.3809915483,0.706637740135,0.180424869061,-0.00904784537852,0.00715182162821,-0.0122626936063,0.999858319759
1505419082481065999,8752,1505419082480963991,world,0.380642920732,0.706244528294,0.180023401976,-0.0104365088046,0.00737835932523,-0.0125577738509,0.999839484692
1505419082490271466,8753,1505419082490114662,world,0.380494326353,0.705869555473,0.179645031691,-0.0116143263876,0.00739869847894,-0.0122324451804,0.999830365181
1505419082500565023,8754,1505419082500404335,world,0.380376517773,0.70550096035,0.179045751691,-0.0129175931215,0.00725368130952,-0.0119606312364,0.999818682671
1505419082510863054,8755,1505419082510636447,world,0.38007080555,0.705148220062,0.178532630205,-0.014282932505,0.0074392366223,-0.0120714716613,0.999797403812
1505419082521066915,8756,1505419082520897119,world,0.37991002202,0.704792737961,0.17802233994,-0.0149656552821,0.00752057600766,-0.011600417085,0.999792397022
1505419082531328988,8757,1505419082531113803,world,0.379682987928,0.704400658607,0.177287980914,-0.0162115730345,0.00733119389042,-0.0113408556208,0.999777376652
1505419082540532457,8758,1505419082540376796,world,0.379413157701,0.704111397266,0.176604807377,-0.0177220664918,0.00723152561113,-0.0111965183169,0.99975413084
1505419082550802758,8759,1505419082550649364,world,0.379267841578,0.703801691532,0.176095917821,-0.0189075134695,0.00719267781824,-0.0107315694913,0.999737739563
1505419082561009973,8760,1505419082560878622,world,0.379042208195,0.703425884247,0.175109446049,-0.0200458932668,0.00721004372463,-0.010388574563,0.999719083309
1505419082571416398,8761,1505419082571099211,world,0.378833681345,0.703144490719,0.174466103315,-0.0212483257055,0.00724898930639,-0.0100897764787,0.999697029591
1505419082580535712,8762,1505419082580385349,world,0.378585666418,0.702849924564,0.173637628555,-0.0220796968788,0.00750696985051,-0.00985027104616,0.99967956543
1505419082590902354,8763,1505419082590680532,world,0.378290086985,0.702585160732,0.172539174557,-0.0231201462448,0.00736902654171,-0.00989353470504,0.999656558037
1505419082601078733,8764,1505419082600981416,world,0.37804761529,0.702378153801,0.171837434173,-0.0244650077075,0.00722459610552,-0.00974644906819,0.999627053738
1505419082610344706,8765,1505419082610227433,world,0.377755820751,0.702061057091,0.170623287559,-0.0253204610199,0.00749802170321,-0.00940586719662,0.999607026577
1505419082620526371,8766,1505419082620446799,world,0.377546042204,0.70180118084,0.169567108154,-0.026226837188,0.00742817763239,-0.00928476732224,0.999585211277
1505419082630832222,8767,1505419082630723232,world,0.377244830132,0.701595187187,0.16860127449,-0.0271749664098,0.00761176040396,-0.00932369474322,0.999558150768
1505419082641222109,8768,1505419082641013969,world,0.376931101084,0.701300024986,0.166989818215,-0.0278203114867,0.00773682026193,-0.00924698729068,0.99954020977
1505419082650488778,8769,1505419082650320700,world,0.376597940922,0.701212465763,0.166133180261,-0.0293207429349,0.00750672770664,-0.00983774568886,0.999493539333
1505419082660774330,8770,1505419082660564292,world,0.376201629639,0.700895249844,0.164693459868,-0.0301958434284,0.00809316989034,-0.0101946527138,0.999459207058
1505419082671051409,8771,1505419082670871153,world,0.375929057598,0.700663983822,0.162926316261,-0.0312699638307,0.00754394335672,-0.0101568279788,0.999430894852
1505419082681255589,8772,1505419082681135628,world,0.375558227301,0.700520217419,0.162036597729,-0.033016782254,0.00729980552569,-0.0105940680951,0.999372005463
1505419082690477958,8773,1505419082690337763,world,0.375239431858,0.700245738029,0.160155504942,-0.0334817916155,0.00731436675414,-0.0103811826557,0.999358594418
1505419082700882829,8774,1505419082700709291,world,0.374927908182,0.700130522251,0.158745139837,-0.0347536057234,0.00713656330481,-0.010878123343,0.999311208725
1505419082711093663,8775,1505419082710957838,world,0.374498873949,0.699895977974,0.157328590751,-0.0356330871582,0.00766693381593,-0.0109732756391,0.999275326729
1505419082730985045,8776,1505419082730573714,world,0.374275147915,0.699560940266,0.155058786273,-0.0355729050934,0.00756787648425,-0.0106024947017,0.999282181263
1505419082730991254,8777,1505419082730594283,world,0.373799741268,0.699467182159,0.153662323952,-0.0366590879858,0.00752376206219,-0.0113260792568,0.999235332012
1505419082741107046,8778,1505419082740931688,world,0.373498529196,0.699116706848,0.151559859514,-0.0363310351968,0.00789879448712,-0.010809504427,0.999250113964
1505419082760568777,8779,1505419082760360866,world,0.373227924109,0.698863506317,0.149534240365,-0.036472029984,0.00759151671082,-0.0106934458017,0.999248623848
1505419082760572909,8780,1505419082760402636,world,0.37270078063,0.698615550995,0.147529959679,-0.0369774103165,0.00741850351915,-0.0108823971823,0.999229311943
1505419082771050588,8781,1505419082770795730,world,0.37246748805,0.698210597038,0.145342826843,-0.0365922600031,0.00763618759811,-0.0102877076715,0.999248147011
1505419082790646748,8782,1505419082790295801,world,0.372134178877,0.697979986668,0.143107563257,-0.0371612124145,0.0070943874307,-0.01053911075,0.999228537083
1505419082790655082,8783,1505419082790315837,world,0.371640771627,0.69771105051,0.140852987766,-0.0374314785004,0.00718450127169,-0.0105772288516,0.999217331409
1505419082800794086,8784,1505419082800618717,world,0.371341526508,0.697419941425,0.138606086373,-0.037545800209,0.00734790042043,-0.0102586559951,0.999215245247
1505419082811085078,8785,1505419082810842938,world,0.370944410563,0.69708019495,0.136047914624,-0.0380023345351,0.00706489104778,-0.0104007367045,0.999198555946
1505419082821172965,8786,1505419082821075621,world,0.370569944382,0.696760118008,0.133672103286,-0.038203664124,0.00726691493765,-0.0101497750729,0.999191999435
1505419082830540019,8787,1505419082830337869,world,0.370222061872,0.696433126926,0.131196945906,-0.0384696088731,0.00714255822822,-0.01010086108,0.999183177948
1505419082851306884,8788,1505419082850824274,world,0.36974170804,0.69618666172,0.128469571471,-0.0387568920851,0.00721623329446,-0.0104648154229,0.99916779995
1505419082851313604,8789,1505419082850981452,world,0.369346678257,0.695825994015,0.125866979361,-0.0384351499379,0.00716252438724,-0.0104427877814,0.999180912971
1505419082860405799,8790,1505419082860186460,world,0.368939101696,0.695479810238,0.122961491346,-0.0385225676,0.0068117431365,-0.0106347808614,0.999177873135
1505419082880944099,8791,1505419082880762224,world,0.368483483791,0.695267140865,0.120091795921,-0.0384931564331,0.00685075903311,-0.0106196170673,0.999178946018
1505419082881001610,8792,1505419082880786338,world,0.368118882179,0.694861650467,0.117484144866,-0.0385221876204,0.00678115943447,-0.0105734309182,0.999178767204
1505419082891247757,8793,1505419082891104295,world,0.367651104927,0.694532454014,0.114122860134,-0.038404263556,0.00677076447755,-0.0106524620205,0.999182522297
1505419082900628166,8794,1505419082900464748,world,0.367268621922,0.694175243378,0.111175194383,-0.0383401550353,0.00652318075299,-0.0104173906147,0.999189078808
1505419082910861354,8795,1505419082910723023,world,0.366826027632,0.693894267082,0.108268171549,-0.0381758399308,0.00627998868003,-0.010566169396,0.999195456505
1505419082921153094,8796,1505419082920998855,world,0.366390019655,0.693441808224,0.104520976543,-0.0370971411467,0.00631888862699,-0.0103234192356,0.999238371849
1505419082930545399,8797,1505419082930274735,world,0.365953564644,0.693134486675,0.101787231863,-0.0370568521321,0.00628489628434,-0.0103779025376,0.999239504337
1505419082940710659,8798,1505419082940566638,world,0.365502744913,0.692702412605,0.0980470478535,-0.0362351872027,0.00619523879141,-0.0100503899157,0.999273538589
1505419082951053437,8799,1505419082950847605,world,0.365101337433,0.692358374596,0.0946190431714,-0.0359419137239,0.00605684937909,-0.00994177162647,0.999286055565
1505419082960207381,8800,1505419082960127526,world,0.364652782679,0.692025482655,0.0916325300932,-0.0360081084073,0.00577487936243,-0.00998331513256,0.999284923077
1505419082970669785,8801,1505419082970388776,world,0.364226639271,0.691622316837,0.0874109789729,-0.0352418608963,0.00571365235373,-0.0096401264891,0.999315977097
1505419082980795641,8802,1505419082980666666,world,0.363754600286,0.691331148148,0.0844005197287,-0.0355374068022,0.00565685192123,-0.00986741203815,0.999303638935
1505419082991041930,8803,1505419082990894270,world,0.363281548023,0.691033244133,0.0807043164968,-0.0351106114686,0.00590760726482,-0.010038761422,0.999315559864
1505419083001300236,8804,1505419083001152349,world,0.362899780273,0.690596342087,0.0766219347715,-0.0345149673522,0.00618330482394,-0.00969241186976,0.999338030815
1505419083010583936,8805,1505419083010407463,world,0.362330019474,0.69036000967,0.0736300572753,-0.0349385030568,0.0060255699791,-0.0103027690202,0.999318242073
1505419083020830595,8806,1505419083020666761,world,0.361960351467,0.689947664738,0.0691094622016,-0.0337885469198,0.00573125155643,-0.009854641743,0.99936401844
1505419083031272122,8807,1505419083030921466,world,0.36142718792,0.689617753029,0.0654645264149,-0.0338157378137,0.00542515469715,-0.0101458979771,0.999361813068
1505419083040267455,8808,1505419083040110455,world,0.360977351665,0.689294934273,0.0618822984397,-0.0337202176452,0.00517975306138,-0.0101407459006,0.999366462231
1505419083050524867,8809,1505419083050372362,world,0.360570192337,0.688842654228,0.0570532083511,-0.0327667444944,0.00506931357086,-0.00986455474049,0.999401450157
1505419083060778110,8810,1505419083060608169,world,0.360050231218,0.68859732151,0.0540198013186,-0.0331565663218,0.00521303666756,-0.0101683093235,0.999384820461
1505419083071009981,8811,1505419083070857938,world,0.359629452229,0.688199102879,0.0495386198163,-0.0322029441595,0.00570664461702,-0.0098766842857,0.999416291714
1505419083080402581,8812,1505419083080253333,world,0.359160065651,0.687835991383,0.0452176481485,-0.031476650387,0.00575588876382,-0.0096745910123,0.999441087246
1505419083090709750,8813,1505419083090513088,world,0.358647853136,0.687464773655,0.0417036935687,-0.0311317034066,0.00520100118592,-0.00990120787174,0.999452769756
1505419083101024579,8814,1505419083100871935,world,0.358249217272,0.686958253384,0.0364885292947,-0.0293423067778,0.00488020619377,-0.00923920236528,0.999514818192
1505419083111368061,8815,1505419083111174767,world,0.35768648982,0.686694681644,0.0328817628324,-0.0296989176422,0.00447381939739,-0.00950343627483,0.999503672123
1505419083120620303,8816,1505419083120440138,world,0.357259452343,0.686346650124,0.0285589303821,-0.0293684154749,0.00449177622795,-0.00914497300982,0.99951672554
1505419083130969306,8817,1505419083130678733,world,0.356838077307,0.685864329338,0.0236785486341,-0.0288738012314,0.00479554617777,-0.00869039352983,0.999533712864
1505419083141064558,8818,1505419083140936625,world,0.356304109097,0.685713231564,0.0204325914383,-0.0301424730569,0.00484949629754,-0.00926323514432,0.999490857124
1505419083150424416,8819,1505419083150220833,world,0.355842977762,0.685301244259,0.0152722978964,-0.0289459899068,0.0050456780009,-0.00880768429488,0.999529421329
1505419083160652386,8820,1505419083160459552,world,0.355233550072,0.684974431992,0.0110129769892,-0.0292166750878,0.00451876781881,-0.00953749939799,0.999517440796
1505419083170985029,8821,1505419083170779058,world,0.35473972559,0.684612095356,0.00678975321352,-0.0289587341249,0.00414826674387,-0.00951639469713,0.99952673912
1505419083180216672,8822,1505419083180099690,world,0.354292422533,0.684104859829,0.00146005977876,-0.028342872858,0.00393738690764,-0.00912586413324,0.999548792839
1505419083191004544,8823,1505419083190336370,world,0.353672772646,0.683900535107,-0.00204867287539,-0.0290375351906,0.00410004612058,-0.00997374858707,0.99952018261
1505419083200754864,8824,1505419083200614704,world,0.353240996599,0.683439433575,-0.00709565915167,-0.0283591840416,0.00465486757457,-0.00965970382094,0.999540269375
1505419083211045367,8825,1505419083210868027,world,0.35270857811,0.683031260967,-0.0118197984993,-0.0284241456538,0.00443280814216,-0.00967463944107,0.999539315701
1505419083221206470,8826,1505419083221053730,world,0.352145165205,0.682672321796,-0.0159508045763,-0.0285912137479,0.00402914173901,-0.01025015302,0.999530434608
1505419083230538644,8827,1505419083230349982,world,0.351678580046,0.682228684425,-0.0214221403003,-0.0272879041731,0.00400395318866,-0.00982049386948,0.999571323395
1505419083240773191,8828,1505419083240583649,world,0.351117163897,0.681900501251,-0.0256455633789,-0.0279777143151,0.00327924429439,-0.0103587899357,0.999549508095
1505419083251057554,8829,1505419083250851438,world,0.350598841906,0.681573629379,-0.030471412465,-0.0278448089957,0.00316772889346,-0.0102417627349,0.999554812908
1505419083260243543,8830,1505419083260089145,world,0.350118309259,0.681141734123,-0.0356599092484,-0.0276207588613,0.00321401190013,-0.00993132218719,0.999563932419
1505419083270557555,8831,1505419083270393780,world,0.34951505065,0.680925726891,-0.0397820882499,-0.0289028082043,0.00317880697548,-0.0106172068045,0.999520719051
1505419083280895741,8832,1505419083280695742,world,0.349026858807,0.680602312088,-0.0450285002589,-0.0282772034407,0.00361707666889,-0.0102918716148,0.999540567398
1505419083291146790,8833,1505419083290960819,world,0.348454892635,0.680362164974,-0.0498408302665,-0.0286730751395,0.00314129656181,-0.0110116824508,0.999523282051
1505419083300324710,8834,1505419083300177674,world,0.34788030386,0.680147647858,-0.0545715242624,-0.0286088641733,0.00299618719146,-0.0113387368619,0.999521911144
1505419083310766586,8835,1505419083310392013,world,0.347369641066,0.679904401302,-0.059921875596,-0.0277523640543,0.00300823245198,-0.0110310399905,0.999549388885
1505419083320878846,8836,1505419083320710769,world,0.346763193607,0.67978066206,-0.0646351650357,-0.0279862824827,0.00254207034595,-0.011793686077,0.999535501003
1505419083331154995,8837,1505419083330969023,world,0.346318036318,0.679627597332,-0.069760248065,-0.0271046068519,0.00274685630575,-0.011602374725,0.999561488628
1505419083340383201,8838,1505419083340209592,world,0.345747858286,0.679403424263,-0.0750262290239,-0.0266388952732,0.0024702094961,-0.0114998687059,0.999575912952
1505419083350629885,8839,1505419083350483294,world,0.345201313496,0.679408192635,-0.0800150930882,-0.0270219054073,0.00204476271756,-0.012004904449,0.999560654163
1505419083361096203,8840,1505419083360936909,world,0.344738662243,0.679445028305,-0.0851239264011,-0.0264535211027,0.00243043806404,-0.0117555130273,0.999577999115
1505419083370477919,8841,1505419083370273855,world,0.344213783741,0.679434597492,-0.0902597904205,-0.0264565870166,0.00200534984469,-0.0121803805232,0.999573767185
1505419083380695890,8842,1505419083380548194,world,0.343653738499,0.679471552372,-0.0955443158746,-0.0265770684928,0.00163028319366,-0.0124561544508,0.999567806721
1505419083391027253,8843,1505419083390837868,world,0.343136101961,0.679549813271,-0.100856691599,-0.0262009333819,0.00176108349115,-0.0123669309542,0.999578654766
1505419083400232314,8844,1505419083400125259,world,0.342556387186,0.679760932922,-0.105925694108,-0.0265705641359,0.00113671738654,-0.0132143702358,0.999558925629
1505419083410662170,8845,1505419083410374298,world,0.342107772827,0.679938554764,-0.111308462918,-0.0263919308782,0.00101351144258,-0.0129936430603,0.999566674232
1505419083420846780,8846,1505419083420682333,world,0.341611921787,0.680171251297,-0.116553857923,-0.0266914889216,0.000816124433186,-0.0131139075384,0.999557375908
1505419083431122875,8847,1505419083430933674,world,0.341053843498,0.680531799793,-0.121847137809,-0.0271683894098,0.000423965480877,-0.0135789792985,0.99953854084
1505419083440311796,8848,1505419083440131827,world,0.34069365263,0.680768668652,-0.127314403653,-0.0268302075565,0.000848805590067,-0.0133840404451,0.999550044537
1505419083450533818,8849,1505419083450373405,world,0.340190500021,0.68119841814,-0.132499739528,-0.0276124272496,0.000529694079887,-0.0139466011897,0.999521315098
1505419083460684053,8850,1505419083460594853,world,0.339703857899,0.681671261787,-0.138037517667,-0.0279768258333,0.000369042681996,-0.0142882904038,0.999506354332
1505419083471156056,8851,1505419083470981889,world,0.33928129077,0.68215316534,-0.143462002277,-0.0279963035136,0.000515130173881,-0.0141529077664,0.999507665634
1505419083480436367,8852,1505419083480261680,world,0.338825881481,0.68270355463,-0.14878192544,-0.0285896640271,6.74239927321e-05,-0.0147051662207,0.999483048916
1505419083490663739,8853,1505419083490514473,world,0.338430613279,0.683161795139,-0.154518038034,-0.0285478234291,-0.00016237689124,-0.0145033178851,0.999487161636
1505419083501092997,8854,1505419083500905372,world,0.337999671698,0.683692634106,-0.160125568509,-0.0286825820804,-0.000636152806692,-0.0144688496366,0.999483644962
1505419083510199584,8855,1505419083510108630,world,0.337536752224,0.684305250645,-0.165534898639,-0.0291308201849,-0.0011869877344,-0.0149156246334,0.999463617802
1505419083520564589,8856,1505419083520405877,world,0.337256968021,0.684889376163,-0.171372562647,-0.0287343859673,-0.000999041483738,-0.0144213894382,0.999482572079
1505419083530830085,8857,1505419083530689572,world,0.336862206459,0.685592412949,-0.176936507225,-0.0289008580148,-0.00132425071206,-0.0147241316736,0.999472916126
1505419083541153160,8858,1505419083540929810,world,0.336504012346,0.686316311359,-0.182526305318,-0.028975892812,-0.00165203830693,-0.0148206008598,0.99946886301
1505419083550247910,8859,1505419083550129616,world,0.336122751236,0.687054812908,-0.188570529222,-0.0286198966205,-0.00135683268309,-0.014758862555,0.999480545521
1505419083560532514,8860,1505419083560423317,world,0.33577349782,0.687941670418,-0.193953305483,-0.0290700122714,-0.00175499264151,-0.0154555598274,0.99945640564
1505419083570987073,8861,1505419083570878870,world,0.335483074188,0.688741028309,-0.199937269092,-0.0287707187235,-0.00185907573905,-0.0154514638707,0.999464869499
1505419083580472002,8862,1505419083580282185,world,0.335173755884,0.689541339874,-0.206024110317,-0.0288511607796,-0.00235381396487,-0.0152755472809,0.999464213848
1505419083590886344,8863,1505419083590510999,world,0.33483543992,0.690575063229,-0.211401507258,-0.0296158306301,-0.00288689602166,-0.0157204270363,0.999433577061
