%time,field.header.seq,field.header.stamp,field.header.frame_id,field.pose.position.x,field.pose.position.y,field.pose.position.z,field.pose.orientation.x,field.pose.orientation.y,field.pose.orientation.z,field.pose.orientation.w
1505419079910472889,0,1505419079910260209,world,0.849366366863,0.0351529866457,-0.27652785182,0.0162254814059,-0.71052390337,0.133670479059,0.690669715405
1505419079920711496,1,1505419079920550762,world,0.849052190781,0.0342776961625,-0.276553660631,0.0161402691156,-0.710820674896,0.13359798491,0.690380454063
1505419079931168499,2,1505419079930820903,world,0.84853887558,0.0336237475276,-0.276426553726,0.0159744545817,-0.71113461256,0.131725773215,0.690420687199
1505419079941256890,3,1505419079941107814,world,0.848322749138,0.033135637641,-0.27638566494,0.0153440004215,-0.711081802845,0.13022685051,0.6907736063
1505419079951124446,4,1505419079950896188,world,0.847899794579,0.0326126776636,-0.276285588741,0.0144035508856,-0.711331963539,0.129279047251,0.690714418888
1505419079960354378,5,1505419079960071467,world,0.847405254841,0.0323049463332,-0.276284188032,0.0126467617229,-0.711491644382,0.128077283502,0.690808176994
1505419079970591054,6,1505419079970360830,world,0.847271084785,0.03190696612,-0.276302188635,0.0111702429131,-0.711506605148,0.129287809134,0.690592765808
1505419079980807906,7,1505419079980639937,world,0.847010910511,0.0312721803784,-0.276493728161,0.0101314494386,-0.711492836475,0.129309684038,0.690618813038
1505419079991103186,8,1505419079990894029,world,0.84677696228,0.0308094844222,-0.276422262192,0.00883442163467,-0.711758136749,0.128730282187,0.690471410751
1505419080000267492,9,1505419080000101084,world,0.846602857113,0.0301760341972,-0.276438772678,0.0077345254831,-0.711886942387,0.127357959747,0.690606415272
1505419080010956168,10,1505419080010417896,world,0.846324026585,0.0295931212604,-0.276322513819,0.00677747372538,-0.711970806122,0.126099526882,0.690760791302
1505419080021110714,11,1505419080020814358,world,0.846600532532,0.0288177356124,-0.276263803244,0.00616881623864,-0.712189972401,0.125137716532,0.690715491772
1505419080030581747,12,1505419080030262464,world,0.846852123737,0.0282232966274,-0.276188850403,0.00530012650415,-0.712161362171,0.12440302223,0.690884888172
1505419080040748608,13,1505419080040514875,world,0.847104012966,0.0273979306221,-0.276081115007,0.00447142543271,-0.712267518044,0.122758939862,0.691075325012
1505419080051088064,14,1505419080050833854,world,0.84740704298,0.0266344249249,-0.275970906019,0.00324548524804,-0.712400496006,0.121621139348,0.691146373749
1505419080060291014,15,1505419080060097718,world,0.847461283207,0.0257839690894,-0.275811314583,0.0027470397763,-0.712504863739,0.119381345809,0.69143140316
1505419080070803940,16,1505419080070378958,world,0.847968399525,0.0249878261238,-0.275829672813,0.00178561045323,-0.712694585323,0.118838585913,0.691332578659
1505419080081083207,17,1505419080080930202,world,0.848240494728,0.024438649416,-0.275846898556,0.00042096717516,-0.712674617767,0.117728546262,0.691545188427
1505419080090781349,18,1505419080090505965,world,0.848541796207,0.0236691571772,-0.275876909494,-0.000927166838665,-0.712614297867,0.116477787495,0.691818594933
1505419080100964483,19,1505419080100712114,world,0.848718225956,0.0227943994105,-0.275900244713,-0.00236593489535,-0.712672173977,0.11509142071,0.691987454891
1505419080111234462,20,1505419080110981425,world,0.848979651928,0.0216110944748,-0.275786340237,-0.00311788823456,-0.712608098984,0.114604614675,0.692131280899
1505419080120667552,21,1505419080120330887,world,0.849411427975,0.0206727590412,-0.275905132294,-0.00397220579907,-0.712587356567,0.112388640642,0.692511498928
1505419080130891931,22,1505419080130595400,world,0.849676847458,0.0198011621833,-0.275962918997,-0.00439910171553,-0.712015986443,0.111348681152,0.693264245987
1505419080141158745,23,1505419080140964120,world,0.849613070488,0.0189114306122,-0.276010930538,-0.00308185373433,-0.712119936943,0.109568864107,0.693448066711
1505419080150429900,24,1505419080150232940,world,0.849648416042,0.0186525192112,-0.275921314955,-0.0042493310757,-0.711908698082,0.10726839304,0.694018363953
1505419080160645617,25,1505419080160435441,world,0.849657714367,0.0179510563612,-0.27603828907,-0.00353833055124,-0.711788833141,0.105428420007,0.694427073002
1505419080171028540,26,1505419080170699205,world,0.849897861481,0.0175448860973,-0.276299744844,-0.00402947841212,-0.711626827717,0.103508152068,0.694879233837
1505419080181112649,27,1505419080180941057,world,0.849919319153,0.0169593952596,-0.27643814683,-0.00546720996499,-0.711134493351,0.10278250277,0.695480763912
1505419080190561999,28,1505419080190312119,world,0.850234866142,0.0162617135793,-0.276598960161,-0.0060584358871,-0.710789203644,0.102390363812,0.695886671543
1505419080200795386,29,1505419080200605995,world,0.850676417351,0.0152897192165,-0.276771605015,-0.00762758404016,-0.710373103619,0.101647436619,0.696404755116
1505419080211139444,30,1505419080210831760,world,0.851076364517,0.0143350604922,-0.276870906353,-0.00852799229324,-0.710039675236,0.0993450209498,0.697066307068
1505419080221257170,31,1505419080221066424,world,0.851079940796,0.0137300128117,-0.27694657445,-0.00911997444928,-0.70963460207,0.0971437767148,0.697781264782
1505419080231056891,32,1505419080230324770,world,0.851334154606,0.0130854779854,-0.276967018843,-0.00929849594831,-0.709514379501,0.0953449234366,0.69814914465
1505419080240797022,33,1505419080240598958,world,0.851336598396,0.0124789942056,-0.277044981718,-0.00970997940749,-0.709199666977,0.0931097045541,0.698764741421
1505419080251118423,34,1505419080250863410,world,0.850729346275,0.0115490909666,-0.27702999115,-0.00966539978981,-0.707555532455,0.0884442552924,0.701034367085
1505419080260270178,35,1505419080260069562,world,0.849146783352,0.0103528145701,-0.277131646872,-0.00532385334373,-0.706570625305,0.0829545930028,0.702743291855
1505419080270659142,36,1505419080270368746,world,0.846819102764,0.00999411940575,-0.277114629745,4.68093003292e-06,-0.706420719624,0.073945209384,0.703918874264
1505419080280946648,37,1505419080280624842,world,0.844377398491,0.00931723136455,-0.276649028063,0.00702673243359,-0.706686079502,0.0654235854745,0.704460918903
1505419080291368103,38,1505419080291005583,world,0.84148812294,0.00936590693891,-0.275852769613,0.0142210004851,-0.706156611443,0.0545559078455,0.705807447433
1505419080300542926,39,1505419080300270263,world,0.837548077106,0.00952188950032,-0.275129467249,0.0265818592161,-0.704937040806,0.0429759658873,0.707467556
1505419080310911273,40,1505419080310542643,world,0.833323836327,0.0101049672812,-0.274779707193,0.0357513204217,-0.703126788139,0.0279196389019,0.70961612463
1505419080321342407,41,1505419080320897106,world,0.829215049744,0.00959108769894,-0.273896753788,0.0463634692132,-0.701859712601,0.0134553555399,0.710677444935
1505419080330325515,42,1505419080330091855,world,0.824614107609,0.00906112790108,-0.273154824972,0.0583719462156,-0.700207591057,-0.00200998806395,0.711546182632
1505419080340588356,43,1505419080340331127,world,0.81971937418,0.00861241482198,-0.272625088692,0.0704673454165,-0.698405206203,-0.0177539344877,0.712003707886
1505419080350850476,44,1505419080350616700,world,0.81456387043,0.00883312057704,-0.271835833788,0.082663975656,-0.695576667786,-0.0332944765687,0.712903380394
1505419080361269986,45,1505419080361074034,world,0.809608578682,0.00918912421912,-0.270874887705,0.0899977982044,-0.693269908428,-0.0489628016949,0.713358044624
1505419080370638676,46,1505419080370370371,world,0.804874718189,0.0092266490683,-0.2701356709,0.092262737453,-0.691885530949,-0.0577807873487,0.713753044605
1505419080380757581,47,1505419080380622118,world,0.800247728825,0.00977852009237,-0.269916981459,0.0899340733886,-0.691515088081,-0.0572266280651,0.714453518391
1505419080391038010,48,1505419080390882608,world,0.79555362463,0.00980539433658,-0.270336657763,0.0844538584352,-0.692342460155,-0.0478142090142,0.715012729168
1505419080400417159,49,1505419080400121059,world,0.790838599205,0.00897370744497,-0.271134287119,0.0770798176527,-0.693635165691,-0.0369048081338,0.715239107609
1505419080410575566,50,1505419080410352122,world,0.785500764847,0.00778599549085,-0.272253811359,0.0703202039003,-0.695262432098,-0.0246241968125,0.714883804321
1505419080421189027,51,1505419080420591311,world,0.779415786266,0.0060108024627,-0.272879987955,0.0609593950212,-0.696301102638,-0.0154060591012,0.714990437031
1505419080431124630,52,1505419080430885401,world,0.773229241371,0.0050070527941,-0.273519337177,0.0535587221384,-0.696875691414,-0.00932233594358,0.715128540993
1505419080441234167,53,1505419080441086328,world,0.76709407568,0.00441487319767,-0.274046242237,0.0464126169682,-0.697310388088,-0.00472342595458,0.715249478817
1505419080450537307,54,1505419080450303441,world,0.760704398155,0.00427646609023,-0.274805784225,0.0422620773315,-0.697776257992,-0.000362262886483,0.71506780386
1505419080460721151,55,1505419080460549809,world,0.754354119301,0.00437570782378,-0.275305479765,0.0397094115615,-0.698162376881,0.00390248559415,0.714826703072
1505419080471099722,56,1505419080470831250,world,0.747895181179,0.00503595964983,-0.27570438385,0.0380453765392,-0.699334800243,0.0075280610472,0.713741362095
1505419080481290240,57,1505419080481106321,world,0.741306841373,0.00533892540261,-0.276161551476,0.0370052307844,-0.700145184994,0.00836053490639,0.712991893291
1505419080490507780,58,1505419080490317765,world,0.735024273396,0.00534271076322,-0.276629447937,0.0359434336424,-0.700740396976,0.00857857242227,0.712458610535
1505419080500855474,59,1505419080500591359,world,0.72864562273,0.00485466513783,-0.277021825314,0.0352837070823,-0.701960682869,0.00873715337366,0.711287498474
1505419080511143147,60,1505419080510952264,world,0.72285091877,0.0043369634077,-0.277299076319,0.0356034301221,-0.70282626152,0.00895000994205,0.710413634777
1505419080520585377,61,1505419080520296416,world,0.717486739159,0.00431897118688,-0.277406215668,0.0354194752872,-0.703713655472,0.00827765744179,0.709552049637
1505419080530949904,62,1505419080530685828,world,0.71284031868,0.00438800035045,-0.277686864138,0.035978090018,-0.70426517725,0.00827650539577,0.708976447582
1505419080541194056,63,1505419080540985567,world,0.708671808243,0.00463148811832,-0.277668297291,0.0360304489732,-0.704972863197,0.0080781141296,0.708272457123
1505419080550474385,64,1505419080550276324,world,0.704714000225,0.00497156521305,-0.277785897255,0.0377259775996,-0.705486536026,0.00877207145095,0.707664191723
1505419080560717214,65,1505419080560502474,world,0.701453030109,0.00515767233446,-0.277826249599,0.038446187973,-0.705883681774,0.00786743778735,0.707239985466
1505419080570973674,66,1505419080570741043,world,0.698643147945,0.00532563915476,-0.277753949165,0.0390844531357,-0.706066668034,0.00713835284114,0.707029938698
1505419080581151547,67,1505419080581030640,world,0.696662962437,0.00500945653766,-0.277657985687,0.0399104654789,-0.706639707088,0.00610731448978,0.706420660019
1505419080590551588,68,1505419080590338754,world,0.694972813129,0.00511619029567,-0.277433216572,0.0417852476239,-0.706911504269,0.00377834541723,0.706056535244
1505419080600879469,69,1505419080600642137,world,0.694100081921,0.00527928350493,-0.27720618248,0.0437310785055,-0.706978797913,0.00184284348506,0.705878913403
1505419080611145504,70,1505419080610914392,world,0.694141924381,0.00521425018087,-0.276809632778,0.0469365790486,-0.706550598145,-0.00181779672857,0.706101894379
1505419080620376680,71,1505419080620149002,world,0.69452726841,0.00572271179408,-0.276380300522,0.0502611510456,-0.706318795681,-0.00467771897092,0.706091761589
1505419080631010645,72,1505419080630430454,world,0.695005953312,0.00616416567937,-0.27584451437,0.0539703294635,-0.706112504005,-0.00759502314031,0.705999016762
1505419080640865425,73,1505419080640653051,world,0.695504724979,0.00650309491903,-0.27530169487,0.0581765398383,-0.706045866013,-0.0113044744357,0.705681800842
1505419080651193493,74,1505419080650947312,world,0.696105837822,0.00665059685707,-0.27481096983,0.062775798142,-0.705621004105,-0.0160111095756,0.705621600151
1505419080660300066,75,1505419080660134205,world,0.69653570652,0.00690576154739,-0.274238824844,0.0678010135889,-0.705062448978,-0.0217262860388,0.70556217432
1505419080670649443,76,1505419080670379081,world,0.697046518326,0.0073912278749,-0.273562550545,0.0734364315867,-0.704605877399,-0.0271939113736,0.705264568329
1505419080680801928,77,1505419080680611746,world,0.697403132915,0.00809720531106,-0.273014605045,0.0775835514069,-0.704172849655,-0.0333917327225,0.70498675108
1505419080691106499,78,1505419080690859484,world,0.697861850262,0.00834563933313,-0.272574514151,0.0809956789017,-0.704196929932,-0.0375720709562,0.704368293285
1505419080701230258,79,1505419080701065745,world,0.698364257812,0.00829584337771,-0.272188067436,0.0823451280594,-0.70468211174,-0.0395477637649,0.703618109226
1505419080710606120,80,1505419080710340897,world,0.698958814144,0.00854278635234,-0.272047787905,0.0816840529442,-0.705381333828,-0.0377527587116,0.703092932701
1505419080720806984,81,1505419080720624187,world,0.699619352818,0.00861958879977,-0.272108763456,0.079854093492,-0.705821633339,-0.0342973358929,0.703038334846
1505419080731243887,82,1505419080731002427,world,0.700203835964,0.00820956658572,-0.272280454636,0.0760241374373,-0.706306219101,-0.0313925109804,0.703111886978
1505419080740417823,83,1505419080740236243,world,0.701371014118,0.00787733867764,-0.272241652012,0.0737570300698,-0.707033038139,-0.0273341145366,0.702792286873
1505419080750755212,84,1505419080750465886,world,0.702589154243,0.00762404780835,-0.272188812494,0.0719349831343,-0.70764786005,-0.0243552159518,0.702471852303
1505419080761138631,85,1505419080760925774,world,0.703564584255,0.00770223559812,-0.272179603577,0.071209333837,-0.707925915718,-0.0233981497586,0.702298104763
1505419080770344658,86,1505419080770090914,world,0.704498589039,0.00772523973137,-0.272201567888,0.0712717324495,-0.707976520061,-0.023463530466,0.702238559723
1505419080780611241,87,1505419080780362699,world,0.705559790134,0.00788702629507,-0.272043049335,0.0717573612928,-0.708314836025,-0.0241991374642,0.70182287693
1505419080790762287,88,1505419080790628608,world,0.706848025322,0.00769423320889,-0.271845638752,0.0712211802602,-0.708407282829,-0.026320906356,0.70170789957
1505419080801033546,89,1505419080800840859,world,0.707739830017,0.00766672287136,-0.271789133549,0.0728380307555,-0.708261609077,-0.028018495068,0.701623260975
1505419080811385456,90,1505419080811140107,world,0.708517253399,0.00768246641383,-0.271647632122,0.0741100981832,-0.708040952682,-0.0302683766931,0.701619148254
1505419080820642331,91,1505419080820418887,world,0.709476649761,0.00759304407984,-0.271452605724,0.0751486867666,-0.708044826984,-0.031170764938,0.701465368271
1505419080830861266,92,1505419080830674932,world,0.710170269012,0.00744585692883,-0.271255075932,0.0756684616208,-0.708180069923,-0.0313207134604,0.701266169548
1505419080841276011,93,1505419080841015712,world,0.710581600666,0.00732303317636,-0.271299511194,0.075495198369,-0.708270967007,-0.0314238555729,0.701188504696
1505419080850462146,94,1505419080850218457,world,0.710961163044,0.00712409522384,-0.271278887987,0.0752288177609,-0.708538472652,-0.0311478655785,0.700959086418
1505419080860694752,95,1505419080860499968,world,0.711196243763,0.00678178761154,-0.271197289228,0.0742754340172,-0.708792924881,-0.0312118306756,0.700800597668
1505419080871050918,96,1505419080870816742,world,0.711289346218,0.00650213379413,-0.271126419306,0.0736921802163,-0.709047436714,-0.031260009855,0.700602591038
1505419080880263700,97,1505419080880071982,world,0.710789442062,0.00636752368882,-0.271113187075,0.0734400972724,-0.708963513374,-0.0311158318073,0.70072042942
1505419080890519122,98,1505419080890316907,world,0.710873603821,0.00641967914999,-0.270893365145,0.0735556483269,-0.709216713905,-0.0308694206178,0.700462937355
1505419080900769661,99,1505419080900549549,world,0.710838198662,0.00664222612977,-0.270684868097,0.0739729329944,-0.709519922733,-0.0306764319539,0.700120329857
1505419080911005978,100,1505419080910789971,world,0.710904538631,0.00684451591223,-0.270558059216,0.0745145380497,-0.710009396076,-0.0302087273449,0.699586808681
1505419080920292931,101,1505419080920113294,world,0.71075117588,0.00705050583929,-0.270471513271,0.0743570402265,-0.710225343704,-0.0305412914604,0.699369847775
1505419080930954194,102,1505419080930381654,world,0.710917115211,0.00682690087706,-0.270061224699,0.0735041946173,-0.710555553436,-0.0318712852895,0.69906526804
1505419080940811119,103,1505419080940641168,world,0.711120307446,0.00561093306169,-0.269902586937,0.0717181637883,-0.711032509804,-0.0329713821411,0.69871455431
1505419080951059585,104,1505419080950865653,world,0.711569905281,0.00421225372702,-0.269772976637,0.0691519528627,-0.711904346943,-0.0333390794694,0.698067784309
1505419080961232447,105,1505419080961070250,world,0.711676001549,0.00299759907648,-0.269726276398,0.0663489848375,-0.712330937386,-0.0336237698793,0.697891056538
1505419080970630254,106,1505419080970336117,world,0.712092578411,0.00166070845444,-0.269641876221,0.0627701580524,-0.712973535061,-0.0345932990313,0.697518467903
1505419080980808956,107,1505419080980607216,world,0.712291836739,2.60790729953e-05,-0.269722044468,0.0587107278407,-0.714111924171,-0.035283934325,0.696672260761
1505419080991003234,108,1505419080990865592,world,0.71277487278,-0.00186018343084,-0.269583672285,0.054714281112,-0.714369177818,-0.0371278300881,0.696637988091
1505419081000494332,109,1505419081000293319,world,0.713137865067,-0.004029056523,-0.26964327693,0.0499827712774,-0.715003311634,-0.0395573824644,0.696209073067
1505419081010785302,110,1505419081010539743,world,0.713769078255,-0.00663745868951,-0.269659847021,0.0449640266597,-0.716086149216,-0.0418456457555,0.695304095745
1505419081021022963,111,1505419081020832203,world,0.714174628258,-0.00923092104495,-0.269552230835,0.0392842814326,-0.716456890106,-0.0438349023461,0.695143699646
1505419081031385503,112,1505419081031138410,world,0.714847922325,-0.0116456914693,-0.269459486008,0.032661087811,-0.717092454433,-0.0463279224932,0.694669306278
1505419081040651087,113,1505419081040425760,world,0.715433180332,-0.0136040234938,-0.269980281591,0.0237247589976,-0.717744648457,-0.0444547906518,0.694480836391
1505419081050920792,114,1505419081050689635,world,0.71592271328,-0.0116015337408,-0.270657062531,0.0158046949655,-0.718710660934,-0.0483383610845,0.693446934223
1505419081061080387,115,1505419081060941703,world,0.716430366039,-0.00623803585768,-0.270466178656,0.00837590172887,-0.719310760498,-0.0567471720278,0.692316055298
1505419081070351109,116,1505419081070146284,world,0.716081678867,-0.00217332155444,-0.270085990429,0.0158584564924,-0.718103528023,-0.051667753607,0.693834483624
1505419081080656477,117,1505419081080428904,world,0.716519474983,0.00118136836682,-0.270170509815,0.0228031724691,-0.718315303326,-0.0446606390178,0.693908214569
1505419081090932846,118,1505419081090673863,world,0.717062711716,0.00168886093888,-0.270170778036,0.014152565971,-0.719424903393,-0.0506809614599,0.692574203014
1505419081101083917,119,1505419081100935482,world,0.71672809124,0.00240572262555,-0.269672065973,0.0130702694878,-0.71826428175,-0.0474627353251,0.694026529789
1505419081110347931,120,1505419081110084510,world,0.717326581478,0.00291985622607,-0.269499123096,0.0210764240474,-0.718271315098,-0.0439075529575,0.694056391716
1505419081120594183,121,1505419081120353048,world,0.717637360096,0.00208011828363,-0.269858837128,0.021805645898,-0.720024347305,-0.0427955538034,0.692284584045
1505419081131012857,122,1505419081130627202,world,0.717864871025,0.000154269961058,-0.269929945469,0.0188784766942,-0.719239354134,-0.0445934683084,0.693072676659
1505419081141110122,123,1505419081140909095,world,0.717968642712,-0.00243832822889,-0.269444137812,0.0198027919978,-0.718688130379,-0.0443918444216,0.693631529808
1505419081150676614,124,1505419081150137274,world,0.718499898911,-0.00525540206581,-0.269410759211,0.0214812066406,-0.719755470753,-0.042048599571,0.692620038986
1505419081160603211,125,1505419081160410718,world,0.718950510025,-0.00941583421081,-0.269652396441,0.0204987935722,-0.719575881958,-0.0404554307461,0.692931234837
1505419081170896995,126,1505419081170680052,world,0.718984365463,-0.0137411421165,-0.270124077797,0.0180724095553,-0.719378888607,-0.0358598344028,0.693456232548
1505419081181074240,127,1505419081180902589,world,0.718842387199,-0.0144054144621,-0.270504653454,0.0141199100763,-0.720649123192,-0.0341724045575,0.692313313484
1505419081190383474,128,1505419081190053886,world,0.719162523746,-0.0106429019943,-0.270499616861,0.0137611497194,-0.720704615116,-0.0374997258186,0.692090392113
1505419081200628843,129,1505419081200412985,world,0.719966828823,-0.00767342885956,-0.270324736834,0.0121363168582,-0.720483243465,-0.0397286564112,0.692227005959
1505419081210934660,130,1505419081210688550,world,0.72036588192,-0.00535461166874,-0.270285487175,0.00742909219116,-0.721205711365,-0.0426540859044,0.691366553307
1505419081221189287,131,1505419081221001131,world,0.720511615276,-0.00388810480945,-0.269982457161,0.00185279338621,-0.721279323101,-0.0476884096861,0.690998256207
1505419081230434249,132,1505419081230226982,world,0.719983160496,-0.00377341313288,-0.269705146551,0.00272397371009,-0.720383107662,-0.0447161905468,0.692128121853
1505419081240780161,133,1505419081240573263,world,0.719997286797,-0.00497842486948,-0.270024359226,0.00731676490977,-0.720337569714,-0.0362884216011,0.692635059357
1505419081251047761,134,1505419081250855511,world,0.719866275787,-0.00811372604221,-0.270572304726,0.00251519470476,-0.720902204514,-0.0328981392086,0.692250907421
1505419081260338022,135,1505419081260096140,world,0.719412386417,-0.0110318483785,-0.270492762327,-0.00387301645242,-0.720610618591,-0.0282340571284,0.692754030228
1505419081281152867,136,1505419081280632263,world,0.719232320786,-0.0122083751485,-0.270396441221,-0.00584297953174,-0.719781398773,-0.0197041165084,0.693896472454
1505419081281159390,137,1505419081280670739,world,0.719557404518,-0.0106542492285,-0.270727932453,-0.0111333876848,-0.719899177551,-0.0180345103145,0.693755090237
1505419081291187606,138,1505419081291011245,world,0.719833850861,-0.00900352094322,-0.271495640278,-0.0148270186037,-0.720540702343,-0.0142851537094,0.693106949329
1505419081310960123,139,1505419081310484973,world,0.719898700714,-0.00748005695641,-0.272269487381,-0.0188441704959,-0.720752954483,-0.0121188526973,0.692829787731
1505419081310971561,140,1505419081310519615,world,0.719814896584,-0.00707421405241,-0.273027420044,-0.0236047618091,-0.720499277115,-0.00959552265704,0.692987382412
1505419081321009357,141,1505419081320793556,world,0.719477891922,-0.00735538220033,-0.273982822895,-0.0273530166596,-0.720494449139,-0.00563831022009,0.692898094654
1505419081340627932,142,1505419081340277946,world,0.719644606113,-0.00858603976667,-0.274745464325,-0.0295419991016,-0.720955550671,0.000813909748103,0.692350804806
1505419081340634634,143,1505419081340314053,world,0.719637036324,-0.0100459922105,-0.275289684534,-0.0341068133712,-0.720892548561,0.00655182171613,0.692175984383
1505419081351272974,144,1505419081350537640,world,0.719594657421,-0.0113862771541,-0.275610923767,-0.0381997413933,-0.72086161375,0.0128520019352,0.691906273365
1505419081371019941,145,1505419081370224176,world,0.719693124294,-0.0115696853027,-0.275584101677,-0.0430448390543,-0.720108509064,0.0186005290598,0.692275166512
1505419081371024013,146,1505419081370261758,world,0.71972233057,-0.0110964654014,-0.275896757841,-0.0472928769886,-0.719900488853,0.0227448958904,0.692090511322
1505419081380852647,147,1505419081380537846,world,0.71998488903,-0.0107449712232,-0.276470154524,-0.0518445782363,-0.719769239426,0.0274461694062,0.691730499268
1505419081401273331,148,1505419081401002956,world,0.71982383728,-0.0105199692771,-0.277195811272,-0.0557362511754,-0.71969640255,0.0309685915709,0.691354811192
1505419081401280663,149,1505419081401039731,world,0.719796836376,-0.0104056755081,-0.277711838484,-0.0590264983475,-0.719622313976,0.0341713093221,0.691007971764
1505419081410792601,150,1505419081410323168,world,0.719630897045,-0.0106722777709,-0.2782510221,-0.0611257441342,-0.71939021349,0.0381399355829,0.690859377384
1505419081431252963,151,1505419081430797326,world,0.719562709332,-0.0107155153528,-0.278457045555,-0.0620224103332,-0.719230175018,0.040742110461,0.690797507763
1505419081431257196,152,1505419081430830873,world,0.71954113245,-0.0107892751694,-0.278482586145,-0.0625530704856,-0.719230949879,0.0417130291462,0.690690934658
1505419081441194475,153,1505419081441007699,world,0.719684183598,-0.0108004519716,-0.278250306845,-0.0615807883441,-0.719374537468,0.0399242788553,0.690734386444
1505419081460806723,154,1505419081460484878,world,0.719683587551,-0.0108779734001,-0.278017252684,-0.0599365122616,-0.719379127026,0.037445794791,0.691013038158
1505419081460836339,155,1505419081460530767,world,0.719728171825,-0.01114915777,-0.27759885788,-0.0582966022193,-0.719369411469,0.0341377407312,0.691334664822
1505419081471264445,156,1505419081470973992,world,0.719805121422,-0.0116269979626,-0.277301341295,-0.0566149875522,-0.719461917877,0.033384129405,0.691415131092
1505419081491040024,157,1505419081490481897,world,0.719774365425,-0.011650309898,-0.276996016502,-0.0552532337606,-0.719563961029,0.0324381776154,0.691463947296
1505419081491044688,158,1505419081490514281,world,0.719888567924,-0.0115821044892,-0.276872813702,-0.0543616600335,-0.719464719296,0.0314169488847,0.691685080528
1505419081501187463,159,1505419081501021933,world,0.71985822916,-0.011250554584,-0.27683621645,-0.0538186840713,-0.719560205936,0.0299347769469,0.691694021225
1505419081520811347,160,1505419081520524071,world,0.719978153706,-0.0110370600596,-0.276805788279,-0.0532866604626,-0.719809770584,0.0294261891395,0.691497385502
1505419081520832508,161,1505419081520562569,world,0.720003187656,-0.0110067976639,-0.276900708675,-0.0525989606977,-0.720032036304,0.0288236066699,0.691343903542
1505419081531184898,162,1505419081530926886,world,0.719900012016,-0.0110605889931,-0.276910841465,-0.0522481575608,-0.720501184464,0.0284865498543,0.690895617008
1505419081550684699,163,1505419081550446805,world,0.719889760017,-0.0110901044682,-0.277060925961,-0.0523992478848,-0.721110761166,0.027787219733,0.690276265144
1505419081550688777,164,1505419081550486329,world,0.71995973587,-0.0113007491454,-0.277322649956,-0.052689768374,-0.721532523632,0.0290467571467,0.689761400223
1505419081560885940,165,1505419081560736863,world,0.71996819973,-0.0112143019214,-0.277692437172,-0.0535502023995,-0.721821725368,0.0295705515891,0.689370274544
1505419081571250656,166,1505419081571001426,world,0.719962775707,-0.0111485375091,-0.278131127357,-0.0552872493863,-0.721890389919,0.0317109897733,0.689065992832
1505419081580488071,167,1505419081580287006,world,0.719951152802,-0.010896991007,-0.278505563736,-0.0576581247151,-0.722042322159,0.0329805910587,0.688652813435
1505419081590987049,168,1505419081590575103,world,0.719957470894,-0.0108789140359,-0.278936773539,-0.0601819418371,-0.722280263901,0.0353902094066,0.688067615032
1505419081611411367,169,1505419081611081888,world,0.720065176487,-0.0110177062452,-0.279345571995,-0.0614943131804,-0.722542583942,0.0384472869337,0.687511861324
1505419081611438793,170,1505419081611122330,world,0.719948709011,-0.0108724348247,-0.279722034931,-0.0620077252388,-0.723245680332,0.0393020249903,0.686677515507
1505419081620718795,171,1505419081620535643,world,0.719911873341,-0.0108813708648,-0.280227810144,-0.0623392835259,-0.724096477032,0.038808375597,0.68577849865
1505419081631096434,172,1505419081630815373,world,0.719978272915,-0.0108216702938,-0.280522376299,-0.0619047395885,-0.725231707096,0.038311585784,0.684645175934
1505419081641309592,173,1505419081641101010,world,0.719934165478,-0.0108096702024,-0.280788809061,-0.0612074062228,-0.725859582424,0.0372141674161,0.684102833271
1505419081650897224,174,1505419081650350479,world,0.719899654388,-0.0109393345192,-0.280969977379,-0.0602847710252,-0.726293802261,0.0359011441469,0.683794081211
1505419081671220440,175,1505419081670846536,world,0.719866156578,-0.0109962001443,-0.28087118268,-0.0593968965113,-0.726648211479,0.0352815464139,0.683527290821
1505419081671236118,176,1505419081670931973,world,0.719889998436,-0.0111541301012,-0.280812382698,-0.059288084507,-0.7268460989,0.0350801199675,0.683336675167
1505419081680505110,177,1505419081680287652,world,0.719838023186,-0.0112307872623,-0.280816018581,-0.0593726858497,-0.726847529411,0.0352028906345,0.683321475983
1505419081701073714,178,1505419081700726181,world,0.719831347466,-0.0111864376813,-0.280833512545,-0.0591391287744,-0.726863980293,0.0351836681366,0.683325231075
1505419081701085225,179,1505419081700759809,world,0.719799160957,-0.0111668724567,-0.280959039927,-0.0591544620693,-0.726783037186,0.0350828096271,0.683415174484
1505419081711301046,180,1505419081711043331,world,0.719791471958,-0.0111237484962,-0.280963778496,-0.0593332909048,-0.726754367352,0.0352564789355,0.683421254158
1505419081731043119,181,1505419081730570791,world,0.719798922539,-0.0110883200541,-0.280987143517,-0.0595364943147,-0.72677141428,0.0354950502515,0.68337315321
1505419081731049302,182,1505419081730606585,world,0.719825863838,-0.0111136510968,-0.281055629253,-0.0600259006023,-0.726793885231,0.0357200615108,0.683294713497
1505419081741088455,183,1505419081740899803,world,0.719737410545,-0.0110585074872,-0.281066507101,-0.060210224241,-0.726673007011,0.0361365973949,0.683385193348
1505419081760551578,184,1505419081760324729,world,0.719754934311,-0.0109917493537,-0.281098902225,-0.0605843514204,-0.726589262486,0.0364643521607,0.683423817158
1505419081760555386,185,1505419081760376490,world,0.719735264778,-0.0109781650826,-0.281028866768,-0.0609723180532,-0.726488053799,0.0369373522699,0.683471381664
1505419081771034216,186,1505419081770781454,world,0.719724059105,-0.0109913693741,-0.281107276678,-0.0614528805017,-0.726514041424,0.0371474325657,0.683389365673
1505419081791043672,187,1505419081790444733,world,0.719682574272,-0.0109291113913,-0.281192630529,-0.0614694431424,-0.726410090923,0.0373666249216,0.683486282825
1505419081791049415,188,1505419081790480924,world,0.719994664192,-0.0107257990167,-0.281220704317,-0.0613476037979,-0.726687192917,0.0374336801469,0.683198988438
1505419081801009177,189,1505419081800794605,world,0.720024943352,-0.0107326256111,-0.281265318394,-0.0612696297467,-0.726812779903,0.0371723398566,0.683086752892
1505419081811317622,190,1505419081811034016,world,0.71997821331,-0.0108178574592,-0.28128516674,-0.0611433424056,-0.726805567741,0.0369509682059,0.683117747307
1505419081820515535,191,1505419081820327034,world,0.719984173775,-0.0108412252739,-0.281231641769,-0.0607914701104,-0.726826131344,0.0367424711585,0.683138489723
1505419081830904993,192,1505419081830618966,world,0.719996094704,-0.0108728092164,-0.281204611063,-0.0605081319809,-0.72679913044,0.0365568846464,0.683202266693
1505419081841196238,193,1505419081840921507,world,0.719997167587,-0.0109425941482,-0.281162947416,-0.060209479183,-0.726862370968,0.0362627357244,0.683176994324
1505419081860657249,194,1505419081860360212,world,0.719975173473,-0.0110538257286,-0.281123608351,-0.0600141212344,-0.726913571358,0.0359684862196,0.683155417442
1505419081860661639,195,1505419081860390727,world,0.719986557961,-0.0110661601648,-0.281106770039,-0.0599674396217,-0.726932287216,0.0358734577894,0.683144569397
1505419081870900330,196,1505419081870628639,world,0.719966709614,-0.010992619209,-0.280956476927,-0.0599375478923,-0.726826429367,0.0361025184393,0.683247625828
1505419081881118426,197,1505419081880925718,world,0.719994008541,-0.0109487464651,-0.280963748693,-0.0601373016834,-0.726787984371,0.0362707264721,0.683262169361
1505419081890886491,198,1505419081890173483,world,0.71999579668,-0.0109389610589,-0.281151115894,-0.0606749467552,-0.726842522621,0.036613509059,0.683138310909
1505419081900567018,199,1505419081900448922,world,0.719961881638,-0.0108821876347,-0.281156331301,-0.061069495976,-0.726779222488,0.037360265851,0.683130025864
1505419081921155050,200,1505419081921003758,world,0.719985127449,-0.0108288694173,-0.28127348423,-0.0611340515316,-0.726784646511,0.037467315793,0.683112740517
1505419081921238398,201,1505419081921083005,world,0.720018625259,-0.010786592029,-0.281264334917,-0.0611100308597,-0.726772725582,0.0373679548502,0.683132946491
1505419081930685062,202,1505419081930434075,world,0.719991922379,-0.0108540505171,-0.281255841255,-0.0610423833132,-0.726842224598,0.03713170439,0.683077871799
1505419081951131576,203,1505419081950892141,world,0.720015585423,-0.0109417326748,-0.281203895807,-0.0607621334493,-0.726854860783,0.0366573743522,0.683115065098
1505419081951138682,204,1505419081950927849,world,0.720017015934,-0.0109364893287,-0.28101977706,-0.0601422525942,-0.726870059967,0.0361491963267,0.683180868626
1505419081960243428,205,1505419081960083276,world,0.719990193844,-0.0110992267728,-0.280793994665,-0.0594526864588,-0.726877510548,0.0355400815606,0.683265209198
1505419081980883657,206,1505419081980588385,world,0.719995498657,-0.0112902969122,-0.280605554581,-0.0587550662458,-0.726909935474,0.0348838679492,0.683324873447
1505419081980894846,207,1505419081980620716,world,0.719994425774,-0.0114122563973,-0.280494630337,-0.0583675391972,-0.726940870285,0.0341288298368,0.683363378048
1505419081991112530,208,1505419081990862455,world,0.719995200634,-0.0112456073985,-0.280537039042,-0.0582289025187,-0.726945817471,0.0336488969624,0.683393657207
1505419082001263117,209,1505419082001103318,world,0.720004320145,-0.0110256634653,-0.280820816755,-0.0584970787168,-0.726907134056,0.0343324840069,0.683377921581
1505419082010774816,210,1505419082010456581,world,0.720049023628,-0.0109734069556,-0.281072199345,-0.0598119199276,-0.726865530014,0.0354922749102,0.683249115944
1505419082020967057,211,1505419082020779528,world,0.720065534115,-0.0108298650011,-0.281316429377,-0.0610400810838,-0.726776659489,0.0368821918964,0.683161377907
1505419082031268457,212,1505419082031031910,world,0.720051705837,-0.01058221329,-0.281505763531,-0.0620940886438,-0.726631700993,0.0380495749414,0.683156549931
1505419082040544693,213,1505419082040307283,world,0.720041632652,-0.0105857197195,-0.281674057245,-0.0628255233169,-0.726528048515,0.0390851609409,0.683141410351
1505419082050873127,214,1505419082050538338,world,0.720049142838,-0.0105502288789,-0.281862080097,-0.0628209114075,-0.726675927639,0.0392233915627,0.682976663113
1505419082071215333,215,1505419082070983571,world,0.720031201839,-0.0106067238376,-0.28180372715,-0.0622342154384,-0.726767778397,0.0383234843612,0.682983756065
1505419082071224293,216,1505419082071045133,world,0.720049142838,-0.0106814699247,-0.281661093235,-0.0613641887903,-0.726848185062,0.0370625220239,0.683046519756
1505419082080531327,217,1505419082080337188,world,0.720005869865,-0.0108611332253,-0.281494349241,-0.0604583434761,-0.72692078352,0.0362661071122,0.683092772961
1505419082101049157,218,1505419082100787972,world,0.71997153759,-0.0110926423222,-0.281210869551,-0.0595337897539,-0.726770877838,0.0358256176114,0.683356702328
1505419082101098167,219,1505419082100822515,world,0.719864308834,-0.0113238552585,-0.280867755413,-0.0586982816458,-0.726445198059,0.0362992808223,0.683750152588
1505419082110249727,220,1505419082110080214,world,0.719901621342,-0.0115685882047,-0.280505478382,-0.0581018477678,-0.726085782051,0.0367146320641,0.684160411358
1505419082120440922,221,1505419082120260406,world,0.719698488712,-0.0116209685802,-0.280337005854,-0.0578162074089,-0.725932300091,0.0360345430672,0.684383690357
1505419082130679702,222,1505419082130469047,world,0.719529986382,-0.0116935847327,-0.280236959457,-0.0573393590748,-0.725665032864,0.0366219356656,0.684676110744
1505419082141013810,223,1505419082140829548,world,0.719460189342,-0.0119595304132,-0.28019759059,-0.0567443780601,-0.725261449814,0.038095317781,0.685072779655
1505419082151322617,224,1505419082151107273,world,0.719250440598,-0.0122071411461,-0.280161976814,-0.0569744817913,-0.725088655949,0.0389743857086,0.685187101364
1505419082160496410,225,1505419082160324333,world,0.719036519527,-0.012426527217,-0.280059337616,-0.0569146946073,-0.724928557873,0.0393354333937,0.685340762138
1505419082170924066,226,1505419082170545547,world,0.718678712845,-0.0125199276954,-0.279892504215,-0.056261152029,-0.724407911301,0.039690464735,0.685924589634
1505419082181327223,227,1505419082181026639,world,0.718392193317,-0.0128016108647,-0.279836028814,-0.0554077289999,-0.723918199539,0.0410054661334,0.686433494091
1505419082190672356,228,1505419082190282368,world,0.718015193939,-0.0130905769765,-0.279712229967,-0.0547963827848,-0.723642647266,0.0416204370558,0.686736166477
1505419082200847481,229,1505419082200620166,world,0.717676639557,-0.0132973184809,-0.279643774033,-0.0542005635798,-0.723493397236,0.0421285703778,0.686909675598
1505419082211173732,230,1505419082210926340,world,0.717368900776,-0.0134225422516,-0.279530912638,-0.0537734627724,-0.723259150982,0.0427189059556,0.687153339386
1505419082220369114,231,1505419082220132893,world,0.71709138155,-0.0136082228273,-0.279591917992,-0.0529600083828,-0.723036527634,0.0433358736336,0.687412142754
1505419082230569969,232,1505419082230389117,world,0.716817677021,-0.0135557902977,-0.279719829559,-0.0530156418681,-0.72314286232,0.0437028259039,0.687272787094
1505419082240844349,233,1505419082240649163,world,0.716666102409,-0.0137344086543,-0.27969712019,-0.0530545860529,-0.722672998905,0.0456060022116,0.687640190125
1505419082251089649,234,1505419082250924981,world,0.716476917267,-0.0136880399659,-0.279788792133,-0.0536614693701,-0.722475290298,0.0470730438828,0.68770211935
1505419082260270884,235,1505419082260076142,world,0.71630614996,-0.0135431215167,-0.279919207096,-0.0538126602769,-0.722287654877,0.0486166737974,0.687779903412
1505419082270437465,236,1505419082270257103,world,0.716200768948,-0.0134292952716,-0.280326217413,-0.0532394461334,-0.722409129143,0.0495693236589,0.687628924847
1505419082280692646,237,1505419082280543233,world,0.716085374355,-0.0130849760026,-0.280565649271,-0.0534822940826,-0.72251534462,0.0504570491612,0.687433898449
1505419082290969699,238,1505419082290770146,world,0.716037213802,-0.0127947041765,-0.280678719282,-0.0533027909696,-0.721918463707,0.0521404668689,0.687949120998
1505419082301289130,239,1505419082301060350,world,0.715780675411,-0.0124800084159,-0.280925065279,-0.0532608740032,-0.722049415112,0.053803820163,0.687686800957
1505419082310560522,240,1505419082310331810,world,0.715621113777,-0.0120283514261,-0.281311541796,-0.0533693246543,-0.722214221954,0.0559255518019,0.687335908413
1505419082320881327,241,1505419082320652949,world,0.715476572514,-0.0115593215451,-0.281478881836,-0.0536654219031,-0.721865355968,0.0579906105995,0.687508106232
1505419082331146426,242,1505419082330926339,world,0.715306282043,-0.0109424339607,-0.281749427319,-0.0539082698524,-0.721569657326,0.0601090416312,0.687617659569
1505419082340333136,243,1505419082340163477,world,0.714864134789,-0.0102599514648,-0.282048374414,-0.0541826933622,-0.72106808424,0.0623160302639,0.687925815582
1505419082350523375,244,1505419082350391872,world,0.714634954929,-0.00957603473216,-0.282417207956,-0.0540275275707,-0.720899581909,0.0643990561366,0.687922716141
1505419082361089713,245,1505419082360810161,world,0.714365839958,-0.00902211572975,-0.282609939575,-0.0536226443946,-0.7206133008,0.0656201988459,0.688138902187
1505419082370233561,246,1505419082370090544,world,0.714203238487,-0.00860951282084,-0.282811403275,-0.0527338422835,-0.720401406288,0.0666576400399,0.688329577446
1505419082380536584,247,1505419082380340729,world,0.71385461092,-0.00813510920852,-0.282878428698,-0.0514015890658,-0.719985485077,0.0680234953761,0.688731849194
1505419082390714080,248,1505419082390587208,world,0.713710069656,-0.00763249071315,-0.283092498779,-0.0493666417897,-0.719842255116,0.0683725774288,0.688995838165
1505419082401056526,249,1505419082400886374,world,0.713621139526,-0.00712055806071,-0.283186167479,-0.0472412109375,-0.719437301159,0.0687650814652,0.68952858448
1505419082410365622,250,1505419082410101543,world,0.713530898094,-0.0065437676385,-0.283346354961,-0.0454623624682,-0.71922314167,0.0689009130001,0.689857959747
1505419082420516239,251,1505419082420321358,world,0.713134765625,-0.00581919122487,-0.283524990082,-0.0434804931283,-0.718877315521,0.0694286748767,0.69029301405
1505419082430841515,252,1505419082430580647,world,0.713036835194,-0.00490098306909,-0.283861786127,-0.0420858561993,-0.718506038189,0.0699330493808,0.69071495533
1505419082441077317,253,1505419082440851618,world,0.712924361229,-0.00395957846195,-0.284182071686,-0.0413034111261,-0.718082606792,0.0718845948577,0.691002130508
1505419082451309336,254,1505419082451088860,world,0.712742805481,-0.00315523566678,-0.284659475088,-0.0406479127705,-0.717706501484,0.0737323537469,0.691237032413
1505419082460461416,255,1505419082460332194,world,0.71238219738,-0.00234634103253,-0.285057336092,-0.0397904776037,-0.717035114765,0.0754266753793,0.691800713539
1505419082470828888,256,1505419082470644289,world,0.712340116501,-0.00165382691193,-0.285615950823,-0.0393445529044,-0.716482400894,0.0773491337895,0.692186415195
1505419082481108283,257,1505419082480948547,world,0.712275326252,-0.000957043317612,-0.286209970713,-0.0389316268265,-0.715802133083,0.0790280178189,0.692723751068
1505419082490281771,258,1505419082490096559,world,0.712235450745,-0.000426799204433,-0.286776989698,-0.0387115292251,-0.715141952038,0.0804026424885,0.693259477615
1505419082500608966,259,1505419082500386963,world,0.712192118168,3.68973123841e-05,-0.287363052368,-0.0380579605699,-0.714595377445,0.0817249938846,0.693704545498
1505419082510869363,260,1505419082510617159,world,0.711776733398,0.000421250064392,-0.288011163473,-0.0374080725014,-0.714026927948,0.0818104371428,0.69431489706
1505419082521078797,261,1505419082520882079,world,0.71166819334,0.000764137366787,-0.288112431765,-0.0360719487071,-0.713724911213,0.0823648571968,0.69463044405
1505419082531344931,262,1505419082531093132,world,0.711491346359,0.00132865551859,-0.288260132074,-0.0344319455326,-0.713517010212,0.0820773765445,0.694961309433
1505419082540566188,263,1505419082540361418,world,0.711325347424,0.00205006753094,-0.288331568241,-0.0324042774737,-0.713378608227,0.0827734321356,0.695118308067
1505419082550875926,264,1505419082550630546,world,0.711004078388,0.00277355313301,-0.288336038589,-0.030996657908,-0.71320360899,0.0831127092242,0.695321619511
1505419082561035750,265,1505419082560864330,world,0.710994243622,0.00335123576224,-0.28854945302,-0.0304659344256,-0.713248074055,0.0845881551504,0.695121526718
1505419082571426511,266,1505419082571082749,world,0.710888624191,0.00390027626418,-0.288548827171,-0.0303673781455,-0.713260710239,0.0859849974513,0.694941401482
1505419082580553090,267,1505419082580367121,world,0.710727274418,0.00440314505249,-0.288442701101,-0.0303284209222,-0.713386893272,0.0870497077703,0.694680929184
1505419082590910121,268,1505419082590657738,world,0.710855960846,0.00469494983554,-0.288372069597,-0.0302407220006,-0.713458061218,0.0878132805228,0.69451546669
1505419082601059816,269,1505419082600933095,world,0.711038291454,0.00519146909937,-0.288620829582,-0.029414402321,-0.713518381119,0.0880923494697,0.694453716278
1505419082610360615,270,1505419082610208724,world,0.710989534855,0.00542521337047,-0.288712352514,-0.0289453603327,-0.713442742825,0.088287577033,0.694526433945
1505419082620527970,271,1505419082620434204,world,0.710835933685,0.00574057549238,-0.288757145405,-0.0282218307257,-0.713266551495,0.0883238613605,0.694732427597
1505419082630871463,272,1505419082630702275,world,0.710720300674,0.00593598745763,-0.28872179985,-0.0266996640712,-0.712987542152,0.0892057344317,0.694966495037
1505419082641227617,273,1505419082640997871,world,0.710588991642,0.00623818486929,-0.28880494833,-0.0254597440362,-0.712703168392,0.0886744856834,0.695372462273
1505419082650503681,274,1505419082650300570,world,0.710476458073,0.00667352275923,-0.289008170366,-0.0242191199213,-0.712398767471,0.0880735516548,0.69580489397
1505419082660775825,275,1505419082660544094,world,0.710465967655,0.00708670075983,-0.289271920919,-0.0228180959821,-0.712039709091,0.0875035896897,0.69629150629
1505419082671059345,276,1505419082670853484,world,0.710377693176,0.00746155390516,-0.289525508881,-0.0214042440057,-0.711633384228,0.0872387215495,0.696784794331
1505419082681284256,277,1505419082681120238,world,0.710303664207,0.00774358538911,-0.289698213339,-0.0198900476098,-0.711220383644,0.0865890979767,0.697332322598
1505419082690491170,278,1505419082690315510,world,0.710259199142,0.00784179661423,-0.289812415838,-0.0187636241317,-0.710882008076,0.0855958461761,0.69783103466
1505419082700898881,279,1505419082700690065,world,0.710167765617,0.00796470511705,-0.289877027273,-0.0172063428909,-0.710470616817,0.0841730758548,0.698462843895
1505419082711136024,280,1505419082710941021,world,0.710080742836,0.00793582666665,-0.289909332991,-0.0154354600236,-0.710169613361,0.0814795121551,0.699129462242
1505419082731015084,281,1505419082730550074,world,0.710032343864,0.00787847489119,-0.289857000113,-0.0134547483176,-0.709821462631,0.0796491205692,0.699734568596
1505419082731018590,282,1505419082730588740,world,0.709897398949,0.0079539027065,-0.289801597595,-0.0111825354397,-0.709532856941,0.0779190510511,0.700261890888
1505419082741134746,283,1505419082740915094,world,0.70973354578,0.00810675602406,-0.289881408215,-0.00893430225551,-0.708993494511,0.0749940946698,0.70115929842
1505419082760512247,284,1505419082760340585,world,0.709528982639,0.00828906521201,-0.289982646704,-0.00653493078426,-0.708626389503,0.0722954124212,0.701840043068
1505419082760518842,285,1505419082760395982,world,0.709444344044,0.00842329580337,-0.289927601814,-0.00434905849397,-0.708294391632,0.0698613747954,0.702438294888
1505419082771059719,286,1505419082770775781,world,0.709840297699,0.00827789492905,-0.289778769016,-0.00216019246727,-0.708283185959,0.0677470415831,0.702666819096
1505419082790651742,287,1505419082790263975,world,0.70982414484,0.00829910580069,-0.289579331875,-9.62372796494e-05,-0.708176970482,0.0654191598296,0.702997744083
1505419082790658856,288,1505419082790310815,world,0.709341406822,0.00843882001936,-0.289338618517,0.00216236640699,-0.707954585552,0.0615614540875,0.703566372395
1505419082800936847,289,1505419082800600133,world,0.709627449512,0.0084094023332,-0.28911203146,0.00432441337034,-0.707979202271,0.0601445063949,0.703654229641
1505419082811138290,290,1505419082810826124,world,0.709484636784,0.00841026566923,-0.288976967335,0.00695347925648,-0.707507252693,0.0572383478284,0.704349935055
1505419082821182430,291,1505419082821061613,world,0.709237933159,0.00849762000144,-0.288941323757,0.0098682558164,-0.70695489645,0.0539942383766,0.705125570297
1505419082830552780,292,1505419082830314629,world,0.708732783794,0.00836017541587,-0.288556843996,0.0120388772339,-0.706544756889,0.0494996719062,0.705832481384
1505419082851340393,293,1505419082850801699,world,0.708542585373,0.00840117968619,-0.288420915604,0.0169220063835,-0.705956757069,0.0443212725222,0.706664264202
1505419082851376448,294,1505419082850962097,world,0.707800984383,0.00847241003066,-0.288333922625,0.0204320587218,-0.705830872059,0.04054915905,0.706923723221
1505419082860411778,295,1505419082860171064,world,0.706368029118,0.00755531480536,-0.287727534771,0.0187373571098,-0.70589441061,0.0343603678048,0.70723503828
1505419082881024481,296,1505419082880745310,world,0.705568730831,0.00777333555743,-0.287438094616,0.0256446134299,-0.705480575562,0.0290694721043,0.707668364048
1505419082881038354,297,1505419082880779715,world,0.703788995743,0.00795289780945,-0.286869078875,0.0309182796627,-0.704951941967,0.0226190797985,0.708219707012
1505419082891281314,298,1505419082891082468,world,0.70176500082,0.00830856710672,-0.286071240902,0.0399656705558,-0.70433062315,0.0169479325414,0.708543479443
1505419082900649806,299,1505419082900448757,world,0.699339270592,0.00822399184108,-0.285546392202,0.0459200553596,-0.70365101099,0.00880821421742,0.709005653858
1505419082910894194,300,1505419082910705114,world,0.696454942226,0.00825545378029,-0.284807115793,0.0538122169673,-0.702568471432,0.000531254219823,0.709578335285
1505419082921184789,301,1505419082920980398,world,0.693263590336,0.00819481723011,-0.284412235022,0.0612607337534,-0.701605498791,-0.00857135746628,0.709875524044
1505419082930545815,302,1505419082930253891,world,0.689297139645,0.0079647321254,-0.283778250217,0.0678703784943,-0.700147986412,-0.0178798474371,0.710539698601
1505419082940729443,303,1505419082940548135,world,0.685231566429,0.00791430938989,-0.283205956221,0.0761905387044,-0.698614835739,-0.027641210705,0.710892558098
1505419082951069577,304,1505419082950824026,world,0.680878937244,0.00825521349907,-0.282619357109,0.081480935216,-0.696791648865,-0.0379753522575,0.711618065834
1505419082960180698,305,1505419082960072843,world,0.676679432392,0.00841897819191,-0.281947702169,0.0850258767605,-0.695253551006,-0.0443114489317,0.712340891361
1505419082970678230,306,1505419082970367863,world,0.672370970249,0.00871024560183,-0.281706422567,0.0859195142984,-0.69480907917,-0.0473390556872,0.712472677231
1505419082980836748,307,1505419082980648429,world,0.667840301991,0.00848719105124,-0.281833827496,0.084270067513,-0.69464302063,-0.0443908981979,0.713021039963
1505419082991056788,308,1505419082990872953,world,0.663276672363,0.00823866389692,-0.282228678465,0.0805410817266,-0.69528645277,-0.0383246541023,0.7131767869
1505419083001306218,309,1505419083001128975,world,0.658492922783,0.00801269989461,-0.282979756594,0.0748606398702,-0.695981144905,-0.0302124749869,0.713507831097
1505419083010595186,310,1505419083010384915,world,0.65309804678,0.00738462340087,-0.283834129572,0.0684410110116,-0.696842193604,-0.0220802556723,0.713610053062
1505419083020841131,311,1505419083020641478,world,0.647849500179,0.00667323824018,-0.284593135118,0.0632374435663,-0.697754144669,-0.0151041876525,0.713380753994
1505419083031278657,312,1505419083030898420,world,0.642306864262,0.00638409052044,-0.285149157047,0.0584304332733,-0.698271214962,-0.0106303300709,0.713365316391
1505419083040289998,313,1505419083040098809,world,0.636630296707,0.00593237485737,-0.285659849644,0.053272921592,-0.699113667011,-0.00773341953754,0.712981283665
1505419083050555283,314,1505419083050353418,world,0.630619466305,0.00569000001997,-0.286200284958,0.0516136921942,-0.699682176113,-0.00422547711059,0.712574958801
1505419083060802056,315,1505419083060588549,world,0.624682843685,0.00570478662848,-0.286636292934,0.0504138730466,-0.699837088585,-0.0032549505122,0.712513804436
1505419083071014408,316,1505419083070835494,world,0.618508398533,0.00585587881505,-0.286841005087,0.0504759140313,-0.700437963009,-0.00313703739084,0.711919248104
1505419083080438317,317,1505419083080238533,world,0.611783266068,0.00608361791819,-0.286963909864,0.0506373234093,-0.700478792191,-0.00428725406528,0.711861670017
1505419083090827925,318,1505419083090490171,world,0.605166256428,0.00585353653878,-0.287284642458,0.0522857271135,-0.700767099857,-0.00667847180739,0.711440086365
1505419083101049673,319,1505419083100855650,world,0.598541557789,0.00558182923123,-0.287117630243,0.0551359429955,-0.70074737072,-0.00995494797826,0.711206078529
1505419083111403898,320,1505419083111151270,world,0.591578483582,0.00537114683539,-0.287015765905,0.0589268282056,-0.700981020927,-0.0141368415207,0.710600674152
1505419083120624043,321,1505419083120417356,world,0.584810435772,0.00518696894869,-0.286621510983,0.0632158666849,-0.700627028942,-0.020743412897,0.710418999195
1505419083130980946,322,1505419083130655674,world,0.577996611595,0.00514870602638,-0.286229223013,0.0682794898748,-0.700298964977,-0.0273984763771,0.7100481987
1505419083141084019,323,1505419083140919240,world,0.570936083794,0.00549442181364,-0.285400986671,0.0720821991563,-0.699241876602,-0.0352350957692,0.710368514061
1505419083150449389,324,1505419083150201818,world,0.564378678799,0.00582711258903,-0.28459250927,0.0758904367685,-0.698413074017,-0.0398126579821,0.710545361042
1505419083160675621,325,1505419083160434673,world,0.557835757732,0.00606362009421,-0.284181058407,0.078103326261,-0.698566019535,-0.0422425121069,0.710014820099
1505419083170992693,326,1505419083170753212,world,0.551294744015,0.00619940692559,-0.283993601799,0.0781132727861,-0.698834657669,-0.0429696030915,0.709705531597
1505419083180217085,327,1505419083180075667,world,0.545183122158,0.00615363940597,-0.28386849165,0.0751627236605,-0.699000716209,-0.0420305803418,0.709916949272
1505419083191027115,328,1505419083190315418,world,0.538497567177,0.00616575684398,-0.284007966518,0.0731697008014,-0.699458837509,-0.0383712612092,0.709881126881
1505419083200763159,329,1505419083200594475,world,0.532030642033,0.00595274334773,-0.284171134233,0.0704022496939,-0.70013409853,-0.0348003692925,0.709679245949
1505419083211084980,330,1505419083210844702,world,0.52533853054,0.00572932744399,-0.284327626228,0.0679523348808,-0.700950264931,-0.0306200385094,0.709304988384
1505419083221233240,331,1505419083221041876,world,0.51869392395,0.00556937325746,-0.284460216761,0.06610956043,-0.701069533825,-0.028387511149,0.709454119205
1505419083230561816,332,1505419083230327271,world,0.512175917625,0.00534701766446,-0.284506231546,0.0650388374925,-0.701405107975,-0.0264912229031,0.70929479599
1505419083240788395,333,1505419083240564872,world,0.505143046379,0.00543331261724,-0.284642338753,0.0649638548493,-0.701701998711,-0.0262323841453,0.709017455578
1505419083251064910,334,1505419083250834413,world,0.498218029737,0.00553745729849,-0.284753143787,0.0658141449094,-0.701431035995,-0.0278316680342,0.70914632082
1505419083260255358,335,1505419083260068615,world,0.491010844707,0.0055500054732,-0.284579008818,0.0674806535244,-0.70132702589,-0.0299997832626,0.709004044533
1505419083270568905,336,1505419083270373099,world,0.483907312155,0.00582290161401,-0.284503608942,0.069517865777,-0.701223552227,-0.0331615358591,0.708768665791
1505419083280906152,337,1505419083280678099,world,0.476811110973,0.00580995390192,-0.284146636724,0.0718938335776,-0.700860202312,-0.0369856655598,0.708701848984
1505419083291307398,338,1505419083290936950,world,0.469686806202,0.00610777037218,-0.28426015377,0.0735900700092,-0.700744867325,-0.0397276617587,0.708493351936
1505419083300341190,339,1505419083300160616,world,0.46237808466,0.00617318274453,-0.28419098258,0.0753497779369,-0.70075160265,-0.0416962206364,0.708188533783
1505419083310785690,340,1505419083310372230,world,0.455266028643,0.00620147492737,-0.284282922745,0.0756632015109,-0.700841844082,-0.0420760959387,0.708043336868
1505419083320886818,341,1505419083320693387,world,0.448427319527,0.0060632401146,-0.28450986743,0.0744548365474,-0.700922966003,-0.0417328253388,0.708111524582
1505419083331206382,342,1505419083330947174,world,0.441395938396,0.00593399070203,-0.284840553999,0.0739623233676,-0.701621413231,-0.0397405810654,0.707585811615
1505419083340342765,343,1505419083340182107,world,0.434641867876,0.00572655396536,-0.285149425268,0.0727323293686,-0.701967597008,-0.0375023856759,0.707491993904
1505419083350724112,344,1505419083350464782,world,0.427658885717,0.00549784908071,-0.28548258543,0.0707497373223,-0.702754378319,-0.0348127856851,0.707049369812
1505419083361131908,345,1505419083360918227,world,0.420768171549,0.00543354079127,-0.285747796297,0.0691452547908,-0.703118383884,-0.0325867496431,0.70695233345
1505419083370487614,346,1505419083370251870,world,0.413865715265,0.00547684682533,-0.28598305583,0.0682825967669,-0.703591287136,-0.0311471763998,0.706630527973
1505419083380718741,347,1505419083380531755,world,0.406742632389,0.00568477483466,-0.286129504442,0.0686286613345,-0.704025328159,-0.030868018046,0.706176698208
1505419083391037986,348,1505419083390812983,world,0.399814546108,0.00585907744244,-0.286200970411,0.069497525692,-0.703984737396,-0.031609095633,0.706099569798
1505419083400250792,349,1505419083400109498,world,0.392582982779,0.00588505947962,-0.286249428988,0.0706838294864,-0.704233288765,-0.0331359021366,0.705663740635
1505419083410671293,350,1505419083410355021,world,0.385561645031,0.00605886802077,-0.286476522684,0.0718490183353,-0.704261243343,-0.0348671674728,0.705434679985
1505419083420852878,351,1505419083420665227,world,0.378455340862,0.00602463399991,-0.286461770535,0.0723239928484,-0.704767405987,-0.0349157638848,0.704877972603
1505419083431135683,352,1505419083430910115,world,0.371538519859,0.00588325457647,-0.286708772182,0.0722809955478,-0.704680562019,-0.0344974547625,0.704989850521
1505419083440324629,353,1505419083440118850,world,0.364661574364,0.00588898966089,-0.286938250065,0.0716891288757,-0.705065310001,-0.0340461805463,0.704687476158
1505419083450535671,354,1505419083450352769,world,0.357971400023,0.00585930841044,-0.287300944328,0.0707901790738,-0.705599606037,-0.0326383821666,0.704309999943
1505419083460680474,355,1505419083460575476,world,0.351056218147,0.00587539188564,-0.28772944212,0.0694626122713,-0.706239640713,-0.0305241439492,0.703895449638
1505419083471160442,356,1505419083470960874,world,0.344670087099,0.00597411440685,-0.287921637297,0.0680655315518,-0.706590235233,-0.0282467268407,0.703775048256
1505419083480442565,357,1505419083480245456,world,0.337906807661,0.00613953592256,-0.288353860378,0.0675076320767,-0.707251727581,-0.0253251306713,0.703275382519
1505419083490738397,358,1505419083490495093,world,0.331553280354,0.00634852703661,-0.288481682539,0.0667697936296,-0.707499206066,-0.0243203472346,0.703132450581
1505419083501106488,359,1505419083500883528,world,0.325195163488,0.00656605511904,-0.288805097342,0.0664023160934,-0.708291351795,-0.0236878301948,0.702391028404
1505419083510195604,360,1505419083510080418,world,0.318652510643,0.00664604874328,-0.289170622826,0.0673301294446,-0.708692073822,-0.0239400919527,0.701889693737
1505419083520581909,361,1505419083520388500,world,0.312584578991,0.00679201865569,-0.289286077023,0.0677084550261,-0.708884298801,-0.0250350013375,0.701620817184
1505419083530872030,362,1505419083530666301,world,0.306586414576,0.00692130764946,-0.289405435324,0.0695527642965,-0.709078788757,-0.0266215950251,0.70118534565
1505419083541186056,363,1505419083540900691,world,0.300801873207,0.00712957326323,-0.289481818676,0.071251951158,-0.709204614162,-0.0272889640182,0.700861811638
1505419083550266851,364,1505419083550096911,world,0.29497513175,0.00731481518596,-0.289687156677,0.0724877938628,-0.709528207779,-0.029167752713,0.700331628323
1505419083560552054,365,1505419083560403003,world,0.28964176774,0.00761794531718,-0.289667576551,0.0737002566457,-0.709610104561,-0.029117744416,0.700124144554
1505419083571004476,366,1505419083570860236,world,0.284421205521,0.00806445628405,-0.290011584759,0.0740630999207,-0.709979295731,-0.0293257944286,0.69970279932
1505419083580499412,367,1505419083580266676,world,0.279181391001,0.00851161498576,-0.290336549282,0.074507266283,-0.710469067097,-0.0280147064477,0.699212133884
1505419083590894707,368,1505419083590493658,world,0.274276077747,0.00891194306314,-0.290419101715,0.0741468891501,-0.710676729679,-0.0263480301946,0.699104249477
1505419083601006239,369,1505419083600833611,world,0.26927781105,0.00902860425413,-0.290944576263,0.0732808485627,-0.711262822151,-0.0253746304661,0.698635280132
1505419083611328672,370,1505419083611134217,world,0.264537841082,0.00913895945996,-0.291319131851,0.0722501724958,-0.711800634861,-0.023215636611,0.698269844055
