%time,field.header.seq,field.header.stamp,field.header.frame_id,field.pose.position.x,field.pose.position.y,field.pose.position.z,field.pose.orientation.x,field.pose.orientation.y,field.pose.orientation.z,field.pose.orientation.w
1505419079910461336,0,1505419079910297799,world,1.41338729858,0.0812871754169,-2.00581169128,0.40944609046,0.133941799402,0.898220717907,-0.0872522965074
1505419079920711154,1,1505419079920575709,world,1.41332566738,0.0812984704971,-2.00576162338,0.40932393074,0.134021610022,0.89825707674,-0.0873294249177
1505419079931164235,2,1505419079930849170,world,1.41339170933,0.0812331289053,-2.0058529377,0.409390121698,0.134081706405,0.898227035999,-0.0872356817126
1505419079941274943,3,1505419079941186486,world,1.41332113743,0.0813292860985,-2.00574302673,0.40924295783,0.134095057845,0.898279070854,-0.0873696655035
1505419079951121095,4,1505419079950920280,world,1.41336083412,0.081280618906,-2.00580239296,0.409366518259,0.133936524391,0.898243963718,-0.087394669652
1505419079960261636,5,1505419079960092225,world,1.41335642338,0.0812945067883,-2.0057516098,0.409435302019,0.13390763104,0.898228347301,-0.0872772634029
1505419079970593438,6,1505419079970389008,world,1.41334271431,0.0813058316708,-2.00576400757,0.409258127213,0.134115755558,0.898280918598,-0.087247274816
1505419079980803567,7,1505419079980659544,world,1.41342484951,0.081264257431,-2.00585436821,0.409449487925,0.133954554796,0.898225426674,-0.0871690884233
1505419079991101756,8,1505419079990918874,world,1.41345822811,0.0812061131001,-2.00585794449,0.40950268507,0.133753806353,0.898230910301,-0.0871696025133
1505419080000263525,9,1505419080000119124,world,1.41339695454,0.0812648832798,-2.00579452515,0.409439563751,0.1340072155,0.898220896721,-0.0871808379889
1505419080010642300,10,1505419080010465816,world,1.41337561607,0.0812947303057,-2.0057656765,0.409334361553,0.13406829536,0.89825963974,-0.0871815010905
1505419080021106980,11,1505419080020841292,world,1.41337919235,0.0812842026353,-2.00579309464,0.409421265125,0.133838191628,0.898240447044,-0.0873249322176
1505419080030580882,12,1505419080030290096,world,1.413382411,0.0812858119607,-2.00574326515,0.409377247095,0.133929908276,0.898258149624,-0.0872085019946
1505419080040800221,13,1505419080040596556,world,1.41343605518,0.0812449082732,-2.00580573082,0.409531652927,0.133912593126,0.898198008537,-0.0871293619275
1505419080051084067,14,1505419080050862054,world,1.41336071491,0.0813071802258,-2.00578403473,0.409322530031,0.13400028646,0.898272931576,-0.0872055068612
1505419080060412606,15,1505419080060148496,world,1.41338908672,0.0812598243356,-2.00575852394,0.409462094307,0.133874326944,0.898220479488,-0.0872831344604
1505419080070799851,16,1505419080070405940,world,1.41341197491,0.0812828689814,-2.00581336021,0.409495383501,0.133952900767,0.898197054863,-0.0872476771474
1505419080081075696,17,1505419080080970491,world,1.41338503361,0.0813015848398,-2.00578141212,0.409425407648,0.133929118514,0.898236572742,-0.0872054025531
1505419080090782934,18,1505419080090527201,world,1.4133939743,0.0812730491161,-2.00577807426,0.409411907196,0.133908525109,0.898244798183,-0.0872163623571
1505419080100959607,19,1505419080100746956,world,1.41344869137,0.0812275707722,-2.00584363937,0.409469395876,0.133849591017,0.898228287697,-0.0872066542506
1505419080111238250,20,1505419080111011264,world,1.41344249249,0.0812576115131,-2.00581145287,0.409501194954,0.13381101191,0.898220121861,-0.0872002393007
1505419080120663432,21,1505419080120348218,world,1.41342353821,0.0812820792198,-2.00580191612,0.409410178661,0.134056150913,0.898220181465,-0.0872511044145
1505419080130888982,22,1505419080130626804,world,1.41345620155,0.081239245832,-2.00584697723,0.409562528133,0.133739843965,0.898206353188,-0.087163746357
1505419080141148239,23,1505419080140992883,world,1.41336965561,0.0812959372997,-2.00575089455,0.409325003624,0.133951872587,0.898271679878,-0.087280318141
1505419080150421808,24,1505419080150258229,world,1.41343462467,0.0812218412757,-2.00583600998,0.40944057703,0.133775815368,0.898249983788,-0.0872320756316
1505419080160638258,25,1505419080160459920,world,1.413392663,0.0812546387315,-2.00582432747,0.409370571375,0.133975461125,0.898250997066,-0.0872433781624
1505419080170989359,26,1505419080170737878,world,1.41338932514,0.0812694728374,-2.00577521324,0.409378349781,0.133933827281,0.898255050182,-0.0872292816639
1505419080181109327,27,1505419080180998676,world,1.41341161728,0.0812767222524,-2.0057926178,0.409445554018,0.1339058429,0.898229122162,-0.0872232466936
1505419080190555001,28,1505419080190341421,world,1.41336798668,0.0813141018152,-2.00578808784,0.409249395132,0.134129807353,0.898278355598,-0.087293125689
1505419080200790067,29,1505419080200630275,world,1.41342461109,0.0812762230635,-2.00582265854,0.409419745207,0.13398052752,0.89823102951,-0.0872111022472
1505419080211145570,30,1505419080210858323,world,1.41340327263,0.0812573954463,-2.00581669807,0.409416675568,0.133906185627,0.898236811161,-0.0872800126672
1505419080221251060,31,1505419080221084335,world,1.41337621212,0.081274703145,-2.00578451157,0.409343063831,0.134063735604,0.898251473904,-0.0872321799397
1505419080231050943,32,1505419080230349275,world,1.41338419914,0.081266514957,-2.00576114655,0.409416437149,0.133917853236,0.898243188858,-0.0871970355511
1505419080240793617,33,1505419080240623188,world,1.41338396072,0.0813176631927,-2.00580501556,0.409366548061,0.133971944451,0.89825129509,-0.0872649252415
1505419080251115412,34,1505419080250887188,world,1.41335058212,0.081328228116,-2.00574636459,0.409338563681,0.13408203423,0.898244917393,-0.0872924253345
1505419080260262103,35,1505419080260096162,world,1.41340863705,0.0812499970198,-2.00581288338,0.409395366907,0.134000346065,0.89824193716,-0.0871816277504
1505419080270654814,36,1505419080270398984,world,1.41345083714,0.0812555477023,-2.00583148003,0.409458875656,0.133963689208,0.89822435379,-0.0871218144894
1505419080280807044,37,1505419080280650525,world,1.41337442398,0.0812726393342,-2.0057682991,0.409386098385,0.133879140019,0.898252606392,-0.0873021706939
1505419080291355296,38,1505419080291031535,world,1.41335809231,0.081330396235,-2.00579118729,0.409265756607,0.134079888463,0.898274123669,-0.0873364210129
1505419080300482080,39,1505419080300291190,world,1.41342067719,0.0812527835369,-2.00582504272,0.409382611513,0.133834466338,0.898265600204,-0.0872526392341
1505419080310906889,40,1505419080310574012,world,1.41344201565,0.081230185926,-2.00582814217,0.409459233284,0.133826300502,0.898241400719,-0.0871556997299
1505419080321160408,41,1505419080320925374,world,1.41332781315,0.081327393651,-2.00576305389,0.409185767174,0.134247228503,0.898282945156,-0.0873638242483
1505419080330321252,42,1505419080330122091,world,1.41342198849,0.08121535182,-2.00586128235,0.409550815821,0.133844137192,0.898202598095,-0.087097927928
1505419080340581774,43,1505419080340355748,world,1.41339743137,0.0812595039606,-2.00574851036,0.409386128187,0.13391661644,0.898264765739,-0.0871187970042
1505419080350851031,44,1505419080350643188,world,1.4133477211,0.0813188254833,-2.0057592392,0.409328013659,0.134037256241,0.89825886488,-0.0872676447034
1505419080361262870,45,1505419080361105312,world,1.41343891621,0.0812480300665,-2.00581121445,0.409499973059,0.133789032698,0.898235082626,-0.0870861113071
1505419080370634442,46,1505419080370401890,world,1.41337299347,0.0812541469932,-2.005828619,0.409383952618,0.134022474289,0.898231327534,-0.0873111188412
1505419080380798557,47,1505419080380656221,world,1.41339302063,0.0812305137515,-2.00583648682,0.409369856119,0.134009838104,0.89824616909,-0.0872441828251
1505419080391060959,48,1505419080390933928,world,1.41338372231,0.0813210606575,-2.00576663017,0.409418642521,0.133947610855,0.898245036602,-0.0871222913265
1505419080400413672,49,1505419080400144746,world,1.41333520412,0.0813211202621,-2.00578927994,0.409280538559,0.134092345834,0.898256659508,-0.0874280631542
1505419080410569742,50,1505419080410380025,world,1.41348552704,0.0811836346984,-2.00588965416,0.409599840641,0.133849576116,0.898181438446,-0.0870770514011
1505419080421180369,51,1505419080420633366,world,1.41334104538,0.0813218355179,-2.0057926178,0.409241974354,0.134107932448,0.898276150227,-0.0873844102025
1505419080431120125,52,1505419080430915757,world,1.4133450985,0.0813465639949,-2.00580310822,0.409260690212,0.134215682745,0.898245871067,-0.0874429941177
1505419080441254957,53,1505419080441126135,world,1.41336476803,0.0812784805894,-2.00578761101,0.409315854311,0.13408434391,0.898248851299,-0.0873550996184
1505419080450495387,54,1505419080450341415,world,1.41340625286,0.0812869742513,-2.00581383705,0.409347474575,0.134025707841,0.89825719595,-0.0872111544013
1505419080460738176,55,1505419080460597298,world,1.41336226463,0.0813266634941,-2.00580191612,0.409288138151,0.134104967117,0.89825129509,-0.0874284952879
1505419080471106921,56,1505419080470860175,world,1.4133630991,0.0812735185027,-2.00577139854,0.409364312887,0.133972376585,0.898251116276,-0.0872763469815
1505419080481276770,57,1505419080481129918,world,1.41343808174,0.0812428444624,-2.00584316254,0.409398347139,0.133948385715,0.898242950439,-0.0872382894158
1505419080490512972,58,1505419080490341437,world,1.41337025166,0.0812692716718,-2.00576376915,0.409365594387,0.133824184537,0.898269593716,-0.0873075500131
1505419080500853640,59,1505419080500630259,world,1.41341030598,0.0812506005168,-2.00581169128,0.409387588501,0.133885607123,0.898258924484,-0.0872202590108
1505419080511145839,60,1505419080511033895,world,1.41344237328,0.0812319889665,-2.00583100319,0.409487724304,0.133844390512,0.898218631744,-0.0872282534838
1505419080520581055,61,1505419080520333783,world,1.41336941719,0.0813206657767,-2.00577497482,0.409318655729,0.134008258581,0.898262441158,-0.0873189121485
1505419080530945268,62,1505419080530716605,world,1.41335320473,0.0813009738922,-2.00582051277,0.409308552742,0.134118169546,0.898252546787,-0.087299220264
1505419080541195677,63,1505419080541014987,world,1.41338217258,0.081257969141,-2.0057888031,0.409335434437,0.134040936828,0.898257374763,-0.0872419327497
1505419080550465649,64,1505419080550303093,world,1.41343593597,0.0812142789364,-2.00585794449,0.409470081329,0.133784383535,0.898243606091,-0.0871454700828
1505419080560701267,65,1505419080560527306,world,1.41336882114,0.0812956392765,-2.00579166412,0.409300833941,0.134003162384,0.898275852203,-0.0872727558017
1505419080570971860,66,1505419080570771992,world,1.413402915,0.0812962949276,-2.00578045845,0.409440428019,0.133959487081,0.898218691349,-0.0872730463743
1505419080581145983,67,1505419080581085869,world,1.41341948509,0.0812454596162,-2.00581264496,0.409458339214,0.133858188987,0.898234128952,-0.0871861577034
1505419080590531046,68,1505419080590361410,world,1.41338002682,0.0812709853053,-2.00577831268,0.409401446581,0.133912712336,0.89824616909,-0.0872445628047
1505419080600873993,69,1505419080600672006,world,1.41341638565,0.0812568366528,-2.00582742691,0.409465044737,0.134006589651,0.898196876049,-0.0873101875186
1505419080611147769,70,1505419080610944868,world,1.41339612007,0.0812600329518,-2.0058054924,0.409442514181,0.133905082941,0.898229718208,-0.087233915925
1505419080620364279,71,1505419080620188607,world,1.41339886189,0.0813045948744,-2.00579786301,0.409394174814,0.134087815881,0.898231685162,-0.0871594250202
1505419080630974477,72,1505419080630456828,world,1.41344058514,0.0812478587031,-2.0058016777,0.409477770329,0.133806094527,0.898237645626,-0.0871378481388
1505419080640832518,73,1505419080640682585,world,1.41341125965,0.0812853574753,-2.00579285622,0.409474998713,0.133835434914,0.898228287697,-0.0872020497918
1505419080651188817,74,1505419080650977777,world,1.41341459751,0.0812757909298,-2.00581622124,0.409387499094,0.134020447731,0.898238778114,-0.0872208327055
1505419080660283373,75,1505419080660159387,world,1.41339051723,0.0812626481056,-2.00580763817,0.409395009279,0.133829638362,0.89824962616,-0.0873671546578
1505419080670622797,76,1505419080670412774,world,1.41334331036,0.0813020169735,-2.0057592392,0.409176379442,0.134119614959,0.898316383362,-0.0872605890036
1505419080680795646,77,1505419080680636608,world,1.41341662407,0.0812284871936,-2.005818367,0.409424006939,0.133897215128,0.898244082928,-0.0871850326657
1505419080691101003,78,1505419080690890581,world,1.4133810997,0.0812903344631,-2.00571489334,0.409393906593,0.133866146207,0.898272812366,-0.0870772376657
1505419080701223336,79,1505419080701085618,world,1.41336977482,0.0812795311213,-2.00573801994,0.409298092127,0.133907213807,0.898303687572,-0.0871457010508
1505419080710593638,80,1505419080710374550,world,1.41343438625,0.0812128037214,-2.00586462021,0.409565806389,0.133804097772,0.898194730282,-0.087169252336
1505419080720803013,81,1505419080720649911,world,1.41338813305,0.081263884902,-2.0058131218,0.409326940775,0.134058088064,0.898256659508,-0.0872639864683
1505419080731239689,82,1505419080731028225,world,1.41337001324,0.0812949314713,-2.00577640533,0.409451127052,0.133912503719,0.898218095303,-0.0873009935021
1505419080740413181,83,1505419080740272566,world,1.41337180138,0.0812526345253,-2.00577163696,0.409279286861,0.133897781372,0.898303866386,-0.0872477516532
1505419080750745660,84,1505419080750490795,world,1.41338348389,0.0812464803457,-2.00584340096,0.409386694431,0.133978202939,0.898232400417,-0.0873555988073
1505419080761133148,85,1505419080760948195,world,1.41342520714,0.081251077354,-2.00584816933,0.409507244825,0.133849024773,0.898212850094,-0.0871891900897
1505419080770324227,86,1505419080770116696,world,1.41339468956,0.0813017040491,-2.00578951836,0.409362077713,0.134058952332,0.898235559464,-0.0873144641519
1505419080780592540,87,1505419080780388901,world,1.41337275505,0.0812860429287,-2.00580263138,0.409354537725,0.134025335312,0.898245215416,-0.087301902473
1505419080790747314,88,1505419080790665705,world,1.41337680817,0.0813182964921,-2.0057823658,0.409311652184,0.134057834744,0.898265421391,-0.0872447490692
1505419080801019368,89,1505419080800863214,world,1.41337954998,0.0813068896532,-2.00576686859,0.409416973591,0.133939728141,0.898239731789,-0.0871964097023
1505419080811389358,90,1505419080811169336,world,1.41337454319,0.0812699273229,-2.00578022003,0.409426242113,0.133907273412,0.898242652416,-0.0871730595827
1505419080820617045,91,1505419080820439077,world,1.41341781616,0.0812411755323,-2.00585198402,0.409455031157,0.133890703321,0.89822691679,-0.0872249528766
1505419080830844700,92,1505419080830706020,world,1.41337072849,0.081255607307,-2.00579667091,0.409326821566,0.133983954787,0.89825963974,-0.0873466208577
1505419080841242860,93,1505419080841044029,world,1.41336524487,0.0812818259001,-2.00577616692,0.409303158522,0.133948400617,0.898273527622,-0.0873692557216
1505419080850428781,94,1505419080850264431,world,1.41337954998,0.0812551751733,-2.00578403473,0.409378230572,0.133873701096,0.898266971111,-0.0871997997165
1505419080860676322,95,1505419080860526791,world,1.41340065002,0.0812212526798,-2.00579118729,0.409367531538,0.133892342448,0.898268043995,-0.0872094929218
1505419080871041879,96,1505419080870878235,world,1.41340231895,0.0813056975603,-2.0058093071,0.409391880035,0.134065449238,0.898235142231,-0.0871684923768
1505419080880247541,97,1505419080880095610,world,1.41348063946,0.0812449082732,-2.00586342812,0.409583866596,0.133799374104,0.898190200329,-0.0871387794614
1505419080890493756,98,1505419080890344059,world,1.41337656975,0.0812602043152,-2.0057926178,0.409340202808,0.134045705199,0.898244917393,-0.0873415246606
1505419080900763605,99,1505419080900579507,world,1.4134503603,0.0812885761261,-2.00583004951,0.409544110298,0.133927717805,0.898188591003,-0.0871455222368
1505419080911043362,100,1505419080910944490,world,1.41339302063,0.0813037753105,-2.00579118729,0.409335464239,0.13398014009,0.898266732693,-0.087238535285
1505419080920288188,101,1505419080920137195,world,1.41342484951,0.0812449678779,-2.00581598282,0.40944096446,0.133989021182,0.89822858572,-0.0871235430241
1505419080930927921,102,1505419080930420436,world,1.41337561607,0.081307053566,-2.00582504272,0.409278780222,0.134074166417,0.898264348507,-0.0873850733042
1505419080940806504,103,1505419080940661885,world,1.41345882416,0.0812209621072,-2.00582718849,0.409492224455,0.13378688693,0.898232996464,-0.0871468558908
1505419080951055387,104,1505419080950889749,world,1.41337060928,0.0812806487083,-2.00581240654,0.409306168556,0.13403429091,0.898260772228,-0.087354592979
1505419080961210147,105,1505419080961089333,world,1.41341769695,0.0812528133392,-2.0058119297,0.409496277571,0.133803039789,0.898229718208,-0.0871379226446
1505419080970625409,106,1505419080970365294,world,1.41334700584,0.0813062861562,-2.00578451157,0.409362703562,0.133944779634,0.898243129253,-0.0874084979296
1505419080980814844,107,1505419080980632269,world,1.41341543198,0.0812550857663,-2.00582957268,0.409467726946,0.133890658617,0.898229122162,-0.0871431231499
1505419080991038515,108,1505419080990915344,world,1.41335725784,0.0812369808555,-2.00577259064,0.409281283617,0.133963301778,0.898296713829,-0.087210290134
1505419081000465586,109,1505419081000315315,world,1.41337168217,0.0812569335103,-2.00573778152,0.409274041653,0.13400067389,0.898298859596,-0.0871648266912
1505419081010780081,110,1505419081010566302,world,1.41338384151,0.0812975689769,-2.0057914257,0.409373134375,0.13394536078,0.898258388042,-0.0872018933296
1505419081021025414,111,1505419081020855475,world,1.41337633133,0.081286020577,-2.00579547882,0.409401208162,0.134014233947,0.898227512836,-0.087282679975
1505419081031369316,112,1505419081031167044,world,1.41338253021,0.0812974125147,-2.00576424599,0.40942800045,0.13392777741,0.8982385993,-0.0871750190854
1505419081040650487,113,1505419081040445987,world,1.41347646713,0.0812319740653,-2.00587368011,0.409567296505,0.133811607957,0.898197174072,-0.0871256440878
1505419081050909513,114,1505419081050719319,world,1.41337287426,0.0812516957521,-2.00581240654,0.409367620945,0.133976191282,0.898237526417,-0.0873941928148
1505419081061071213,115,1505419081060965173,world,1.41340470314,0.0812422484159,-2.00578022003,0.409484237432,0.133799165487,0.898229181767,-0.0872051939368
1505419081070334533,116,1505419081070172741,world,1.41341459751,0.0812843739986,-2.00584363937,0.409423083067,0.13388864696,0.898235023022,-0.0872954428196
1505419081080651494,117,1505419081080453732,world,1.41339659691,0.0812768936157,-2.00577712059,0.409386247396,0.133781418204,0.898269534111,-0.0872763544321
1505419081090920201,118,1505419081090705973,world,1.41347038746,0.0812467187643,-2.00583600998,0.409502595663,0.133865460753,0.898218095303,-0.0871317312121
1505419081101059273,119,1505419081100965568,world,1.41339528561,0.0812862962484,-2.00577783585,0.409471839666,0.133843705058,0.898230135441,-0.0871849358082
1505419081110273050,120,1505419081110109290,world,1.4133746624,0.0812798067927,-2.00580000877,0.409343391657,0.134022042155,0.898248553276,-0.0873251855373
1505419081120569569,121,1505419081120378961,world,1.41342484951,0.0812630131841,-2.00582075119,0.409493923187,0.133844077587,0.898222327232,-0.0871610343456
1505419081130993132,122,1505419081130656703,world,1.41343176365,0.0812587738037,-2.00583338737,0.409542769194,0.13381549716,0.898193717003,-0.0872714146972
1505419081141105403,123,1505419081140933388,world,1.41343390942,0.0812724158168,-2.00581645966,0.409546941519,0.133849367499,0.898195981979,-0.087176464498
1505419081150672509,124,1505419081150158826,world,1.41342127323,0.0812360197306,-2.00579738617,0.409513622522,0.133829429746,0.898225545883,-0.087057814002
1505419081160609456,125,1505419081160436829,world,1.41340744495,0.0812307223678,-2.00578737259,0.409473717213,0.133860871196,0.898233413696,-0.0871162712574
1505419081170900467,126,1505419081170709793,world,1.41342103481,0.0812225043774,-2.00581765175,0.409470319748,0.133778303862,0.89824205637,-0.0871697589755
1505419081181067340,127,1505419081180925911,world,1.41338825226,0.0812734887004,-2.00577330589,0.409444540739,0.133815452456,0.898241996765,-0.0872351974249
1505419081190370327,128,1505419081190077523,world,1.41339194775,0.0812626257539,-2.0057618618,0.409414708614,0.1338724792,0.898257493973,-0.0871276110411
1505419081200615578,129,1505419081200436728,world,1.41339743137,0.0812767520547,-2.0058054924,0.409502595663,0.133872687817,0.898203611374,-0.0872695818543
1505419081210961533,130,1505419081210760934,world,1.41336989403,0.0812830924988,-2.0058324337,0.409305661917,0.134139150381,0.898247122765,-0.0873365625739
1505419081221175374,131,1505419081221025725,world,1.4134594202,0.0812048092484,-2.00584101677,0.409515500069,0.133757412434,0.898228883743,-0.0871252864599
1505419081230425786,132,1505419081230259843,world,1.41341674328,0.0812909379601,-2.00578165054,0.409477084875,0.133899241686,0.898210406303,-0.0872785672545
1505419081240782596,133,1505419081240597732,world,1.41338229179,0.081304423511,-2.00579166412,0.409395694733,0.13397282362,0.898238182068,-0.0872616320848
1505419081251034708,134,1505419081250910906,world,1.41334116459,0.0813151597977,-2.00578904152,0.409260332584,0.134085685015,0.898268938065,-0.0874065384269
1505419081260328915,135,1505419081260116489,world,1.41339790821,0.0812445804477,-2.00581216812,0.409344851971,0.134013533592,0.898261845112,-0.0871937721968
1505419081280941005,136,1505419081280661788,world,1.41343092918,0.081227876246,-2.00580716133,0.409432023764,0.133801445365,0.898259460926,-0.0871343016624
1505419081280954741,137,1505419081280721788,world,1.41342878342,0.0812327116728,-2.00581932068,0.409438580275,0.133866980672,0.898243784904,-0.0871649309993
1505419081291184140,138,1505419081291040383,world,1.41340994835,0.0812980830669,-2.00583124161,0.409391313791,0.134032323956,0.89823102951,-0.0872645303607
1505419081310912764,139,1505419081310512259,world,1.41344106197,0.0812613666058,-2.00579500198,0.409459084272,0.133846908808,0.898239910603,-0.0871397852898
1505419081310916434,140,1505419081310530129,world,1.41339123249,0.081307888031,-2.00578212738,0.409409284592,0.133974865079,0.89823025465,-0.0872768238187
1505419081320972640,141,1505419081320814873,world,1.41341781616,0.0812766179442,-2.00580811501,0.409439712763,0.13395011425,0.898227453232,-0.087201051414
1505419081340599927,142,1505419081340306222,world,1.413423419,0.0812371745706,-2.00584435463,0.409317731857,0.134069591761,0.898265838623,-0.087194159627
1505419081340605033,143,1505419081340325229,world,1.41340970993,0.0812880545855,-2.00578904152,0.409471213818,0.134032934904,0.898198127747,-0.0872279256582
1505419081351008050,144,1505419081350561427,world,1.41333901882,0.0813214927912,-2.00575852394,0.4092489779,0.13413657248,0.898275673389,-0.0873116999865
1505419081370999107,145,1505419081370253207,world,1.41334199905,0.0813147351146,-2.00577902794,0.409261256456,0.134077936411,0.898276627064,-0.0873359069228
1505419081371006840,146,1505419081370300241,world,1.41345643997,0.0812257379293,-2.0058016777,0.409542024136,0.133751571178,0.898220062256,-0.087101444602
1505419081380846793,147,1505419081380561992,world,1.4134478569,0.0812089666724,-2.00586128235,0.409567266703,0.133705630898,0.898210823536,-0.0871481150389
1505419081401257025,148,1505419081401030694,world,1.41336107254,0.081298276782,-2.00579071045,0.409164011478,0.134259596467,0.89830070734,-0.0872637480497
1505419081401268980,149,1505419081401119949,world,1.41344487667,0.0812044814229,-2.00580453873,0.409434050322,0.133820697665,0.898250222206,-0.0871916115284
1505419081410787327,150,1505419081410354045,world,1.41343724728,0.0812333449721,-2.005838871,0.409502118826,0.133747160435,0.898224949837,-0.0872447341681
1505419081431241996,151,1505419081430823457,world,1.41339242458,0.0812677443027,-2.00582456589,0.409390956163,0.133890524507,0.898246765137,-0.0873215794563
1505419081431246539,152,1505419081430841373,world,1.41343212128,0.0812314152718,-2.00581860542,0.40940836072,0.133966863155,0.898244261742,-0.0871487483382
1505419081441189198,153,1505419081441029567,world,1.41345047951,0.0812149047852,-2.00582909584,0.409502089024,0.133818969131,0.898227572441,-0.0871080979705
1505419081460769031,154,1505419081460521555,world,1.41338348389,0.0813008397818,-2.00577259064,0.409368008375,0.13394190371,0.898256003857,-0.0872559100389
1505419081460789687,155,1505419081460581750,world,1.41341555119,0.0812704563141,-2.00578737259,0.409488916397,0.133899450302,0.89821010828,-0.0872262343764
1505419081471249674,156,1505419081471005994,world,1.41340649128,0.0812362506986,-2.00580406189,0.409459322691,0.13389249146,0.898230016232,-0.0871709063649
1505419081491039713,157,1505419081490507034,world,1.41337347031,0.0813007950783,-2.00580692291,0.409283339977,0.134034395218,0.898281157017,-0.0872513055801
1505419081491045010,158,1505419081490525259,world,1.41339862347,0.0812630802393,-2.00580191612,0.409444123507,0.133884310722,0.898230314255,-0.0872518494725
1505419081501183642,159,1505419081501041745,world,1.41343784332,0.0812243595719,-2.00580453873,0.409431308508,0.133922621608,0.898238837719,-0.0871642306447
1505419081520752516,160,1505419081520553108,world,1.41335368156,0.0813196823001,-2.00579714775,0.409338414669,0.134079098701,0.898234188557,-0.0874081403017
1505419081520792393,161,1505419081520630771,world,1.41346633434,0.0812271237373,-2.00587201118,0.409541875124,0.133808732033,0.898206889629,-0.08714992553
1505419081531180864,162,1505419081530954734,world,1.41335701942,0.0812250822783,-2.00577974319,0.40926489234,0.133949398994,0.898307740688,-0.0871954709291
1505419081550676559,163,1505419081550477623,world,1.41342103481,0.0812589973211,-2.00582432747,0.409492045641,0.133932933211,0.898204982281,-0.0872133225203
1505419081550680914,164,1505419081550529344,world,1.41340231895,0.0812941864133,-2.00578808784,0.409445106983,0.133970811963,0.898214280605,-0.0872790142894
1505419081560883537,165,1505419081560760533,world,1.41341269016,0.081250205636,-2.0058157444,0.409441977739,0.133992880583,0.898218214512,-0.0872190818191
1505419081571246094,166,1505419081571033939,world,1.41335201263,0.0812841057777,-2.00573897362,0.409272134304,0.133996933699,0.898293673992,-0.0872327908874
1505419081580484069,167,1505419081580312029,world,1.41337180138,0.0813035443425,-2.00579380989,0.409346014261,0.133846327662,0.898274958134,-0.0873103961349
1505419081590977717,168,1505419081590607291,world,1.41340816021,0.0812999457121,-2.00584411621,0.409416973591,0.133974954486,0.89821690321,-0.0873782113194
1505419081611404018,169,1505419081611114132,world,1.41339373589,0.0812548100948,-2.00577688217,0.409434497356,0.133870705962,0.898237645626,-0.0872414857149
1505419081611407851,170,1505419081611187307,world,1.41336476803,0.0812570229173,-2.00579214096,0.409247636795,0.134042993188,0.898306369781,-0.0871464312077
1505419081620716136,171,1505419081620558691,world,1.41335463524,0.081254132092,-2.00578927994,0.409286111593,0.133974775672,0.898281335831,-0.0873287022114
1505419081631095539,172,1505419081630847783,world,1.41338551044,0.0812811106443,-2.0057311058,0.40949678421,0.133878186345,0.898219764233,-0.0871228724718
1505419081641305197,173,1505419081641125088,world,1.41335761547,0.0813120603561,-2.00578713417,0.409254670143,0.134093210101,0.898294389248,-0.0871600061655
1505419081650893066,174,1505419081650378562,world,1.41339039803,0.0812476426363,-2.00577878952,0.409400671721,0.13389518857,0.898265600204,-0.0870748385787
1505419081671213660,175,1505419081670879232,world,1.41340470314,0.0812387168407,-2.0057759285,0.409412205219,0.133882001042,0.898246884346,-0.0872343033552
1505419081671218982,176,1505419081670957059,world,1.41343796253,0.0812428146601,-2.00583434105,0.40955632925,0.133941546082,0.898182094097,-0.0871333479881
1505419081680500109,177,1505419081680310111,world,1.41338801384,0.081270582974,-2.00580024719,0.409370064735,0.133934035897,0.8982462883,-0.0873576253653
1505419081700952161,178,1505419081700752533,world,1.41338038445,0.0812635421753,-2.00580978394,0.409372717142,0.133998125792,0.898258268833,-0.0871238186955
1505419081700964147,179,1505419081700770229,world,1.41342461109,0.081273958087,-2.00582718849,0.40950357914,0.133871808648,0.898212790489,-0.087172023952
1505419081711298289,180,1505419081711074060,world,1.4134106636,0.0812290161848,-2.00584197044,0.409479677677,0.133840411901,0.898220360279,-0.0872549787164
1505419081731018756,181,1505419081730597542,world,1.41345703602,0.0812087655067,-2.0058119297,0.409564882517,0.133674412966,0.898218870163,-0.0871246680617
1505419081731022683,182,1505419081730616989,world,1.41337954998,0.081309877336,-2.00578641891,0.409453481436,0.133957698941,0.89821177721,-0.0872856304049
1505419081741082582,183,1505419081740924691,world,1.41330897808,0.0813727453351,-2.00574564934,0.409222245216,0.134181246161,0.898269593716,-0.0874309390783
1505419081760582355,184,1505419081760368526,world,1.41344571114,0.0812303870916,-2.0058350563,0.409473419189,0.133796960115,0.898249387741,-0.087051667273
1505419081760593665,185,1505419081760402374,world,1.41340565681,0.0812700614333,-2.00580191612,0.409411162138,0.134037390351,0.898233652115,-0.0871368274093
1505419081771128600,186,1505419081770988103,world,1.41338288784,0.0812839120626,-2.00576138496,0.409379392862,0.133920997381,0.898251712322,-0.0872790664434
1505419081791040693,187,1505419081790473621,world,1.41332817078,0.0813641473651,-2.00578212738,0.409213125706,0.134251400828,0.898254215717,-0.0875250771642
1505419081791049773,188,1505419081790490587,world,1.41345882416,0.0812473669648,-2.00578641891,0.409616172314,0.133761495352,0.898184895515,-0.0870989486575
1505419081801007515,189,1505419081800816775,world,1.41340649128,0.0812923908234,-2.00580644608,0.409428656101,0.133841142058,0.898244261742,-0.0872464999557
1505419081811312822,190,1505419081811058337,world,1.41345524788,0.0812503397465,-2.00584721565,0.409626632929,0.133809715509,0.898166239262,-0.0871687904
1505419081820509509,191,1505419081820349920,world,1.41334605217,0.0812642276287,-2.00573515892,0.409286677837,0.13401041925,0.898280799389,-0.0872761979699
1505419081830881109,192,1505419081830644205,world,1.41339290142,0.0812809765339,-2.00576782227,0.409345805645,0.133963733912,0.89825874567,-0.0872978046536
1505419081841192986,193,1505419081840949570,world,1.41343486309,0.0812869891524,-2.00575447083,0.409453034401,0.133924305439,0.898240506649,-0.087042786181
1505419081860627586,194,1505419081860384166,world,1.41338980198,0.0812882632017,-2.00574374199,0.409360706806,0.134052813053,0.89825117588,-0.0871688872576
1505419081860634623,195,1505419081860400452,world,1.41338539124,0.0813356488943,-2.0057694912,0.409405559301,0.133983403444,0.898232400417,-0.0872584506869
1505419081870893737,196,1505419081870659290,world,1.41338455677,0.0812866091728,-2.00576591492,0.409313440323,0.134052231908,0.898278832436,-0.0871069654822
1505419081881095342,197,1505419081880949339,world,1.41338658333,0.0812474563718,-2.00580310822,0.409294933081,0.134047955275,0.898267686367,-0.0873153880239
1505419081890880990,198,1505419081890202199,world,1.4134529829,0.0812420770526,-2.00579071045,0.409476846457,0.133724316955,0.898251354694,-0.0871260613203
1505419081900589462,199,1505419081900485579,world,1.41343319416,0.0812577605247,-2.0058221817,0.409432470798,0.133895218372,0.898237466812,-0.0872161462903
1505419081921229708,200,1505419081921073161,world,1.41338026524,0.0812991112471,-2.00578355789,0.409321755171,0.134053975344,0.898259222507,-0.0872672572732
1505419081921234179,201,1505419081921109702,world,1.41341900826,0.0812788009644,-2.00579166412,0.409439235926,0.133858844638,0.898247599602,-0.0871355682611
1505419081930659020,202,1505419081930463176,world,1.41342794895,0.0812417268753,-2.00578022003,0.409362584352,0.133865073323,0.898277282715,-0.0871793329716
1505419081951116729,203,1505419081950920429,world,1.41345345974,0.0812331438065,-2.00583767891,0.409573256969,0.133834794164,0.898177921772,-0.0872596427798
1505419081951120243,204,1505419081950938434,world,1.41334545612,0.0813186839223,-2.00576615334,0.409200489521,0.13421960175,0.898278474808,-0.0873838365078
1505419081960260750,205,1505419081960122020,world,1.41338348389,0.0813093110919,-2.00577569008,0.409425973892,0.133965358138,0.898222863674,-0.0872885659337
1505419081980870953,206,1505419081980613502,world,1.41337549686,0.0813209339976,-2.00573444366,0.409453928471,0.133876621723,0.898228287697,-0.0872385799885
1505419081980878453,207,1505419081980684754,world,1.41334700584,0.0812701582909,-2.00576663017,0.409290462732,0.134130552411,0.898262917995,-0.0872584581375
1505419081991101697,208,1505419081990887602,world,1.41341221333,0.081245072186,-2.00583839417,0.409465491772,0.133845984936,0.898226439953,-0.087249994278
1505419082001279999,209,1505419082001142305,world,1.41339480877,0.0812761560082,-2.005828619,0.409420311451,0.133905142546,0.898230195045,-0.0873319283128
1505419082010868642,210,1505419082010528552,world,1.41350293159,0.0811726301908,-2.00581550598,0.409537047148,0.133677259088,0.898245871067,-0.0869717150927
1505419082020958548,211,1505419082020798482,world,1.41338610649,0.0813052356243,-2.00577116013,0.409412533045,0.133946120739,0.898244917393,-0.0871544703841
1505419082031263007,212,1505419082031061122,world,1.41341388226,0.081297814846,-2.00584292412,0.409448027611,0.133977085352,0.898210167885,-0.087298117578
1505419082040536650,213,1505419082040329024,world,1.41339290142,0.0812061950564,-2.005828619,0.409404247999,0.133820682764,0.898250639439,-0.0873260572553
1505419082050855043,214,1505419082050565518,world,1.41342651844,0.081249050796,-2.00583934784,0.409387558699,0.134020552039,0.898239254951,-0.0872153863311
1505419082071237636,215,1505419082071032859,world,1.41344559193,0.0812508314848,-2.00580072403,0.409542888403,0.133621513844,0.898236036301,-0.0871313139796
1505419082071258816,216,1505419082071057075,world,1.41343569756,0.081214427948,-2.00584888458,0.40940207243,0.13395768404,0.898243546486,-0.0871995091438
1505419082080526323,217,1505419082080363714,world,1.41341507435,0.0812543258071,-2.00584959984,0.409366250038,0.133943244815,0.898258507252,-0.0872364938259
1505419082101007587,218,1505419082100813973,world,1.41340076923,0.0812547206879,-2.00583434105,0.409336894751,0.133899211884,0.89827221632,-0.0872997269034
1505419082101044443,219,1505419082100871939,world,1.41340994835,0.0812287256122,-2.00586152077,0.40937179327,0.133977547288,0.898245811462,-0.0872875601053
1505419082110245659,220,1505419082110105028,world,1.41344022751,0.0812306851149,-2.00584793091,0.409521311522,0.133825272322,0.89820766449,-0.0872132629156
1505419082120434846,221,1505419082120280343,world,1.41340184212,0.0812802761793,-2.0057721138,0.40943685174,0.133877903223,0.89824205637,-0.0871741399169
1505419082130653100,222,1505419082130507885,world,1.41339564323,0.0812735930085,-2.00580787659,0.409324258566,0.134034082294,0.898254394531,-0.0873367711902
1505419082141007814,223,1505419082140852905,world,1.41339480877,0.0812835991383,-2.00582933426,0.409362822771,0.134048104286,0.898238301277,-0.087299823761
1505419082151311872,224,1505419082151135211,world,1.41334915161,0.081314355135,-2.0058028698,0.409248322248,0.134155347943,0.89827144146,-0.087330467999
1505419082160491733,225,1505419082160341387,world,1.41344952583,0.0811965614557,-2.00585079193,0.40955477953,0.133651003242,0.898222446442,-0.0871708840132
1505419082170917413,226,1505419082170572780,world,1.41341757774,0.0812977552414,-2.00577449799,0.409472882748,0.133974328637,0.898212492466,-0.0871616601944
1505419082181277053,227,1505419082181056501,world,1.41336762905,0.0812874063849,-2.00581932068,0.409326732159,0.134058460593,0.898254692554,-0.0872837454081
1505419082190658757,228,1505419082190307672,world,1.41339325905,0.0812696292996,-2.00579357147,0.409410089254,0.133801758289,0.898263275623,-0.0871985405684
1505419082200843419,229,1505419082200642884,world,1.41339063644,0.0812906622887,-2.00577688217,0.409457921982,0.133895903826,0.898230016232,-0.0871723368764
1505419082211168354,230,1505419082210956308,world,1.41343665123,0.0812334939837,-2.00580739975,0.409521967173,0.133857190609,0.898218989372,-0.0870437249541
1505419082220358340,231,1505419082220159246,world,1.413443923,0.0812226086855,-2.0058465004,0.40944904089,0.133875980973,0.89823448658,-0.0871983841062
1505419082230564162,232,1505419082230414752,world,1.41348266602,0.0812442600727,-2.00585126877,0.409542173147,0.1338018924,0.89821857214,-0.087038256228
1505419082240837442,233,1505419082240672280,world,1.41339433193,0.0812995657325,-2.00579023361,0.409416913986,0.133985474706,0.898224771023,-0.0872814357281
1505419082251085099,234,1505419082250950292,world,1.41340851784,0.0812592506409,-2.00577712059,0.409431129694,0.133836820722,0.898258984089,-0.0870898216963
1505419082260222293,235,1505419082260097012,world,1.41341722012,0.0812700092793,-2.00580000877,0.409413844347,0.133881300688,0.898237168789,-0.0873268693686
1505419082270433745,236,1505419082270277754,world,1.41335391998,0.0812769532204,-2.00581932068,0.409350007772,0.134068220854,0.898238778114,-0.0873228237033
1505419082280681686,237,1505419082280565913,world,1.41340017319,0.0812745466828,-2.00581121445,0.409380078316,0.133968576789,0.898247301579,-0.0872473716736
1505419082290959379,238,1505419082290794586,world,1.413408041,0.0812602192163,-2.00581502914,0.40943518281,0.133904084563,0.898229837418,-0.087268024683
1505419082301274282,239,1505419082301087661,world,1.41337656975,0.0812954604626,-2.00574374199,0.409463822842,0.133874490857,0.898228943348,-0.0871880576015
1505419082310555792,240,1505419082310360051,world,1.413402915,0.081291474402,-2.00580596924,0.40945032239,0.133833289146,0.898235201836,-0.0872498452663
1505419082320857696,241,1505419082320675817,world,1.41345500946,0.0812137573957,-2.00583195686,0.409538537264,0.133872166276,0.898204922676,-0.0870880559087
1505419082331142485,242,1505419082330953631,world,1.41343379021,0.0812213718891,-2.00580430031,0.409509181976,0.133872956038,0.898218214512,-0.0870876163244
1505419082340330487,243,1505419082340193002,world,1.41345906258,0.0812197029591,-2.00586843491,0.409518420696,0.133915781975,0.898201227188,-0.0871535465121
1505419082350503092,244,1505419082350423506,world,1.41343891621,0.0812173336744,-2.00577759743,0.409519314766,0.133769363165,0.898224890232,-0.0871303528547
1505419082361068300,245,1505419082360883174,world,1.41334724426,0.0812876671553,-2.0058054924,0.409296542406,0.134032160044,0.898261725903,-0.087393142283
1505419082370230181,246,1505419082370109955,world,1.41336369514,0.0813030079007,-2.00579881668,0.409312993288,0.134029552341,0.898267328739,-0.0872622802854
1505419082380522826,247,1505419082380363191,world,1.41343951225,0.0812255442142,-2.00581717491,0.409479230642,0.13392084837,0.898220002651,-0.0871364995837
1505419082390744479,248,1505419082390633410,world,1.41344356537,0.0812454968691,-2.00581407547,0.409342736006,0.133950307965,0.898268401623,-0.087233774364
1505419082401041290,249,1505419082400907583,world,1.41340267658,0.0812810435891,-2.00577235222,0.409479796886,0.133788377047,0.898234069347,-0.0871920585632
1505419082410361243,250,1505419082410127105,world,1.41337895393,0.081315331161,-2.00577425957,0.409249335527,0.1342035532,0.898269355297,-0.08727324754
1505419082420509858,251,1505419082420348670,world,1.41343772411,0.0812802016735,-2.00584340096,0.409427672625,0.133985236287,0.898226261139,-0.0872159600258
1505419082430837539,252,1505419082430622461,world,1.41337800026,0.0813049301505,-2.00574541092,0.409378498793,0.133926033974,0.898252665997,-0.087264791131
1505419082441078626,253,1505419082440870830,world,1.41343474388,0.0812130793929,-2.00579714775,0.409413278103,0.133832395077,0.898271977901,-0.0870467349887
1505419082451308247,254,1505419082451114087,world,1.41336488724,0.0813074633479,-2.00580525398,0.409411907196,0.133998155594,0.898213684559,-0.0873995572329
1505419082460488678,255,1505419082460404333,world,1.41340219975,0.0812622234225,-2.00573301315,0.409526437521,0.133821457624,0.898215949535,-0.0871095433831
1505419082470825262,256,1505419082470679953,world,1.41338372231,0.0813255608082,-2.00576519966,0.409339934587,0.13398489356,0.898261129856,-0.0872680768371
1505419082481082365,257,1505419082480970362,world,1.4133810997,0.0813230797648,-2.00580072403,0.409451782703,0.133999332786,0.898208141327,-0.0872676074505
1505419082490277227,258,1505419082490121718,world,1.41344130039,0.0811980739236,-2.00578355789,0.409403026104,0.133925452828,0.898259341717,-0.087082028389
1505419082500572673,259,1505419082500410820,world,1.41335725784,0.081261716783,-2.00579619408,0.409333646297,0.133950814605,0.898266255856,-0.0872980728745
1505419082510867368,260,1505419082510643255,world,1.41345560551,0.0812529027462,-2.0058157444,0.409495592117,0.133795291185,0.898225963116,-0.0871908292174
1505419082521073824,261,1505419082520903149,world,1.41334235668,0.081299751997,-2.00574922562,0.409260362387,0.134176045656,0.898266255856,-0.0872955396771
1505419082531338515,262,1505419082531119043,world,1.413413167,0.0812939479947,-2.00581526756,0.409457981586,0.133856728673,0.898227035999,-0.0872621610761
1505419082540537081,263,1505419082540383264,world,1.41341531277,0.0812746807933,-2.00584197044,0.409373551607,0.134028762579,0.898241281509,-0.0872475877404
1505419082550827449,264,1505419082550656000,world,1.41339576244,0.0812181904912,-2.00577330589,0.409300386906,0.133973166347,0.898292958736,-0.087144933641
1505419082561014252,265,1505419082560883997,world,1.41353273392,0.0811819732189,-2.00588822365,0.409620791674,0.133657202125,0.898203969002,-0.0870413854718
1505419082571422621,266,1505419082571104580,world,1.41339576244,0.0812835618854,-2.0057990551,0.409383684397,0.133908599615,0.89825284481,-0.087265394628
1505419082580546579,267,1505419082580391934,world,1.41338992119,0.0813036486506,-2.00579929352,0.409390211105,0.13401889801,0.898232161999,-0.0872787758708
1505419082590906216,268,1505419082590688117,world,1.41334581375,0.0812943428755,-2.00577282906,0.409343749285,0.133976608515,0.898254930973,-0.087326683104
1505419082601081415,269,1505419082600995741,world,1.41340601444,0.0812615603209,-2.00581789017,0.409401923418,0.133924677968,0.89824026823,-0.0872849076986
1505419082610348319,270,1505419082610246529,world,1.41340863705,0.0812699347734,-2.00579786301,0.409372240305,0.134033501148,0.898248910904,-0.0871677473187
1505419082620543307,271,1505419082620469370,world,1.41339552402,0.0812772884965,-2.00579166412,0.409482330084,0.133867263794,0.898215830326,-0.0872474312782
1505419082630867169,272,1505419082630750001,world,1.41340172291,0.0812915638089,-2.00580358505,0.409405499697,0.133928000927,0.898239850998,-0.0872684642673
1505419082641223438,273,1505419082641020740,world,1.41336226463,0.0813019871712,-2.00581526756,0.409348934889,0.134084656835,0.898238301277,-0.087307818234
1505419082650499218,274,1505419082650327814,world,1.41338598728,0.0812334567308,-2.00579309464,0.409339636564,0.133920699358,0.898274421692,-0.0872316882014
1505419082660771381,275,1505419082660571257,world,1.41333723068,0.0812762156129,-2.00578117371,0.40924346447,0.134119838476,0.898279130459,-0.0873281881213
1505419082671055410,276,1505419082670876696,world,1.41340613365,0.0812697634101,-2.00582146645,0.409424543381,0.133873820305,0.898231565952,-0.0873465910554
1505419082681267127,277,1505419082681142147,world,1.41338741779,0.0812707841396,-2.0057888031,0.409335553646,0.134073257446,0.898256242275,-0.0872038528323
1505419082690487600,278,1505419082690343455,world,1.4133682251,0.0813034027815,-2.0057694912,0.409366339445,0.133949220181,0.898256480694,-0.0872470065951
1505419082700900535,279,1505419082700716168,world,1.41341519356,0.0812775865197,-2.00582933426,0.409483969212,0.133947014809,0.898206233978,-0.0872165933251
1505419082711104335,280,1505419082710963586,world,1.4133425951,0.0812835469842,-2.00575327873,0.409178972244,0.134180322289,0.898305118084,-0.0872696861625
1505419082730991052,281,1505419082730580691,world,1.4134708643,0.0811766460538,-2.00582337379,0.409596890211,0.133576229215,0.89822280407,-0.087084017694
1505419082731010490,282,1505419082730653745,world,1.41340553761,0.0813122168183,-2.00577759743,0.409276336432,0.134062498808,0.89829492569,-0.0870999470353
1505419082741129161,283,1505419082740938459,world,1.41335225105,0.0813207924366,-2.00576734543,0.409352779388,0.134080559015,0.898243486881,-0.0872435495257
1505419082760576739,284,1505419082760386815,world,1.41339349747,0.0812613517046,-2.0057914257,0.409370362759,0.133930459619,0.898265302181,-0.0871662124991
1505419082760585130,285,1505419082760408640,world,1.41342246532,0.0812554880977,-2.00583696365,0.409476518631,0.133925929666,0.898215591908,-0.0871865451336
1505419082771045479,286,1505419082770803036,world,1.41341984272,0.0812513977289,-2.00579833984,0.409510880709,0.133861914277,0.898212313652,-0.0871583744884
1505419082790649828,287,1505419082790303645,world,1.41338396072,0.0812772810459,-2.00579977036,0.409316062927,0.134072631598,0.898258268833,-0.0872756838799
1505419082790699108,288,1505419082790320604,world,1.41345822811,0.0812521874905,-2.00577902794,0.409642547369,0.133522763848,0.898210167885,-0.0870813503861
1505419082800928218,289,1505419082800625590,world,1.41341924667,0.0812809765339,-2.00577092171,0.409412413836,0.13399040699,0.898242652416,-0.0871101915836
1505419082811133053,290,1505419082810848745,world,1.41337227821,0.0813081935048,-2.00574445724,0.40946739912,0.133886143565,0.898221313953,-0.0872324630618
1505419082821178827,291,1505419082821082228,world,1.41338503361,0.0812881141901,-2.00583171844,0.409360647202,0.134120374918,0.898221433163,-0.0873715132475
1505419082830544232,292,1505419082830345361,world,1.41342389584,0.0811994075775,-2.00583600998,0.409392565489,0.133887305856,0.898264586926,-0.0871355906129
1505419082851310705,293,1505419082850830957,world,1.41343581676,0.0812725126743,-2.00579214096,0.409481912851,0.133849874139,0.898225486279,-0.0871766358614
1505419082851327336,294,1505419082850986413,world,1.41342294216,0.0812825784087,-2.0057926178,0.409449398518,0.133945092559,0.89823102951,-0.0871264412999
1505419082860412743,295,1505419082860206089,world,1.41336762905,0.0812794268131,-2.00578546524,0.409289598465,0.134052306414,0.898266494274,-0.0873459205031
1505419082880987820,296,1505419082880770069,world,1.41344749928,0.0812389329076,-2.00582456589,0.409454196692,0.133864402771,0.898235559464,-0.0871803238988
1505419082881017773,297,1505419082880844513,world,1.41340267658,0.081281259656,-2.00579929352,0.409414231777,0.133991420269,0.898233473301,-0.0871944949031
1505419082891259336,298,1505419082891111647,world,1.4134209156,0.0812693759799,-2.00581145287,0.409414947033,0.133973553777,0.898235797882,-0.0871949270368
1505419082900632440,299,1505419082900471648,world,1.41341865063,0.0812909677625,-2.00581717491,0.409409016371,0.133986309171,0.898227274418,-0.0872908681631
1505419082910881019,300,1505419082910728724,world,1.41337621212,0.0812868922949,-2.00579190254,0.409380882978,0.133990228176,0.898242115974,-0.0872643217444
1505419082921178738,301,1505419082921005359,world,1.41335189342,0.0813321396708,-2.00575613976,0.409281641245,0.134063899517,0.89827477932,-0.087280318141
1505419082930541538,302,1505419082930281394,world,1.4134016037,0.0812590271235,-2.00581264496,0.409407734871,0.133995935321,0.898231863976,-0.0872348025441
1505419082940709190,303,1505419082940572920,world,1.413372159,0.0812764316797,-2.00579714775,0.409346848726,0.13407856226,0.898240804672,-0.0873010233045
1505419082951062167,304,1505419082950854121,world,1.41343808174,0.0812703371048,-2.0058119297,0.409457683563,0.133854180574,0.898235440254,-0.0871811062098
1505419082960234501,305,1505419082960142318,world,1.41338717937,0.081274472177,-2.00580692291,0.409384131432,0.133978381753,0.898243367672,-0.0872550085187
1505419082970674463,306,1505419082970395415,world,1.41337811947,0.0812811329961,-2.00578713417,0.409480422735,0.133958250284,0.898202419281,-0.0872546508908
1505419082980804475,307,1505419082980673072,world,1.41336262226,0.081306360662,-2.0057926178,0.409224897623,0.134113639593,0.89829069376,-0.0873059332371
1505419082991047400,308,1505419082990901027,world,1.413423419,0.0812328606844,-2.0058157444,0.409403681755,0.133919134736,0.898247599602,-0.0872099846601
1505419083001306556,309,1505419083001158903,world,1.41342329979,0.0812527984381,-2.00581026077,0.409414798021,0.1339879632,0.898240327835,-0.0871273726225
1505419083010590742,310,1505419083010413947,world,1.41338419914,0.0812868997455,-2.00580620766,0.409324795008,0.134111896157,0.898250699043,-0.0872513651848
1505419083020836730,311,1505419083020673459,world,1.41340053082,0.0812625586987,-2.00580263138,0.409462660551,0.133875697851,0.898228287697,-0.0871991068125
1505419083031276756,312,1505419083030928102,world,1.41343021393,0.0812265500426,-2.00577688217,0.409544020891,0.13373491168,0.898222625256,-0.0870911031961
1505419083040277565,313,1505419083040115426,world,1.41332948208,0.0813112184405,-2.0057554245,0.409173160791,0.134196400642,0.898301422596,-0.0873109102249
1505419083050551142,314,1505419083050379416,world,1.41340684891,0.0812751352787,-2.00584053993,0.409398555756,0.134032398462,0.898211359978,-0.0874331519008
1505419083060782688,315,1505419083060615048,world,1.4134042263,0.0813194364309,-2.0057656765,0.409405320883,0.133986517787,0.898225903511,-0.0873220190406
1505419083071077377,316,1505419083070924273,world,1.41339051723,0.0812430009246,-2.00578904152,0.409337282181,0.133937120438,0.898271918297,-0.0872434005141
1505419083080418551,317,1505419083080259926,world,1.41340744495,0.0812899544835,-2.00580000877,0.409429699183,0.133848890662,0.898240745068,-0.0872665569186
1505419083090826798,318,1505419083090519624,world,1.413397789,0.0813161358237,-2.00578069687,0.409387916327,0.134018361568,0.898227334023,-0.0873404294252
1505419083101047097,319,1505419083100878051,world,1.41341733932,0.0812464430928,-2.00580096245,0.409471392632,0.133878216147,0.898226976395,-0.087167173624
1505419083111375279,320,1505419083111181008,world,1.4133657217,0.0812717676163,-2.00579476357,0.40939232707,0.133960306644,0.898231267929,-0.0873681157827
1505419083120624659,321,1505419083120446352,world,1.41338253021,0.0812874659896,-2.00576853752,0.409355700016,0.134044229984,0.89824616909,-0.0872572883964
1505419083130973449,322,1505419083130685755,world,1.41345381737,0.0812270715833,-2.00581550598,0.409551888704,0.133816987276,0.898201167583,-0.0871489793062
1505419083141079141,323,1505419083140943600,world,1.41342282295,0.081277474761,-2.00576710701,0.409481674433,0.133798718452,0.898240149021,-0.0871043279767
1505419083150428189,324,1505419083150227724,world,1.41333055496,0.081302523613,-2.00576281548,0.409268379211,0.134086206555,0.898275077343,-0.0873050615191
1505419083160671076,325,1505419083160468545,world,1.4134837389,0.0812173783779,-2.0058619976,0.409493535757,0.133878394961,0.898226261139,-0.087070338428
1505419083170988808,326,1505419083170784970,world,1.41342735291,0.0812484994531,-2.00580382347,0.409458607435,0.133954688907,0.898220419884,-0.087177567184
1505419083180223143,327,1505419083180108039,world,1.41337239742,0.081306040287,-2.00574731827,0.409340322018,0.133876800537,0.898273766041,-0.0873026624322
1505419083191003056,328,1505419083190342566,world,1.41343843937,0.0812821388245,-2.00579977036,0.409475147724,0.133916065097,0.898225903511,-0.0871016904712
1505419083200760332,329,1505419083200621563,world,1.41341805458,0.0812632590532,-2.00578141212,0.409401416779,0.133953541517,0.898247718811,-0.0871663913131
1505419083211059335,330,1505419083210875050,world,1.41341853142,0.0812503322959,-2.00581431389,0.40941670537,0.133945703506,0.898241341114,-0.087171882391
1505419083221221351,331,1505419083221059108,world,1.4134349823,0.08126693964,-2.00583672523,0.40951615572,0.133963063359,0.898190975189,-0.0871973410249
1505419083230544757,332,1505419083230357256,world,1.41340267658,0.0812744647264,-2.00576972961,0.409381836653,0.134007394314,0.898240447044,-0.0872505754232
1505419083240787661,333,1505419083240590759,world,1.41340529919,0.0812910348177,-2.00579380989,0.409406810999,0.134006664157,0.898235142231,-0.0871886685491
1505419083251061390,334,1505419083250857515,world,1.41347336769,0.0812736079097,-2.00583481789,0.409478485584,0.133838042617,0.898234367371,-0.0871189162135
1505419083260253852,335,1505419083260114590,world,1.41342508793,0.0812242627144,-2.00582003593,0.409438997507,0.133812010288,0.8982437253,-0.0872479528189
1505419083270564317,336,1505419083270401109,world,1.41337287426,0.081274010241,-2.00579357147,0.40924552083,0.134103640914,0.898282885551,-0.0873051732779
1505419083280902190,337,1505419083280702655,world,1.41341006756,0.0812705755234,-2.00581073761,0.409422665834,0.133930817246,0.898234128952,-0.0872414857149
1505419083291304316,338,1505419083290968054,world,1.41340959072,0.0812561959028,-2.00580739975,0.409340202808,0.134012490511,0.898258805275,-0.0872491747141
1505419083300331458,339,1505419083300183562,world,1.41338443756,0.0813169926405,-2.00580811501,0.409303158522,0.134024128318,0.898278295994,-0.0872039422393
1505419083310776014,340,1505419083310453988,world,1.41345000267,0.0812508836389,-2.00585341454,0.409482240677,0.133874610066,0.898212909698,-0.0872666463256
1505419083320886036,341,1505419083320717768,world,1.41341161728,0.0812309756875,-2.00581741333,0.409338057041,0.134090140462,0.898256659508,-0.0871614143252
1505419083331183708,342,1505419083330976191,world,1.4134567976,0.0812402144074,-2.00582265854,0.409533172846,0.133846640587,0.89820510149,-0.0871510505676
1505419083340387661,343,1505419083340219340,world,1.41344726086,0.0812366381288,-2.00578045845,0.40951898694,0.133818805218,0.898224294186,-0.087062574923
1505419083350651918,344,1505419083350490909,world,1.41335320473,0.0813005045056,-2.00577044487,0.40933328867,0.133936911821,0.898266494274,-0.0873181223869
1505419083361112689,345,1505419083360945144,world,1.41335046291,0.0813153609633,-2.00576400757,0.40942594409,0.133912339807,0.89822614193,-0.0873370021582
1505419083370482801,346,1505419083370280873,world,1.41346621513,0.0812181606889,-2.00582838058,0.409478008747,0.133822053671,0.898237168789,-0.0871176570654
1505419083380721897,347,1505419083380554884,world,1.41346561909,0.0812258571386,-2.00586342812,0.409412384033,0.133990556002,0.898234844208,-0.0871904715896
1505419083391034771,348,1505419083390844785,world,1.41342175007,0.0812395513058,-2.00579476357,0.409432083368,0.133898422122,0.898244142532,-0.0871442630887
1505419083400237950,349,1505419083400131950,world,1.41340446472,0.081274472177,-2.00585007668,0.409394979477,0.133984327316,0.898235201836,-0.0872777849436
1505419083410667033,350,1505419083410381144,world,1.41339600086,0.0813177600503,-2.00581693649,0.409445792437,0.133989974856,0.898202419281,-0.0873685255647
1505419083420847993,351,1505419083420689067,world,1.41338813305,0.0812675878406,-2.00578284264,0.409434944391,0.133904337883,0.898229837418,-0.0872684121132
1505419083431131116,352,1505419083430940826,world,1.4133232832,0.0813235417008,-2.00575351715,0.409014165401,0.134281530976,0.898343145847,-0.087495110929
1505419083440310367,353,1505419083440136809,world,1.41337907314,0.0813141614199,-2.0057721138,0.4093708992,0.134053573012,0.898243844509,-0.087195456028
1505419083450531316,354,1505419083450380530,world,1.41347253323,0.0811902657151,-2.00590252876,0.409462243319,0.133946299553,0.898224055767,-0.0871360599995
1505419083460802579,355,1505419083460660251,world,1.41340386868,0.0812721401453,-2.00583863258,0.40939244628,0.133986487985,0.898239254951,-0.087244771421
1505419083471155784,356,1505419083470989037,world,1.41336905956,0.0813181474805,-2.00582480431,0.409405231476,0.13410165906,0.898202300072,-0.0873878449202
1505419083480443795,357,1505419083480268669,world,1.41344547272,0.0812117159367,-2.00582695007,0.40950101614,0.133875668049,0.898225963116,-0.0870422795415
1505419083490731222,358,1505419083490520319,world,1.41349899769,0.0812216997147,-2.00586867332,0.409566015005,0.133726328611,0.898214697838,-0.08708216995
1505419083501099381,359,1505419083500912412,world,1.41351795197,0.0811890661716,-2.00590062141,0.409640848637,0.133697390556,0.898191034794,-0.0870185568929
1505419083510209999,360,1505419083510117713,world,1.41343784332,0.0812662094831,-2.00583481789,0.409525156021,0.134039133787,0.898178160191,-0.0871699377894
1505419083520580088,361,1505419083520412584,world,1.41337907314,0.0813139081001,-2.00580120087,0.40934202075,0.133985459805,0.898248016834,-0.087392449379
1505419083530867089,362,1505419083530695750,world,1.41342222691,0.0813242942095,-2.00578379631,0.409411132336,0.134054034948,0.898226737976,-0.0871824994683
1505419083541165045,363,1505419083540936030,world,1.41338562965,0.0812522917986,-2.0058157444,0.409332513809,0.13404019177,0.898248434067,-0.0873495787382
1505419083550252646,364,1505419083550139082,world,1.41343688965,0.0812424272299,-2.00580430031,0.409413039684,0.133922770619,0.898261725903,-0.0870143026114
1505419083560538858,365,1505419083560430711,world,1.41338145733,0.0813074111938,-2.00578808784,0.409283697605,0.133981451392,0.89828813076,-0.0872600823641
1505419083571093725,366,1505419083571039073,world,1.41345655918,0.08121817559,-2.00584149361,0.409476369619,0.133817642927,0.898232579231,-0.0871787965298
1505419083580492019,367,1505419083580289094,world,1.41340613365,0.0812624692917,-2.00582385063,0.409460902214,0.133922696114,0.898216128349,-0.0872593522072
1505419083590891016,368,1505419083590516849,world,1.4134067297,0.0812633112073,-2.00581383705,0.4094222188,0.1339379251,0.898236870766,-0.087204195559
1505419083600999552,369,1505419083600861230,world,1.41342580318,0.08124858886,-2.0058324337,0.409467250109,0.133951991796,0.898212909698,-0.0872186422348
1505419083611300644,370,1505419083611162674,world,1.41340053082,0.0812384933233,-2.00576615334,0.409376502037,0.133897513151,0.89826965332,-0.0871431827545
1505419083620496249,371,1505419083620431384,world,1.41338682175,0.0812991410494,-2.00582337379,0.409351706505,0.134003788233,0.898255467415,-0.087243296206
1505419083630798008,372,1505419083630633190,world,1.41337752342,0.0812808275223,-2.00579571724,0.40938436985,0.133945763111,0.898247122765,-0.087264508009
1505419083640928937,373,1505419083640817847,world,1.41338288784,0.081278167665,-2.00578212738,0.409397035837,0.133970826864,0.898245930672,-0.087177939713
1505419083651191224,374,1505419083651076886,world,1.41333544254,0.0812980011106,-2.00578570366,0.409246653318,0.134049624205,0.898284673691,-0.0873642489314
1505419083660435310,375,1505419083660279406,world,1.41351556778,0.0811778381467,-2.00593066216,0.409664332867,0.133763149381,0.898171365261,-0.0870095640421
1505419083670706854,376,1505419083670555688,world,1.41345572472,0.0812298133969,-2.00588750839,0.409457445145,0.133990123868,0.898216843605,-0.0871643275023
1505419083680959036,377,1505419083680803563,world,1.41348028183,0.0812307968736,-2.00583004951,0.40950769186,0.133874222636,0.898224055767,-0.0870330482721
1505419083691314428,378,1505419083691074738,world,1.41338801384,0.0813074037433,-2.00581622124,0.409330308437,0.134157478809,0.898249149323,-0.0871718972921
1505419083700551310,379,1505419083700387321,world,1.41346645355,0.0812408775091,-2.00586628914,0.409514993429,0.133857101202,0.898214817047,-0.0871200785041
1505419083710837015,380,1505419083710639618,world,1.41339194775,0.0812555402517,-2.00581145287,0.409376233816,0.134062498808,0.898235738277,-0.087240844965
1505419083721071601,381,1505419083720908974,world,1.41340172291,0.0812415480614,-2.00585079193,0.409429609776,0.133952483535,0.898231327534,-0.0872042253613
1505419083730271206,382,1505419083730101116,world,1.41331362724,0.081367008388,-2.00575733185,0.409244835377,0.134198576212,0.898255825043,-0.0874410495162
