%time,field.linear.x,field.linear.y,field.linear.z,field.angular.x,field.angular.y,field.angular.z
1505419079904887692,0.452592616994,-0.0343206920997,0.301803231239,-2000.0,0.0,-0.0925206019001
1505419079913495417,0.452592616994,-0.0343206920997,0.302928686142,-2000.0,0.0,-0.0925206019001
1505419079918573251,0.452592616994,-0.0343206920997,0.302928686142,-2000.0,0.0,-0.0925206019001
1505419079936374295,0.452592616994,-0.0343206920997,0.305010646582,-2000.0,0.0,-0.0925206019001
1505419079937675571,0.452592616994,-0.0343206920997,0.305010646582,-2000.0,0.0,-0.0925206019001
1505419079938875276,0.452592616994,-0.0343206920997,0.305010646582,-2000.0,0.0,-0.0923263836278
1505419079945379797,0.452592616994,-0.0343206920997,0.306161165237,-2000.0,0.0,-0.0923263836278
1505419079947961880,0.452592616994,-0.0343206920997,0.306161165237,-2000.0,0.0,-0.0923263836278
1505419079955191763,0.452592616994,-0.0343206920997,0.30713391304,-2000.0,0.0,-0.0923263836278
1505419079956174136,0.452592616994,-0.0343206920997,0.30713391304,-2000.0,0.0,-0.0923263836278
1505419079960255684,0.452592616994,-0.0343206920997,0.30713391304,-2000.0,0.0,-0.0923263836278
1505419079965051738,0.452592616994,-0.0343206920997,0.308192074299,-2000.0,0.0,-0.0923263836278
1505419079971331832,0.452592616994,-0.0343206920997,0.309285849333,-2000.0,0.0,-0.0923263836278
1505419079980862671,0.452592616994,-0.0343206920997,0.309285849333,-2000.0,0.0,-0.0923263836278
1505419079985440260,0.452592616994,-0.0343206920997,0.310339093208,-2000.0,0.0,-0.0923263836278
1505419079992574251,0.452592616994,-0.0343206920997,0.311367213726,-2000.0,0.0,-0.0924107235386
1505419079996502807,0.452592616994,-0.0343206920997,0.311367213726,-2000.0,0.0,-0.0924107235386
1505419080003684038,0.452592616994,-0.0343206920997,0.312427401543,-2000.0,0.0,-0.0924107235386
1505419080014494641,0.452592616994,-0.0343206920997,0.313456982374,-2000.0,0.0,-0.0924107235386
1505419080015170465,0.452592616994,-0.0343206920997,0.313456982374,-2000.0,0.0,-0.0924107235386
1505419080016517705,0.452592616994,-0.0343206920997,0.313456982374,-2000.0,0.0,-0.0924107235386
1505419080021217260,0.452592616994,-0.0343206920997,0.314522117376,-2000.0,0.0,-0.0924107235386
1505419080025545054,0.452592616994,-0.0343206920997,0.314522117376,-2000.0,0.0,-0.0924107235386
1505419080031029159,0.452592616994,-0.0343206920997,0.315608799458,-2000.0,0.0,-0.0924107235386
1505419080035627238,0.452592616994,-0.0343206920997,0.315608799458,-2000.0,0.0,-0.0924107235386
1505419080044692719,0.452592616994,-0.0343206920997,0.316598415375,-2000.0,0.0,-0.0918193033961
1505419080046764077,0.452592616994,-0.0343206920997,0.316598415375,-2000.0,0.0,-0.0918193033961
1505419080052053748,0.452592616994,-0.0343206920997,0.317613899708,-2000.0,0.0,-0.0918193033961
1505419080055723305,0.452592616994,-0.0343206920997,0.317613899708,-2000.0,0.0,-0.0918193033961
1505419080060492003,0.452592616994,-0.0343206920997,0.317613899708,-2000.0,0.0,-0.0918193033961
1505419080065959150,0.452592616994,-0.0343206920997,0.318628430367,-2000.0,0.0,-0.0918193033961
1505419080070899285,0.452592616994,-0.0343206920997,0.319593250751,-2000.0,0.0,-0.0918193033961
1505419080077852914,0.452592616994,-0.0343206920997,0.319593250751,-2000.0,0.0,-0.0918193033961
1505419080080782023,0.452592616994,-0.0343206920997,0.319593250751,-2000.0,0.0,-0.0918193033961
1505419080085941311,0.452592616994,-0.0343206920997,0.320601075888,-2000.0,0.0,-0.0918193033961
1505419080090873818,0.452592616994,-0.0343206920997,0.320601075888,-2000.0,0.0,-0.0905675033647
1505419080097062658,0.452592616994,-0.0343206920997,0.321610331535,-2000.0,0.0,-0.0905675033647
1505419080100758708,0.452592616994,-0.0343206920997,0.321610331535,-2000.0,0.0,-0.0905675033647
1505419080106108133,0.452592616994,-0.0343206920997,0.322577655315,-2000.0,0.0,-0.0905675033647
1505419080111989991,0.452592616994,-0.0343206920997,0.323514401913,-2000.0,0.0,-0.0905675033647
1505419080116117041,0.452592616994,-0.0343206920997,0.323514401913,-2000.0,0.0,-0.0905675033647
1505419080120989784,0.452592616994,-0.0343206920997,0.324459284544,-2000.0,0.0,-0.0905675033647
1505419080127173191,0.452592616994,-0.0343206920997,0.324459284544,-2000.0,0.0,-0.0905675033647
1505419080132142219,0.452592616994,-0.0343206920997,0.325414270163,-2000.0,0.0,-0.0905675033647
1505419080136373381,0.452592616994,-0.0343206920997,0.325414270163,-2000.0,0.0,-0.0905675033647
1505419080149590226,0.452592616994,-0.0343206920997,0.326324105263,-2000.0,0.0,-0.088630453273
1505419080151641335,0.452592616994,-0.0343206920997,0.327189177275,-2000.0,0.0,-0.088630453273
1505419080153404939,0.452592616994,-0.0343206920997,0.327189177275,-2000.0,0.0,-0.088630453273
1505419080156053596,0.452592616994,-0.0343206920997,0.327189177275,-2000.0,0.0,-0.088630453273
1505419080160808161,0.452592616994,-0.0343206920997,0.328098893166,-2000.0,0.0,-0.088630453273
1505419080165950112,0.452592616994,-0.0343206920997,0.328098893166,-2000.0,0.0,-0.088630453273
1505419080171029424,0.452592616994,-0.0343206920997,0.328970730305,-2000.0,0.0,-0.088630453273
1505419080177519741,0.452592616994,-0.0343206920997,0.328970730305,-2000.0,0.0,-0.088630453273
1505419080180992142,0.452592616994,-0.0343206920997,0.328970730305,-2000.0,0.0,-0.088630453273
1505419080186809609,0.452592616994,-0.0343206920997,0.329839169979,-2000.0,0.0,-0.088630453273
1505419080191317041,0.452592616994,-0.0343206920997,0.330594092607,-2000.0,0.0,-0.0883743877049
1505419080196072974,0.452592616994,-0.0343206920997,0.330594092607,-2000.0,0.0,-0.0883743877049
1505419080202425923,0.452592616994,-0.0343206920997,0.331514656544,-2000.0,0.0,-0.0883743877049
1505419080212134466,0.452592616994,-0.0343206920997,0.332290381193,-2000.0,0.0,-0.0883743877049
1505419080212817783,0.452592616994,-0.0343206920997,0.332290381193,-2000.0,0.0,-0.0883743877049
1505419080219886066,0.452592616994,-0.0343206920997,0.332290381193,-2000.0,0.0,-0.0883743877049
1505419080222362410,0.452592616994,-0.0343206920997,0.333023875952,-2000.0,0.0,-0.0883743877049
1505419080226340114,0.452592616994,-0.0343206920997,0.333023875952,-2000.0,0.0,-0.0883743877049
1505419080231334210,0.452592616994,-0.0343206920997,0.333829492331,-2000.0,0.0,-0.0883743877049
1505419080236724370,0.452592616994,-0.0343206920997,0.333829492331,-2000.0,0.0,-0.0883743877049
1505419080248142949,0.452592616994,-0.0343206920997,0.334600865841,-2000.0,0.0,-0.0869960900822
1505419080251268087,0.452592616994,-0.0343206920997,0.335307121277,-2000.0,0.0,-0.0869960900822
1505419080256593077,0.452592616994,-0.0343206920997,0.335307121277,-2000.0,0.0,-0.0869960900822
1505419080261639059,0.452592616994,-0.0343206920997,0.336042255163,-2000.0,0.0,-0.0869960900822
1505419080266433907,0.452592616994,-0.0343206920997,0.336042255163,-2000.0,0.0,-0.0869960900822
1505419080271816059,0.452592616994,-0.0343206920997,0.336690247059,-2000.0,0.0,-0.0869960900822
1505419080278044505,0.452592616994,-0.0343206920997,0.336690247059,-2000.0,0.0,-0.0869960900822
1505419080281298525,0.452592616994,-0.0343206920997,0.337490588427,-2000.0,0.0,-0.0869960900822
1505419080286979304,0.452592616994,-0.0343206920997,0.337490588427,-2000.0,0.0,-0.0869960900822
1505419080291525621,0.452592616994,-0.0343206920997,0.338173151016,-2000.0,0.0,-0.0850464269816
1505419080296524925,0.452592616994,-0.0343206920997,0.338173151016,-2000.0,0.0,-0.0850464269816
1505419080301435200,0.452592616994,-0.0343206920997,0.338660985231,-2000.0,0.0,-0.0850464269816
1505419080312689342,0.452592616994,-0.0343206920997,0.339546769857,-2000.0,0.0,-0.0850464269816
1505419080315186914,0.452592616994,-0.0343206920997,0.339546769857,-2000.0,0.0,-0.0850464269816
1505419080316552270,0.452592616994,-0.0343206920997,0.339546769857,-2000.0,0.0,-0.0850464269816
1505419080321459832,0.452592616994,-0.0343206920997,0.340158045292,-2000.0,0.0,-0.0850464269816
1505419080328610265,0.452592616994,-0.0343206920997,0.340158045292,-2000.0,0.0,-0.0850464269816
1505419080331793538,0.452592616994,-0.0343206920997,0.340782135725,-2000.0,0.0,-0.0850464269816
1505419080338763856,0.452592616994,-0.0343206920997,0.340782135725,-2000.0,0.0,-0.0829135534153
1505419080346587153,0.452592616994,-0.0343206920997,0.341547787189,-2000.0,0.0,-0.0829135534153
1505419080347974287,0.452592616994,-0.0343206920997,0.341547787189,-2000.0,0.0,-0.0829135534153
1505419080353132901,0.452592616994,-0.0343206920997,0.342046141624,-2000.0,0.0,-0.0829135534153
1505419080357056054,0.452592616994,-0.0343206920997,0.342046141624,-2000.0,0.0,-0.0829135534153
1505419080361954982,0.452592616994,-0.0343206920997,0.342805176973,-2000.0,0.0,-0.0829135534153
1505419080366712616,0.452592616994,-0.0343206920997,0.342805176973,-2000.0,0.0,-0.0829135534153
1505419080372131038,0.452592616994,-0.0343206920997,0.343432843685,-2000.0,0.0,-0.0829135534153
1505419080378106325,0.452592616994,-0.0343206920997,0.343432843685,-2000.0,0.0,-0.0829135534153
1505419080381676850,0.452592616994,-0.0343206920997,0.343995928764,-2000.0,0.0,-0.0829135534153
1505419080387509507,0.452592616994,-0.0343206920997,0.343995928764,-2000.0,0.0,-0.0829135534153
1505419080391761027,0.452592616994,-0.0343206920997,0.344667941332,-2000.0,0.0,-0.0802044750899
1505419080399407243,0.452592616994,-0.0343206920997,0.344667941332,-2000.0,0.0,-0.0802044750899
1505419080403678723,0.452592616994,-0.0343206920997,0.345258772373,-2000.0,0.0,-0.0802044750899
1505419080411598069,0.452592616994,-0.0343206920997,0.345866620541,-2000.0,0.0,-0.0802044750899
1505419080412238333,0.452592616994,-0.0343206920997,0.345866620541,-2000.0,0.0,-0.0802044750899
1505419080416980117,0.452592616994,-0.0343206920997,0.345866620541,-2000.0,0.0,-0.0802044750899
1505419080425318327,0.452592616994,-0.0343206920997,0.346600681543,-2000.0,0.0,-0.0802044750899
1505419080427039284,0.452592616994,-0.0343206920997,0.346600681543,-2000.0,0.0,-0.0802044750899
1505419080432161728,0.452592616994,-0.0343206920997,0.347093611956,-2000.0,0.0,-0.0802044750899
1505419080438583533,0.452592616994,-0.0343206920997,0.347093611956,-2000.0,0.0,-0.0778810792646
1505419080445463802,0.452592616994,-0.0343206920997,0.347795009613,-2000.0,0.0,-0.0778810792646
1505419080450706456,0.452592616994,-0.0343206920997,0.347795009613,-2000.0,0.0,-0.0778810792646
1505419080452472159,0.452592616994,-0.0343206920997,0.348426997662,-2000.0,0.0,-0.0778810792646
1505419080457060622,0.452592616994,-0.0343206920997,0.348426997662,-2000.0,0.0,-0.0778810792646
1505419080462400053,0.452592616994,-0.0343206920997,0.348946720362,-2000.0,0.0,-0.0778810792646
1505419080467343841,0.452592616994,-0.0343206920997,0.348946720362,-2000.0,0.0,-0.0778810792646
1505419080478875610,0.452592616994,-0.0343206920997,0.349670767784,-2000.0,0.0,-0.0778810792646
1505419080482407543,0.452592616994,-0.0343206920997,0.350198954344,-2000.0,0.0,-0.0778810792646
1505419080487713835,0.452592616994,-0.0343206920997,0.350198954344,-2000.0,0.0,-0.0778810792646
1505419080492430309,0.452592616994,-0.0343206920997,0.350782811642,-2000.0,0.0,-0.075261270128
1505419080497348332,0.452592616994,-0.0343206920997,0.350782811642,-2000.0,0.0,-0.075261270128
1505419080503834544,0.452592616994,-0.0343206920997,0.351416110992,-2000.0,0.0,-0.075261270128
1505419080511396051,0.452592616994,-0.0343206920997,0.351927429438,-2000.0,0.0,-0.075261270128
1505419080513051549,0.452592616994,-0.0343206920997,0.351927429438,-2000.0,0.0,-0.075261270128
1505419080517368740,0.452592616994,-0.0343206920997,0.351927429438,-2000.0,0.0,-0.075261270128
1505419080522395985,0.452592616994,-0.0343206920997,0.352615207434,-2000.0,0.0,-0.075261270128
1505419080527352939,0.452592616994,-0.0343206920997,0.352615207434,-2000.0,0.0,-0.075261270128
1505419080534129130,0.452592616994,-0.0343206920997,0.353172212839,-2000.0,0.0,-0.075261270128
1505419080537738773,0.452592616994,-0.0343206920997,0.353172212839,-2000.0,0.0,-0.075261270128
1505419080544470218,0.452592616994,-0.0343206920997,0.353748500347,-2000.0,0.0,-0.0721036669645
1505419080547544981,0.452592616994,-0.0343206920997,0.353748500347,-2000.0,0.0,-0.0721036669645
1505419080552631975,0.452592616994,-0.0343206920997,0.354348510504,-2000.0,0.0,-0.0721036669645
1505419080557462356,0.452592616994,-0.0343206920997,0.354348510504,-2000.0,0.0,-0.0721036669645
1505419080563089783,0.452592616994,-0.0343206920997,0.354878604412,-2000.0,0.0,-0.0721036669645
1505419080567822385,0.452592616994,-0.0343206920997,0.354878604412,-2000.0,0.0,-0.0721036669645
1505419080577991861,0.452592616994,-0.0343206920997,0.355505734682,-2000.0,0.0,-0.0721036669645
1505419080579335631,0.452592616994,-0.0343206920997,0.355505734682,-2000.0,0.0,-0.0721036669645
1505419080583984250,0.452592616994,-0.0343206920997,0.356124520302,-2000.0,0.0,-0.0721036669645
1505419080588434691,0.452592616994,-0.0343206920997,0.356124520302,-2000.0,0.0,-0.0721036669645
1505419080593395761,0.452592616994,-0.0343206920997,0.356665313244,-2000.0,0.0,-0.0682051381045
1505419080599360225,0.452592616994,-0.0343206920997,0.356665313244,-2000.0,0.0,-0.0682051381045
1505419080602595557,0.452592616994,-0.0343206920997,0.357285231352,-2000.0,0.0,-0.0682051381045
1505419080612614955,0.452592616994,-0.0343206920997,0.35791271925,-2000.0,0.0,-0.0682051381045
1505419080613370020,0.452592616994,-0.0343206920997,0.35791271925,-2000.0,0.0,-0.0682051381045
1505419080617923177,0.452592616994,-0.0343206920997,0.35791271925,-2000.0,0.0,-0.0682051381045
1505419080623500859,0.452592616994,-0.0343206920997,0.358468830585,-2000.0,0.0,-0.0682051381045
1505419080628402146,0.452592616994,-0.0343206920997,0.358468830585,-2000.0,0.0,-0.0682051381045
1505419080635279393,0.452592616994,-0.0343206920997,0.359039366245,-2000.0,0.0,-0.0682051381045
1505419080646694923,0.452592616994,-0.0343206920997,0.35963305831,-2000.0,0.0,-0.0642921954271
1505419080648997442,0.452592616994,-0.0343206920997,0.35963305831,-2000.0,0.0,-0.0642921954271
1505419080650146750,0.452592616994,-0.0343206920997,0.35963305831,-2000.0,0.0,-0.0642921954271
1505419080654044981,0.452592616994,-0.0343206920997,0.360139369965,-2000.0,0.0,-0.0642921954271
1505419080657942727,0.452592616994,-0.0343206920997,0.360139369965,-2000.0,0.0,-0.0642921954271
1505419080663598884,0.452592616994,-0.0343206920997,0.360754400492,-2000.0,0.0,-0.0642921954271
1505419080668013573,0.452592616994,-0.0343206920997,0.360754400492,-2000.0,0.0,-0.0642921954271
1505419080678534779,0.452592616994,-0.0343206920997,0.361331105232,-2000.0,0.0,-0.0642921954271
1505419080682993453,0.452592616994,-0.0343206920997,0.361887156963,-2000.0,0.0,-0.0642921954271
1505419080688598979,0.452592616994,-0.0343206920997,0.361887156963,-2000.0,0.0,-0.0608349722872
1505419080693098263,0.452592616994,-0.0343206920997,0.362537652254,-2000.0,0.0,-0.0608349722872
1505419080699735457,0.452592616994,-0.0343206920997,0.362537652254,-2000.0,0.0,-0.0608349722872
1505419080703465991,0.452592616994,-0.0343206920997,0.363103628159,-2000.0,0.0,-0.0608349722872
1505419080712738362,0.452592616994,-0.0343206920997,0.363659411669,-2000.0,0.0,-0.0608349722872
1505419080713819472,0.452592616994,-0.0343206920997,0.363659411669,-2000.0,0.0,-0.0608349722872
1505419080718243354,0.452592616994,-0.0343206920997,0.363659411669,-2000.0,0.0,-0.0608349722872
1505419080724472735,0.452592616994,-0.0343206920997,0.364218562841,-2000.0,0.0,-0.0608349722872
1505419080729805085,0.452592616994,-0.0343206920997,0.364218562841,-2000.0,0.0,-0.0608349722872
1505419080733294313,0.452592616994,-0.0343206920997,0.364814311266,-2000.0,0.0,-0.0608349722872
1505419080738654812,0.452592616994,-0.0343206920997,0.364814311266,-2000.0,0.0,-0.0571071198091
1505419080744527457,0.452592616994,-0.0343206920997,0.365391999483,-2000.0,0.0,-0.0571071198091
1505419080748206369,0.452592616994,-0.0343206920997,0.365391999483,-2000.0,0.0,-0.0571071198091
1505419080755706404,0.452592616994,-0.0343206920997,0.365900784731,-2000.0,0.0,-0.0571071198091
1505419080758528320,0.452592616994,-0.0343206920997,0.365900784731,-2000.0,0.0,-0.0571071198091
1505419080763696213,0.452592616994,-0.0343206920997,0.366462886333,-2000.0,0.0,-0.0571071198091
1505419080768299989,0.452592616994,-0.0343206920997,0.366462886333,-2000.0,0.0,-0.0571071198091
1505419080778641160,0.452592616994,-0.0343206920997,0.36701053381,-2000.0,0.0,-0.0571071198091
1505419080783649506,0.452592616994,-0.0343206920997,0.367600470781,-2000.0,0.0,-0.0571071198091
1505419080789878027,0.452592616994,-0.0343206920997,0.367600470781,-2000.0,0.0,-0.0525152639363
1505419080794237341,0.452592616994,-0.0343206920997,0.368182212114,-2000.0,0.0,-0.0525152639363
1505419080799284835,0.452592616994,-0.0343206920997,0.368182212114,-2000.0,0.0,-0.0525152639363
1505419080803464625,0.452592616994,-0.0343206920997,0.368711233139,-2000.0,0.0,-0.0525152639363
1505419080814157909,0.452592616994,-0.0343206920997,0.369313538074,-2000.0,0.0,-0.0525152639363
1505419080818716405,0.452592616994,-0.0343206920997,0.369313538074,-2000.0,0.0,-0.0525152639363
1505419080823709058,0.452592616994,-0.0343206920997,0.369780570269,-2000.0,0.0,-0.0525152639363
1505419080829584387,0.452592616994,-0.0343206920997,0.369780570269,-2000.0,0.0,-0.0525152639363
1505419080835137123,0.452592616994,-0.0343206920997,0.370382964611,-2000.0,0.0,-0.0525152639363
1505419080845063053,0.452592616994,-0.0343206920997,0.370931833982,-2000.0,0.0,-0.0496751043053
1505419080850251216,0.452592616994,-0.0343206920997,0.370931833982,-2000.0,0.0,-0.0496751043053
1505419080853486123,0.452592616994,-0.0343206920997,0.37141174078,-2000.0,0.0,-0.0496751043053
1505419080858962947,0.452592616994,-0.0343206920997,0.37141174078,-2000.0,0.0,-0.0496751043053
1505419080867490075,0.452592616994,-0.0343206920997,0.372066944838,-2000.0,0.0,-0.0496751043053
1505419080870180272,0.452592616994,-0.0343206920997,0.372066944838,-2000.0,0.0,-0.0496751043053
1505419080877850778,0.452592616994,-0.0343206920997,0.372501164675,-2000.0,0.0,-0.0496751043053
1505419080878816724,0.452592616994,-0.0343206920997,0.372501164675,-2000.0,0.0,-0.0496751043053
1505419080883876679,0.452592616994,-0.0343206920997,0.373132109642,-2000.0,0.0,-0.0496751043053
1505419080889090719,0.452592616994,-0.0343206920997,0.373132109642,-2000.0,0.0,-0.0452423020978
1505419080895597213,0.452592616994,-0.0343206920997,0.373711317778,-2000.0,0.0,-0.0452423020978
1505419080899060516,0.452592616994,-0.0343206920997,0.373711317778,-2000.0,0.0,-0.0452423020978
1505419080904038170,0.452592616994,-0.0343206920997,0.374257385731,-2000.0,0.0,-0.0452423020978
1505419080911964037,0.452592616994,-0.0343206920997,0.374887555838,-2000.0,0.0,-0.0452423020978
1505419080914327636,0.452592616994,-0.0343206920997,0.374887555838,-2000.0,0.0,-0.0452423020978
1505419080918968515,0.452592616994,-0.0343206920997,0.374887555838,-2000.0,0.0,-0.0452423020978
1505419080925393427,0.452592616994,-0.0343206920997,0.375368416309,-2000.0,0.0,-0.0452423020978
1505419080929767967,0.452592616994,-0.0343206920997,0.375368416309,-2000.0,0.0,-0.0452423020978
1505419080934245821,0.452592616994,-0.0343206920997,0.376013427973,-2000.0,0.0,-0.0452423020978
1505419080939223141,0.452592616994,-0.0343206920997,0.376013427973,-2000.0,0.0,-0.0422495634708
1505419080944629825,0.452592616994,-0.0343206920997,0.376538693905,-2000.0,0.0,-0.0422495634708
1505419080949627426,0.452592616994,-0.0343206920997,0.376538693905,-2000.0,0.0,-0.0422495634708
1505419080954549721,0.452592616994,-0.0343206920997,0.377102702856,-2000.0,0.0,-0.0422495634708
1505419080960875962,0.452592616994,-0.0343206920997,0.377102702856,-2000.0,0.0,-0.0422495634708
1505419080964268414,0.452592616994,-0.0343206920997,0.377740502357,-2000.0,0.0,-0.0422495634708
1505419080969170070,0.452592616994,-0.0343206920997,0.377740502357,-2000.0,0.0,-0.0422495634708
1505419080977658142,0.452592616994,-0.0343206920997,0.378258317709,-2000.0,0.0,-0.0422495634708
1505419080979252057,0.452592616994,-0.0343206920997,0.378258317709,-2000.0,0.0,-0.0422495634708
1505419080985431095,0.452592616994,-0.0343206920997,0.378837555647,-2000.0,0.0,-0.0422495634708
1505419080990080365,0.452592616994,-0.0343206920997,0.378837555647,-2000.0,0.0,-0.0392774020925
1505419080994246166,0.452592616994,-0.0343206920997,0.379387140274,-2000.0,0.0,-0.0392774020925
1505419080999389611,0.452592616994,-0.0343206920997,0.379387140274,-2000.0,0.0,-0.0392774020925
1505419081004266613,0.452592616994,-0.0343206920997,0.379968285561,-2000.0,0.0,-0.0392774020925
1505419081012038677,0.452592616994,-0.0343206920997,0.380624294281,-2000.0,0.0,-0.0392774020925
1505419081015563139,0.452592616994,-0.0343206920997,0.380624294281,-2000.0,0.0,-0.0392774020925
1505419081019683389,0.452592616994,-0.0343206920997,0.380624294281,-2000.0,0.0,-0.0392774020925
1505419081024402546,0.452592616994,-0.0343206920997,0.381148457527,-2000.0,0.0,-0.0392774020925
1505419081032180171,0.452592616994,-0.0343206920997,0.381765782833,-2000.0,0.0,-0.0392774020925
1505419081035145149,0.452592616994,-0.0343206920997,0.381765782833,-2000.0,0.0,-0.0392774020925
1505419081045835387,0.452592616994,-0.0343206920997,0.382290095091,-2000.0,0.0,-0.0363093642877
1505419081049924107,0.452592616994,-0.0343206920997,0.382290095091,-2000.0,0.0,-0.0363093642877
1505419081056863989,0.452592616994,-0.0343206920997,0.382843703032,-2000.0,0.0,-0.0363093642877
1505419081059295743,0.452592616994,-0.0343206920997,0.382843703032,-2000.0,0.0,-0.0363093642877
1505419081064588555,0.452592616994,-0.0343206920997,0.38349545002,-2000.0,0.0,-0.0363093642877
1505419081069690067,0.452592616994,-0.0343206920997,0.38349545002,-2000.0,0.0,-0.0363093642877
1505419081077949485,0.452592616994,-0.0343206920997,0.384023278952,-2000.0,0.0,-0.0363093642877
1505419081079789398,0.452592616994,-0.0343206920997,0.384023278952,-2000.0,0.0,-0.0363093642877
1505419081084785192,0.452592616994,-0.0343206920997,0.384585469961,-2000.0,0.0,-0.0363093642877
1505419081093287244,0.452592616994,-0.0343206920997,0.385129988194,-2000.0,0.0,-0.0341503944739
1505419081097691249,0.452592616994,-0.0343206920997,0.385129988194,-2000.0,0.0,-0.0341503944739
1505419081100927876,0.452592616994,-0.0343206920997,0.385129988194,-2000.0,0.0,-0.0341503944739
1505419081104854437,0.452592616994,-0.0343206920997,0.385704398155,-2000.0,0.0,-0.0341503944739
1505419081112082279,0.452592616994,-0.0343206920997,0.386268436909,-2000.0,0.0,-0.0341503944739
1505419081114567442,0.452592616994,-0.0343206920997,0.386268436909,-2000.0,0.0,-0.0341503944739
1505419081121903512,0.452592616994,-0.0343206920997,0.386786878109,-2000.0,0.0,-0.0341503944739
1505419081125001052,0.452592616994,-0.0343206920997,0.386786878109,-2000.0,0.0,-0.0341503944739
1505419081129860924,0.452592616994,-0.0343206920997,0.386786878109,-2000.0,0.0,-0.0341503944739
1505419081134614175,0.452592616994,-0.0343206920997,0.387306928635,-2000.0,0.0,-0.0341503944739
1505419081145156531,0.452592616994,-0.0343206920997,0.387785106897,-2000.0,0.0,-0.0311701263838
1505419081147065591,0.452592616994,-0.0343206920997,0.387785106897,-2000.0,0.0,-0.0311701263838
1505419081150667896,0.452592616994,-0.0343206920997,0.387785106897,-2000.0,0.0,-0.0311701263838
1505419081158574679,0.452592616994,-0.0343206920997,0.388297498226,-2000.0,0.0,-0.0311701263838
1505419081159841538,0.452592616994,-0.0343206920997,0.388297498226,-2000.0,0.0,-0.0311701263838
1505419081166105787,0.452592616994,-0.0343206920997,0.388760298491,-2000.0,0.0,-0.0311701263838
1505419081170076741,0.452592616994,-0.0343206920997,0.388760298491,-2000.0,0.0,-0.0311701263838
1505419081177526251,0.452592616994,-0.0343206920997,0.389267504215,-2000.0,0.0,-0.0311701263838
1505419081181120616,0.452592616994,-0.0343206920997,0.389267504215,-2000.0,0.0,-0.0311701263838
1505419081185396640,0.452592616994,-0.0343206920997,0.389713764191,-2000.0,0.0,-0.0311701263838
1505419081190362604,0.452592616994,-0.0343206920997,0.389713764191,-2000.0,0.0,-0.0292165230454
1505419081195163488,0.452592616994,-0.0343206920997,0.390146136284,-2000.0,0.0,-0.0292165230454
1505419081200123292,0.571915102692,-0.108906418196,0.390146136284,-0.190492248542,-0.295833111673,-0.0292165230454
1505419081205027234,0.572484948973,-0.108823574822,0.390593707561,-0.19061262068,-0.295766214113,-0.0292165230454
1505419081212628464,0.572747024634,-0.10903996207,0.391000509262,-0.190465498496,-0.29568633844,-0.0292165230454
1505419081216873810,0.572649422544,-0.108716753989,0.391000509262,-0.190358496387,-0.295366119484,-0.0292165230454
1505419081220337097,0.572568699965,-0.108273725545,0.391000509262,-0.190264866348,-0.29492563821,-0.0292165230454
1505419081226360681,0.572956761016,-0.108361491917,0.39145553112,-0.190184609598,-0.294471662944,-0.0292165230454
1505419081230426857,0.573062842613,-0.107936882322,0.39145553112,-0.190278242071,-0.294044135666,-0.0292165230454
1505419081235251115,0.573201483703,-0.111770520271,0.391826659441,-0.19017123347,-0.298341093131,-0.0292165230454
1505419081244129860,0.574402162493,-0.11242249102,0.392245322466,-0.190197986067,-0.29848801383,-0.0267153952565
1505419081244987858,0.574374162848,-0.112969550957,0.392245322466,-0.190184609598,-0.299035626489,-0.0267153952565
1505419081250717496,0.574469009493,-0.113426111196,0.392245322466,-0.190291618135,-0.299489490247,-0.0267153952565
1505419081255586534,0.574973606317,-0.113490207278,0.392624765635,-0.19042537319,-0.299809705927,-0.0267153952565
1505419081261074641,0.575247420244,-0.113951863425,0.392984867096,-0.190345121012,-0.300036717935,-0.0267153952565
1505419081267345415,0.575094448054,-0.113667581124,0.392984867096,-0.190184609598,-0.299756623303,-0.0267153952565
1505419081272466534,0.574794724041,-0.113366126204,0.392984867096,-0.189876940007,-0.299463282245,-0.0267153952565
1505419081278891418,0.574624974115,-0.112707149128,0.392984867096,-0.189689647915,-0.298809074712,-0.0267153952565
1505419081281260664,0.574805973706,-0.112577990931,0.393350422382,-0.189488965421,-0.298208031844,-0.0267153952565
1505419081285958626,0.574922944243,-0.111872637038,0.393675684929,-0.189274889539,-0.297994366225,-0.0267153952565
1505419081290484980,0.574970302356,-0.111648488111,0.393675684929,-0.189087561085,-0.297914301031,-0.0259475975695
1505419081295561678,0.575105367666,-0.113110697977,0.394010514021,-0.18890022134,-0.298395598052,-0.0259475975695
1505419081304206814,0.573007486565,-0.111334925083,0.394010514021,-0.186756974558,-0.296674851785,-0.0259475975695
1505419081305351756,0.573053371788,-0.111630094688,0.394010514021,-0.186810502417,-0.296968731552,-0.0259475975695
1505419081312152485,0.573670172082,-0.111937064146,0.394637018442,-0.186810502417,-0.297342762933,-0.0259475975695
1505419081317143826,0.573742605318,-0.111725074297,0.394637018442,-0.18687741126,-0.297128965187,-0.0259475975695
1505419081320546439,0.573665805354,-0.111589535493,0.394637018442,-0.186797120638,-0.296995464558,-0.0259475975695
1505419081325650160,0.574091529995,-0.111751676197,0.395012557507,-0.186837266205,-0.296607966218,-0.0259475975695
1505419081330554222,0.574091529995,-0.111751676197,0.395012557507,-2000.0,0.0,-0.0259475975695
1505419081335684122,0.574091529995,-0.111751676197,0.395012557507,-2000.0,0.0,-0.0259475975695
1505419081344461669,0.574091529995,-0.111751676197,0.395661890507,-2000.0,0.0,-0.0242992244535
1505419081345815159,0.574091529995,-0.111751676197,0.395661890507,-2000.0,0.0,-0.0242992244535
1505419081354892879,0.574091529995,-0.111751676197,0.395902782679,-2000.0,0.0,-0.0242992244535
1505419081355954798,0.574091529995,-0.111751676197,0.395902782679,-2000.0,0.0,-0.0242992244535
1505419081362867218,0.574091529995,-0.111751676197,0.395902782679,-2000.0,0.0,-0.0242992244535
1505419081371430792,0.574091529995,-0.111751676197,0.3965087533,-2000.0,0.0,-0.0242992244535
1505419081378926462,0.574091529995,-0.111751676197,0.3965087533,-2000.0,0.0,-0.0242992244535
1505419081382226492,0.574091529995,-0.111751676197,0.396716594696,-2000.0,0.0,-0.0242992244535
1505419081385785612,0.574091529995,-0.111751676197,0.396716594696,-2000.0,0.0,-0.0242992244535
1505419081391006385,0.574091529995,-0.111751676197,0.396716594696,-2000.0,0.0,-0.0229884795719
1505419081395772377,0.574091529995,-0.111751676197,0.396716594696,-2000.0,0.0,-0.0229884795719
1505419081400893530,0.574091529995,-0.111751676197,0.396716594696,-2000.0,0.0,-0.0229884795719
1505419081412418189,0.574091529995,-0.111751676197,0.397407650948,-2000.0,0.0,-0.0229884795719
1505419081413575034,0.574091529995,-0.111751676197,0.397407650948,-2000.0,0.0,-0.0229884795719
1505419081416203705,0.574091529995,-0.111751676197,0.397407650948,-2000.0,0.0,-0.0229884795719
1505419081423275761,0.574091529995,-0.111751676197,0.397407650948,-2000.0,0.0,-0.0229884795719
1505419081425937499,0.574091529995,-0.111751676197,0.397407650948,-2000.0,0.0,-0.0229884795719
1505419081431245654,0.574091529995,-0.111751676197,0.397407650948,-2000.0,0.0,-0.0229884795719
1505419081435925831,0.574091529995,-0.111751676197,0.397800177336,-2000.0,0.0,-0.0229884795719
1505419081444101758,0.574091529995,-0.111751676197,0.3980461061,-2000.0,0.0,-0.0208160600818
1505419081448518828,0.574091529995,-0.111751676197,0.3980461061,-2000.0,0.0,-0.0208160600818
1505419081454918844,0.574091529995,-0.111751676197,0.3980461061,-2000.0,0.0,-0.0208160600818
1505419081456213417,0.574091529995,-0.111751676197,0.3980461061,-2000.0,0.0,-0.0208160600818
1505419081461012929,0.574091529995,-0.111751676197,0.398359537125,-2000.0,0.0,-0.0208160600818
1505419081465967872,0.574091529995,-0.111751676197,0.398359537125,-2000.0,0.0,-0.0208160600818
1505419081477909301,0.574091529995,-0.111751676197,0.398487657309,-2000.0,0.0,-0.0208160600818
1505419081482739281,0.574091529995,-0.111751676197,0.398487657309,-2000.0,0.0,-0.0208160600818
1505419081486395738,0.574091529995,-0.111751676197,0.398487657309,-2000.0,0.0,-0.0208160600818
1505419081491528533,0.574091529995,-0.111751676197,0.398742198944,-2000.0,0.0,-0.0211592878049
1505419081496199595,0.574091529995,-0.111751676197,0.398742198944,-2000.0,0.0,-0.0211592878049
1505419081501133094,0.574091529995,-0.111751676197,0.398742198944,-2000.0,0.0,-0.0211592878049
1505419081505810784,0.574091529995,-0.111751676197,0.3987839818,-2000.0,0.0,-0.0211592878049
1505419081516696646,0.574091529995,-0.111751676197,0.3987839818,-2000.0,0.0,-0.0211592878049
1505419081517740742,0.574091529995,-0.111751676197,0.3987839818,-2000.0,0.0,-0.0211592878049
1505419081521556133,0.574091529995,-0.111751676197,0.399021744728,-2000.0,0.0,-0.0211592878049
1505419081526603259,0.574091529995,-0.111751676197,0.399021744728,-2000.0,0.0,-0.0211592878049
1505419081531794973,0.574091529995,-0.111751676197,0.399004220963,-2000.0,0.0,-0.0211592878049
1505419081536322307,0.574091529995,-0.111751676197,0.399004220963,-2000.0,0.0,-0.0211592878049
1505419081544040653,0.574091529995,-0.111751676197,0.399004220963,-2000.0,0.0,-0.0193528014887
1505419081546632419,0.574091529995,-0.111751676197,0.399004220963,-2000.0,0.0,-0.0193528014887
1505419081554164668,0.574091529995,-0.111751676197,0.39909055829,-2000.0,0.0,-0.0193528014887
1505419081557384351,0.574091529995,-0.111751676197,0.39909055829,-2000.0,0.0,-0.0193528014887
1505419081561360595,0.574091529995,-0.111751676197,0.39911699295,-2000.0,0.0,-0.0193528014887
1505419081568120101,0.574091529995,-0.111751676197,0.39911699295,-2000.0,0.0,-0.0193528014887
1505419081581310298,0.574091529995,-0.111751676197,0.398996442556,-2000.0,0.0,-0.0193528014887
1505419081582882161,0.574091529995,-0.111751676197,0.398996442556,-2000.0,0.0,-0.0193528014887
1505419081586572928,0.574091529995,-0.111751676197,0.398996442556,-2000.0,0.0,-0.0193528014887
1505419081591795598,0.574091529995,-0.111751676197,0.399036705494,-2000.0,0.0,-0.0183472345385
1505419081596602091,0.574091529995,-0.111751676197,0.399036705494,-2000.0,0.0,-0.0183472345385
1505419081604366277,0.574091529995,-0.111751676197,0.399036705494,-2000.0,0.0,-0.0183472345385
1505419081612588793,0.574091529995,-0.111751676197,0.398847103119,-2000.0,0.0,-0.0183472345385
1505419081616633996,0.574091529995,-0.111751676197,0.398847103119,-2000.0,0.0,-0.0183472345385
1505419081621542888,0.574091529995,-0.111751676197,0.398829191923,-2000.0,0.0,-0.0183472345385
1505419081626580701,0.574091529995,-0.111751676197,0.398829191923,-2000.0,0.0,-0.0183472345385
1505419081632658082,0.574091529995,-0.111751676197,0.398664087057,-2000.0,0.0,-0.0183472345385
1505419081636685711,0.574091529995,-0.111751676197,0.398664087057,-2000.0,0.0,-0.0183472345385
1505419081644206733,0.574091529995,-0.111751676197,0.398675858974,-2000.0,0.0,-0.0180083881377
1505419081646765024,0.574091529995,-0.111751676197,0.398675858974,-2000.0,0.0,-0.0180083881377
1505419081651873879,0.574091529995,-0.111751676197,0.398577481508,-2000.0,0.0,-0.0180083881377
1505419081659855709,0.574091529995,-0.111751676197,0.398577481508,-2000.0,0.0,-0.0180083881377
1505419081663087122,0.574091529995,-0.111751676197,0.398577481508,-2000.0,0.0,-0.0180083881377
1505419081667917269,0.574091529995,-0.111751676197,0.398577481508,-2000.0,0.0,-0.0180083881377
1505419081672267969,0.574091529995,-0.111751676197,0.398349046707,-2000.0,0.0,-0.0180083881377
1505419081679351171,0.574091529995,-0.111751676197,0.398349046707,-2000.0,0.0,-0.0180083881377
1505419081681800376,0.574091529995,-0.111751676197,0.398114591837,-2000.0,0.0,-0.0180083881377
1505419081686777488,0.574091529995,-0.111751676197,0.398114591837,-2000.0,0.0,-0.0180083881377
1505419081692081606,0.574091529995,-0.111751676197,0.398114591837,-2000.0,0.0,-0.0177538659366
1505419081696440060,0.574091529995,-0.111751676197,0.398114591837,-2000.0,0.0,-0.0177538659366
1505419081701781047,0.574091529995,-0.111751676197,0.397845417261,-2000.0,0.0,-0.0177538659366
1505419081712433756,0.574091529995,-0.111751676197,0.397668987513,-2000.0,0.0,-0.0177538659366
1505419081714591939,0.574091529995,-0.111751676197,0.397668987513,-2000.0,0.0,-0.0177538659366
1505419081717123896,0.574091529995,-0.111751676197,0.397668987513,-2000.0,0.0,-0.0177538659366
1505419081722288387,0.574091529995,-0.111751676197,0.397668987513,-2000.0,0.0,-0.0177538659366
1505419081728775529,0.574091529995,-0.111751676197,0.397668987513,-2000.0,0.0,-0.0177538659366
1505419081731914467,0.574091529995,-0.111751676197,0.397303342819,-2000.0,0.0,-0.0177538659366
1505419081745483258,0.574091529995,-0.111751676197,0.39716142416,-2000.0,0.0,-0.0167784616689
1505419081746952224,0.574091529995,-0.111751676197,0.39716142416,-2000.0,0.0,-0.0167784616689
1505419081752349002,0.544185328429,-0.095156422186,0.39716142416,-0.151738517646,-0.279732177706,-0.0167784616689
1505419081757215093,0.544125437132,-0.0953694114511,0.39716142416,-0.151682208243,-0.279946141828,-0.0167784616689
1505419081762119615,0.543755599659,-0.0957783504452,0.396765172482,-0.15171599404,-0.280385227467,-0.0167784616689
1505419081769928178,0.543657206543,-0.0962720320011,0.396765172482,-0.151625897602,-0.280880490342,-0.0167784616689
1505419081772437170,0.543435517467,-0.0958977755967,0.396542161703,-0.151625897602,-0.280801712876,-0.0167784616689
1505419081781238240,0.543356880092,-0.095885230345,0.396542161703,-0.151547060815,-0.280790488743,-0.0167784616689
1505419081782292251,0.543356880092,-0.095885230345,0.396542161703,-2000.0,0.0,-0.0167784616689
1505419081787265560,0.543356880092,-0.095885230345,0.396542161703,-2000.0,0.0,-0.0167784616689
1505419081792482659,0.543356880092,-0.095885230345,0.396160125732,-2000.0,0.0,-0.0175304121655
1505419081797869786,0.543356880092,-0.095885230345,0.396160125732,-2000.0,0.0,-0.0175304121655
1505419081806283445,0.543356880092,-0.095885230345,0.395882964134,-2000.0,0.0,-0.0175304121655
1505419081811424363,0.543356880092,-0.095885230345,0.395696341991,-2000.0,0.0,-0.0175304121655
1505419081813863939,0.543356880092,-0.095885230345,0.395696341991,-2000.0,0.0,-0.0175304121655
1505419081817655019,0.560970131121,-0.119654614901,0.395696341991,-0.170624947428,-0.30377003324,-0.0175304121655
1505419081822638288,0.560678617994,-0.119239848369,0.39542850852,-0.170600403276,-0.303720931772,-0.0175304121655
1505419081827383989,0.56058885244,-0.11945923701,0.39542850852,-0.170514497291,-0.30394186025,-0.0175304121655
1505419081832565520,0.560002177217,-0.119046085999,0.395191460848,-0.170158573942,-0.303585825865,-0.0175304121655
1505419081837912050,0.559836175446,-0.118711541932,0.395191460848,-0.169986733282,-0.303254243133,-0.0175304121655
1505419081844245484,0.559932526354,-0.11859644318,0.395025968552,-0.169716677432,-0.303106773645,-0.0158001578615
1505419081847315122,0.55979183119,-0.118176413842,0.395025968552,-0.169569363576,-0.302689019648,-0.0158001578615
1505419081853880243,0.559725289756,-0.120056450417,0.395025968552,-0.169532534086,-0.304569872878,-0.0158001578615
1505419081857366183,0.559568040466,-0.119906396914,0.395025968552,-0.169372933653,-0.304422322566,-0.0158001578615
1505419081864011185,0.559198253499,-0.119823527987,0.394594609737,-0.169434319538,-0.304410067421,-0.0158001578615
1505419081867418878,0.559216009294,-0.120253947569,0.394594609737,-0.169458873531,-0.304840152745,-0.0158001578615
1505419081878970117,0.558915986554,-0.120431579148,0.394275665283,-0.169483427134,-0.305196418706,-0.0158001578615
1505419081882563782,0.55875195657,-0.12049905293,0.394007563591,-0.169593916432,-0.305601735263,-0.0158001578615
1505419081884551973,0.558564336668,-0.120717122439,0.394007563591,-0.169409765339,-0.305822741853,-0.0158001578615
1505419081887721238,0.558564336668,-0.120717122439,0.394007563591,-2000.0,0.0,-0.0158001578615
1505419081892920455,0.558564336668,-0.120717122439,0.393823891878,-2000.0,0.0,-0.0155527830779
1505419081897441372,0.558564336668,-0.120717122439,0.393823891878,-2000.0,0.0,-0.0155527830779
1505419081904653144,0.558564336668,-0.120717122439,0.39349719882,-2000.0,0.0,-0.0155527830779
1505419081911596793,0.558564336668,-0.120717122439,0.39349719882,-2000.0,0.0,-0.0155527830779
1505419081912763087,0.558564336668,-0.120717122439,0.39349719882,-2000.0,0.0,-0.0155527830779
1505419081917808374,0.558564336668,-0.120717122439,0.39349719882,-2000.0,0.0,-0.0155527830779
1505419081922730949,0.558564336668,-0.120717122439,0.393043100834,-2000.0,0.0,-0.0155527830779
1505419081927596800,0.558564336668,-0.120717122439,0.393043100834,-2000.0,0.0,-0.0155527830779
1505419081933857856,0.558564336668,-0.120717122439,0.392785578966,-2000.0,0.0,-0.0155527830779
1505419081937972066,0.558564336668,-0.120717122439,0.392785578966,-2000.0,0.0,-0.0155527830779
1505419081943924806,0.558564336668,-0.120717122439,0.392785578966,-2000.0,0.0,-0.0153076750292
1505419081948300048,0.558564336668,-0.120717122439,0.392785578966,-2000.0,0.0,-0.0153076750292
1505419081953150023,0.558564336668,-0.120717122439,0.392298132181,-2000.0,0.0,-0.0153076750292
1505419081957780857,0.558564336668,-0.120717122439,0.392298132181,-2000.0,0.0,-0.0153076750292
1505419081964164664,0.558564336668,-0.120717122439,0.392197161913,-2000.0,0.0,-0.0153076750292
1505419081968750031,0.558564336668,-0.120717122439,0.392197161913,-2000.0,0.0,-0.0153076750292
1505419081978658857,0.558564336668,-0.120717122439,0.392197161913,-2000.0,0.0,-0.0153076750292
1505419081979477198,0.558564336668,-0.120717122439,0.392197161913,-2000.0,0.0,-0.0153076750292
1505419081984603498,0.558564336668,-0.120717122439,0.391672462225,-2000.0,0.0,-0.0153076750292
1505419081988202586,0.558564336668,-0.120717122439,0.391672462225,-2000.0,0.0,-0.0153076750292
1505419081994544585,0.558564336668,-0.120717122439,0.391527831554,-2000.0,0.0,-0.0157341467151
1505419081998323093,0.558564336668,-0.120717122439,0.391527831554,-2000.0,0.0,-0.0157341467151
1505419082003268178,0.558564336668,-0.120717122439,0.391154885292,-2000.0,0.0,-0.0157341467151
1505419082011823060,0.558564336668,-0.120717122439,0.391037136316,-2000.0,0.0,-0.0157341467151
1505419082013041927,0.558564336668,-0.120717122439,0.391037136316,-2000.0,0.0,-0.0157341467151
1505419082017966477,0.558564336668,-0.120717122439,0.391037136316,-2000.0,0.0,-0.0157341467151
1505419082023018316,0.558564336668,-0.120717122439,0.390793114901,-2000.0,0.0,-0.0157341467151
1505419082027886834,0.558564336668,-0.120717122439,0.390793114901,-2000.0,0.0,-0.0157341467151
1505419082033461790,0.558564336668,-0.120717122439,0.390487968922,-2000.0,0.0,-0.0157341467151
1505419082045909244,0.558564336668,-0.120717122439,0.390380501747,-2000.0,0.0,-0.0145226211887
1505419082048651814,0.558564336668,-0.120717122439,0.390380501747,-2000.0,0.0,-0.0145226211887
1505419082053252504,0.558564336668,-0.120717122439,0.390099227428,-2000.0,0.0,-0.0145226211887
1505419082058162595,0.558564336668,-0.120717122439,0.390099227428,-2000.0,0.0,-0.0145226211887
1505419082063519525,0.558564336668,-0.120717122439,0.390099227428,-2000.0,0.0,-0.0145226211887
1505419082070159774,0.558564336668,-0.120717122439,0.390099227428,-2000.0,0.0,-0.0145226211887
1505419082077423394,0.558564336668,-0.120717122439,0.389738827944,-2000.0,0.0,-0.0145226211887
1505419082079701633,0.558564336668,-0.120717122439,0.389738827944,-2000.0,0.0,-0.0145226211887
1505419082083492431,0.558564336668,-0.120717122439,0.389475166798,-2000.0,0.0,-0.0145226211887
1505419082088560594,0.558564336668,-0.120717122439,0.389475166798,-2000.0,0.0,-0.0149481077966
1505419082093556281,0.558564336668,-0.120717122439,0.389475166798,-2000.0,0.0,-0.0149481077966
1505419082099879833,0.558564336668,-0.120717122439,0.389475166798,-2000.0,0.0,-0.0149481077966
1505419082111690897,0.558564336668,-0.120717122439,0.388860195875,-2000.0,0.0,-0.0149481077966
1505419082113414101,0.558564336668,-0.120717122439,0.388860195875,-2000.0,0.0,-0.0149481077966
1505419082118423943,0.558564336668,-0.120717122439,0.388860195875,-2000.0,0.0,-0.0149481077966
1505419082123332336,0.558564336668,-0.120717122439,0.388691902161,-2000.0,0.0,-0.0149481077966
1505419082128720443,0.558564336668,-0.120717122439,0.388691902161,-2000.0,0.0,-0.0149481077966
1505419082133709628,0.558564336668,-0.120717122439,0.38843101263,-2000.0,0.0,-0.0149481077966
1505419082138683450,0.558564336668,-0.120717122439,0.38843101263,-2000.0,0.0,-0.0150702432454
1505419082145106970,0.558564336668,-0.120717122439,0.388268947601,-2000.0,0.0,-0.0150702432454
1505419082148560266,0.558564336668,-0.120717122439,0.388268947601,-2000.0,0.0,-0.0150702432454
1505419082153969957,0.558564336668,-0.120717122439,0.388031989336,-2000.0,0.0,-0.0150702432454
1505419082161736499,0.558564336668,-0.120717122439,0.387776792049,-2000.0,0.0,-0.0150702432454
1505419082164091199,0.558564336668,-0.120717122439,0.387776792049,-2000.0,0.0,-0.0150702432454
1505419082168719456,0.558564336668,-0.120717122439,0.387776792049,-2000.0,0.0,-0.0150702432454
1505419082177238469,0.558564336668,-0.120717122439,0.387597978115,-2000.0,0.0,-0.0150702432454
1505419082178756606,0.558564336668,-0.120717122439,0.387597978115,-2000.0,0.0,-0.0150702432454
1505419082183684459,0.558564336668,-0.120717122439,0.387375324965,-2000.0,0.0,-0.0150702432454
1505419082189816215,0.558564336668,-0.120717122439,0.387375324965,-2000.0,0.0,-0.0153587290067
1505419082194371166,0.558564336668,-0.120717122439,0.387163072824,-2000.0,0.0,-0.0153587290067
1505419082199047869,0.558564336668,-0.120717122439,0.387163072824,-2000.0,0.0,-0.0153587290067
1505419082204981772,0.558564336668,-0.120717122439,0.386929422617,-2000.0,0.0,-0.0153587290067
1505419082211880751,0.558564336668,-0.120717122439,0.386692464352,-2000.0,0.0,-0.0153587290067
1505419082214134653,0.558564336668,-0.120717122439,0.386692464352,-2000.0,0.0,-0.0153587290067
1505419082218749266,0.558564336668,-0.120717122439,0.386692464352,-2000.0,0.0,-0.0153587290067
1505419082223915308,0.558564336668,-0.120717122439,0.386447131634,-2000.0,0.0,-0.0153587290067
1505419082230508909,0.558564336668,-0.120717122439,0.386447131634,-2000.0,0.0,-0.0153587290067
1505419082234114731,0.558564336668,-0.120717122439,0.386240363121,-2000.0,0.0,-0.0153587290067
1505419082245141624,0.558564336668,-0.120717122439,0.385964423418,-2000.0,0.0,-0.0153875521699
1505419082250347962,0.558564336668,-0.120717122439,0.385964423418,-2000.0,0.0,-0.0153875521699
1505419082253802252,0.558564336668,-0.120717122439,0.385738760233,-2000.0,0.0,-0.0153875521699
1505419082259251556,0.558564336668,-0.120717122439,0.385738760233,-2000.0,0.0,-0.0153875521699
1505419082264131011,0.558564336668,-0.120717122439,0.385573923588,-2000.0,0.0,-0.0153875521699
1505419082269123985,0.558564336668,-0.120717122439,0.385573923588,-2000.0,0.0,-0.0153875521699
1505419082277436617,0.558564336668,-0.120717122439,0.385279774666,-2000.0,0.0,-0.0153875521699
1505419082279102747,0.558564336668,-0.120717122439,0.385279774666,-2000.0,0.0,-0.0153875521699
1505419082284491536,0.558564336668,-0.120717122439,0.385093480349,-2000.0,0.0,-0.0153875521699
1505419082289302550,0.558564336668,-0.120717122439,0.385093480349,-2000.0,0.0,-0.014678287338
1505419082295699487,0.558564336668,-0.120717122439,0.384876340628,-2000.0,0.0,-0.014678287338
1505419082299214426,0.558564336668,-0.120717122439,0.384876340628,-2000.0,0.0,-0.014678287338
1505419082311110763,0.558564336668,-0.120717122439,0.38448753953,-2000.0,0.0,-0.014678287338
1505419082311277721,0.558564336668,-0.120717122439,0.38448753953,-2000.0,0.0,-0.014678287338
1505419082314115455,0.558564336668,-0.120717122439,0.38448753953,-2000.0,0.0,-0.014678287338
1505419082319323396,0.558564336668,-0.120717122439,0.38448753953,-2000.0,0.0,-0.014678287338
1505419082324667998,0.558564336668,-0.120717122439,0.384212881327,-2000.0,0.0,-0.014678287338
1505419082329504468,0.558564336668,-0.120717122439,0.384212881327,-2000.0,0.0,-0.014678287338
1505419082334420454,0.558564336668,-0.120717122439,0.383954316378,-2000.0,0.0,-0.014678287338
1505419082344445831,0.558564336668,-0.120717122439,0.383805006742,-2000.0,0.0,-0.0145491160157
1505419082345312669,0.558564336668,-0.120717122439,0.383805006742,-2000.0,0.0,-0.0145491160157
1505419082349306103,0.558564336668,-0.120717122439,0.383805006742,-2000.0,0.0,-0.0145491160157
1505419082357211338,0.558564336668,-0.120717122439,0.383441329002,-2000.0,0.0,-0.0145491160157
1505419082360298598,0.558564336668,-0.120717122439,0.383441329002,-2000.0,0.0,-0.0145491160157
1505419082367302291,0.558564336668,-0.120717122439,0.383278340101,-2000.0,0.0,-0.0145491160157
1505419082369558253,0.558564336668,-0.120717122439,0.383278340101,-2000.0,0.0,-0.0145491160157
1505419082376922782,0.558564336668,-0.120717122439,0.383140683174,-2000.0,0.0,-0.0145491160157
1505419082379360028,0.558564336668,-0.120717122439,0.383140683174,-2000.0,0.0,-0.0145491160157
1505419082385911910,0.558564336668,-0.120717122439,0.382830500603,-2000.0,0.0,-0.0145491160157
1505419082389850917,0.558564336668,-0.120717122439,0.382830500603,-2000.0,0.0,-0.0141237773195
1505419082394791690,0.558564336668,-0.120717122439,0.382736980915,-2000.0,0.0,-0.0141237773195
1505419082399715312,0.558564336668,-0.120717122439,0.382736980915,-2000.0,0.0,-0.0141237773195
1505419082404613088,0.558564336668,-0.120717122439,0.382450133562,-2000.0,0.0,-0.0141237773195
1505419082411572178,0.558564336668,-0.120717122439,0.38221642375,-2000.0,0.0,-0.0141237773195
1505419082414472343,0.558564336668,-0.120717122439,0.38221642375,-2000.0,0.0,-0.0141237773195
1505419082419701206,0.558564336668,-0.120717122439,0.38221642375,-2000.0,0.0,-0.0141237773195
1505419082425022978,0.558564336668,-0.120717122439,0.382102489471,-2000.0,0.0,-0.0141237773195
1505419082429833661,0.558564336668,-0.120717122439,0.382102489471,-2000.0,0.0,-0.0141237773195
1505419082434984542,0.558564336668,-0.120717122439,0.381730467081,-2000.0,0.0,-0.0141237773195
1505419082443748783,0.558564336668,-0.120717122439,0.381622463465,-2000.0,0.0,-0.0140548196435
1505419082448057229,0.558564336668,-0.120717122439,0.381622463465,-2000.0,0.0,-0.0140548196435
1505419082449776829,0.558564336668,-0.120717122439,0.381622463465,-2000.0,0.0,-0.0140548196435
1505419082455103042,0.558564336668,-0.120717122439,0.381382584572,-2000.0,0.0,-0.0140548196435
1505419082459908468,0.558564336668,-0.120717122439,0.381382584572,-2000.0,0.0,-0.0140548196435
1505419082464776043,0.558564336668,-0.120717122439,0.381089866161,-2000.0,0.0,-0.0140548196435
1505419082469892054,0.558564336668,-0.120717122439,0.381089866161,-2000.0,0.0,-0.0140548196435
1505419082479904139,0.558564336668,-0.120717122439,0.3809915483,-2000.0,0.0,-0.0140548196435
1505419082481815072,0.558564336668,-0.120717122439,0.380642920732,-2000.0,0.0,-0.0140548196435
1505419082484928782,0.558564336668,-0.120717122439,0.380642920732,-2000.0,0.0,-0.0140548196435
1505419082490197860,0.558564336668,-0.120717122439,0.380642920732,-2000.0,0.0,-0.0144973661291
1505419082497200457,0.558564336668,-0.120717122439,0.380494326353,-2000.0,0.0,-0.0144973661291
1505419082500148264,0.558564336668,-0.120717122439,0.380494326353,-2000.0,0.0,-0.0144973661291
1505419082504907285,0.558564336668,-0.120717122439,0.380376517773,-2000.0,0.0,-0.0144973661291
1505419082510335891,0.558564336668,-0.120717122439,0.380376517773,-2000.0,0.0,-0.0144973661291
1505419082515363808,0.558564336668,-0.120717122439,0.38007080555,-2000.0,0.0,-0.0144973661291
1505419082520559391,0.558564336668,-0.120717122439,0.38007080555,-2000.0,0.0,-0.0144973661291
1505419082525262046,0.558564336668,-0.120717122439,0.37991002202,-2000.0,0.0,-0.0144973661291
1505419082533145586,0.558564336668,-0.120717122439,0.379682987928,-2000.0,0.0,-0.0144973661291
1505419082534926520,0.558564336668,-0.120717122439,0.379682987928,-2000.0,0.0,-0.0144973661291
1505419082543898149,0.558564336668,-0.120717122439,0.379413157701,-2000.0,0.0,-0.0142956580478
1505419082544884597,0.558564336668,-0.120717122439,0.379413157701,-2000.0,0.0,-0.0142956580478
1505419082555034894,0.558564336668,-0.120717122439,0.379267841578,-2000.0,0.0,-0.0142956580478
1505419082555693164,0.558564336668,-0.120717122439,0.379267841578,-2000.0,0.0,-0.0142956580478
1505419082560264282,0.558564336668,-0.120717122439,0.379267841578,-2000.0,0.0,-0.0142956580478
1505419082565714885,0.558564336668,-0.120717122439,0.379042208195,-2000.0,0.0,-0.0142956580478
1505419082571445678,0.558564336668,-0.120717122439,0.379042208195,-2000.0,0.0,-0.0142956580478
1505419082576911122,0.558564336668,-0.120717122439,0.378833681345,-2000.0,0.0,-0.0142956580478
1505419082582112809,0.558564336668,-0.120717122439,0.378585666418,-2000.0,0.0,-0.0142956580478
1505419082585351205,0.558564336668,-0.120717122439,0.378585666418,-2000.0,0.0,-0.0142956580478
1505419082591542032,0.558564336668,-0.120717122439,0.378290086985,-2000.0,0.0,-0.0145775843494
1505419082599131537,0.558564336668,-0.120717122439,0.378290086985,-2000.0,0.0,-0.0145775843494
1505419082600319971,0.558564336668,-0.120717122439,0.378290086985,-2000.0,0.0,-0.0145775843494
1505419082611292510,0.558564336668,-0.120717122439,0.377755820751,-2000.0,0.0,-0.0145775843494
1505419082617379949,0.558564336668,-0.120717122439,0.377755820751,-2000.0,0.0,-0.0145775843494
1505419082620773849,0.558564336668,-0.120717122439,0.377755820751,-2000.0,0.0,-0.0145775843494
1505419082625337726,0.558564336668,-0.120717122439,0.377546042204,-2000.0,0.0,-0.0145775843494
1505419082630811302,0.558564336668,-0.120717122439,0.377546042204,-2000.0,0.0,-0.0145775843494
1505419082635890660,0.558564336668,-0.120717122439,0.377244830132,-2000.0,0.0,-0.0145775843494
1505419082644275388,0.558564336668,-0.120717122439,0.376931101084,-2000.0,0.0,-0.0147132559255
1505419082645691037,0.558564336668,-0.120717122439,0.376931101084,-2000.0,0.0,-0.0147132559255
1505419082650855881,0.558564336668,-0.120717122439,0.376597940922,-2000.0,0.0,-0.0147132559255
1505419082658226729,0.558564336668,-0.120717122439,0.376597940922,-2000.0,0.0,-0.0147132559255
1505419082661042544,0.558564336668,-0.120717122439,0.376201629639,-2000.0,0.0,-0.0147132559255
1505419082665709525,0.558564336668,-0.120717122439,0.376201629639,-2000.0,0.0,-0.0147132559255
1505419082670870239,0.558564336668,-0.120717122439,0.376201629639,-2000.0,0.0,-0.0147132559255
1505419082677133106,0.558564336668,-0.120717122439,0.375929057598,-2000.0,0.0,-0.0147132559255
1505419082683735789,0.558564336668,-0.120717122439,0.375558227301,-2000.0,0.0,-0.0147132559255
1505419082687157980,0.558564336668,-0.120717122439,0.375558227301,-2000.0,0.0,-0.0147132559255
1505419082691087205,0.558564336668,-0.120717122439,0.375239431858,-2000.0,0.0,-0.0138945837846
1505419082695803713,0.558564336668,-0.120717122439,0.375239431858,-2000.0,0.0,-0.0138945837846
1505419082701936571,0.558564336668,-0.120717122439,0.374927908182,-2000.0,0.0,-0.0138945837846
1505419082709221425,0.558564336668,-0.120717122439,0.374927908182,-2000.0,0.0,-0.0138945837846
1505419082711289863,0.558564336668,-0.120717122439,0.374498873949,-2000.0,0.0,-0.0138945837846
1505419082716247294,0.558564336668,-0.120717122439,0.374498873949,-2000.0,0.0,-0.0138945837846
1505419082721150140,0.558564336668,-0.120717122439,0.374498873949,-2000.0,0.0,-0.0138945837846
1505419082725816801,0.558564336668,-0.120717122439,0.374498873949,-2000.0,0.0,-0.0138945837846
1505419082732311449,0.558564336668,-0.120717122439,0.373799741268,-2000.0,0.0,-0.0138945837846
1505419082737720515,0.558564336668,-0.120717122439,0.373799741268,-2000.0,0.0,-0.0138945837846
1505419082744160407,0.558564336668,-0.120717122439,0.373498529196,-2000.0,0.0,-0.014209908248
1505419082748013815,0.558564336668,-0.120717122439,0.373498529196,-2000.0,0.0,-0.014209908248
1505419082751416627,0.558564336668,-0.120717122439,0.373498529196,-2000.0,0.0,-0.014209908248
1505419082756242532,0.558564336668,-0.120717122439,0.373498529196,-2000.0,0.0,-0.014209908248
1505419082761123780,0.558564336668,-0.120717122439,0.37270078063,-2000.0,0.0,-0.014209908248
1505419082766139232,0.558564336668,-0.120717122439,0.37270078063,-2000.0,0.0,-0.014209908248
1505419082770896344,0.558564336668,-0.120717122439,0.37270078063,-2000.0,0.0,-0.014209908248
1505419082778832181,0.558564336668,-0.120717122439,0.37246748805,-2000.0,0.0,-0.014209908248
1505419082781671356,0.558564336668,-0.120717122439,0.37246748805,-2000.0,0.0,-0.014209908248
1505419082788532392,0.558564336668,-0.120717122439,0.37246748805,-2000.0,0.0,-0.0145117373759
1505419082791133487,0.558564336668,-0.120717122439,0.371640771627,-2000.0,0.0,-0.0145117373759
1505419082796055935,0.558564336668,-0.120717122439,0.371640771627,-2000.0,0.0,-0.0145117373759
1505419082801059616,0.558564336668,-0.120717122439,0.371341526508,-2000.0,0.0,-0.0145117373759
1505419082811142575,0.558564336668,-0.120717122439,0.370944410563,-2000.0,0.0,-0.0145117373759
1505419082814456461,0.558564336668,-0.120717122439,0.370944410563,-2000.0,0.0,-0.0145117373759
1505419082816369748,0.558564336668,-0.120717122439,0.370944410563,-2000.0,0.0,-0.0145117373759
1505419082821134982,0.558564336668,-0.120717122439,0.370944410563,-2000.0,0.0,-0.0145117373759
1505419082826197892,0.558564336668,-0.120717122439,0.370569944382,-2000.0,0.0,-0.0145117373759
1505419082831403710,0.558564336668,-0.120717122439,0.370222061872,-2000.0,0.0,-0.0145117373759
1505419082836113451,0.558564336668,-0.120717122439,0.370222061872,-2000.0,0.0,-0.0145117373759
1505419082843543816,0.558564336668,-0.120717122439,0.370222061872,-2000.0,0.0,-0.013499608206
1505419082846482188,0.558564336668,-0.120717122439,0.370222061872,-2000.0,0.0,-0.013499608206
1505419082851605876,0.558564336668,-0.120717122439,0.369346678257,-2000.0,0.0,-0.013499608206
1505419082857673878,0.558564336668,-0.120717122439,0.369346678257,-2000.0,0.0,-0.013499608206
1505419082861738786,0.558564336668,-0.120717122439,0.368939101696,-2000.0,0.0,-0.013499608206
1505419082866358339,0.558564336668,-0.120717122439,0.368939101696,-2000.0,0.0,-0.013499608206
1505419082871504456,0.558564336668,-0.120717122439,0.368939101696,-2000.0,0.0,-0.013499608206
1505419082878216080,0.558564336668,-0.120717122439,0.368939101696,-2000.0,0.0,-0.013499608206
1505419082882849936,0.558564336668,-0.120717122439,0.368118882179,-2000.0,0.0,-0.013499608206
1505419082890136886,0.558564336668,-0.120717122439,0.368118882179,-2000.0,0.0,-0.012739889478
1505419082891489373,0.558564336668,-0.120717122439,0.367651104927,-2000.0,0.0,-0.012739889478
1505419082898417390,0.558564336668,-0.120717122439,0.367651104927,-2000.0,0.0,-0.012739889478
1505419082901192349,0.558564336668,-0.120717122439,0.367268621922,-2000.0,0.0,-0.012739889478
1505419082910857201,0.558564336668,-0.120717122439,0.367268621922,-2000.0,0.0,-0.012739889478
1505419082911818486,0.558564336668,-0.120717122439,0.366826027632,-2000.0,0.0,-0.012739889478
1505419082916689640,0.558564336668,-0.120717122439,0.366826027632,-2000.0,0.0,-0.012739889478
1505419082921505775,0.558564336668,-0.120717122439,0.366390019655,-2000.0,0.0,-0.012739889478
1505419082926677469,0.558564336668,-0.120717122439,0.366390019655,-2000.0,0.0,-0.012739889478
1505419082931684037,0.558564336668,-0.120717122439,0.365953564644,-2000.0,0.0,-0.012739889478
1505419082936465440,0.558564336668,-0.120717122439,0.365953564644,-2000.0,0.0,-0.012739889478
1505419082945120790,0.558564336668,-0.120717122439,0.365502744913,-2000.0,0.0,-0.0117940139813
1505419082947126412,0.558564336668,-0.120717122439,0.365502744913,-2000.0,0.0,-0.0117940139813
1505419082955221043,0.558564336668,-0.120717122439,0.365101337433,-2000.0,0.0,-0.0117940139813
1505419082957543151,0.558564336668,-0.120717122439,0.365101337433,-2000.0,0.0,-0.0117940139813
1505419082961643579,0.558564336668,-0.120717122439,0.364652782679,-2000.0,0.0,-0.0117940139813
1505419082966672032,0.558564336668,-0.120717122439,0.364652782679,-2000.0,0.0,-0.0117940139813
1505419082977210680,0.558564336668,-0.120717122439,0.364226639271,-2000.0,0.0,-0.0117940139813
1505419082979999989,0.558564336668,-0.120717122439,0.364226639271,-2000.0,0.0,-0.0117940139813
1505419082983521608,0.558564336668,-0.120717122439,0.363754600286,-2000.0,0.0,-0.0117940139813
1505419082986778490,0.558564336668,-0.120717122439,0.363754600286,-2000.0,0.0,-0.0117940139813
1505419082991947536,0.558564336668,-0.120717122439,0.363281548023,-2000.0,0.0,-0.0106068472041
1505419082996765626,0.558564336668,-0.120717122439,0.363281548023,-2000.0,0.0,-0.0106068472041
1505419083001783514,0.558564336668,-0.120717122439,0.362899780273,-2000.0,0.0,-0.0106068472041
1505419083013124136,0.558564336668,-0.120717122439,0.362330019474,-2000.0,0.0,-0.0106068472041
1505419083016711560,0.558564336668,-0.120717122439,0.362330019474,-2000.0,0.0,-0.0106068472041
1505419083021788570,0.558564336668,-0.120717122439,0.361960351467,-2000.0,0.0,-0.0106068472041
1505419083026914507,0.558564336668,-0.120717122439,0.361960351467,-2000.0,0.0,-0.0106068472041
1505419083031957837,0.558564336668,-0.120717122439,0.36142718792,-2000.0,0.0,-0.0106068472041
1505419083036985148,0.558564336668,-0.120717122439,0.36142718792,-2000.0,0.0,-0.0106068472041
1505419083043839474,0.558564336668,-0.120717122439,0.360977351665,-2000.0,0.0,-0.0101595439441
1505419083051209517,0.558564336668,-0.120717122439,0.360570192337,-2000.0,0.0,-0.0101595439441
1505419083053565697,0.558564336668,-0.120717122439,0.360570192337,-2000.0,0.0,-0.0101595439441
1505419083057109726,0.558564336668,-0.120717122439,0.360570192337,-2000.0,0.0,-0.0101595439441
1505419083062080424,0.558564336668,-0.120717122439,0.360050231218,-2000.0,0.0,-0.0101595439441
1505419083068166200,0.558564336668,-0.120717122439,0.360050231218,-2000.0,0.0,-0.0101595439441
1505419083078542339,0.558564336668,-0.120717122439,0.359629452229,-2000.0,0.0,-0.0101595439441
1505419083081943223,0.558564336668,-0.120717122439,0.359160065651,-2000.0,0.0,-0.0101595439441
1505419083087265484,0.558564336668,-0.120717122439,0.359160065651,-2000.0,0.0,-0.0101595439441
1505419083093430069,0.558564336668,-0.120717122439,0.358647853136,-2000.0,0.0,-0.0108986269693
1505419083097225066,0.491508164069,-0.15543544425,0.358647853136,-0.135000923822,-0.195679463532,-0.0108986269693
1505419083103927524,0.491205418767,-0.160438595112,0.358249217272,-0.135094498081,-0.195466417657,-0.0108986269693
1505419083113201037,0.490976504628,-0.164540024832,0.35768648982,-0.135433682612,-0.195957413502,-0.0108986269693
