%time,field.header.seq,field.header.stamp,field.header.frame_id,field.batteryPercent,field.state,field.magX,field.magY,field.magZ,field.pressure,field.temp,field.wind_speed,field.wind_angle,field.wind_comp_angle,field.rotX,field.rotY,field.rotZ,field.altd,field.vx,field.vy,field.vz,field.ax,field.ay,field.az,field.motor1,field.motor2,field.motor3,field.motor4,field.tags_count,field.tm
1505419079904737842,15913,1505419079904558857,74.0,3,75,-23,29,98872,366,0.0159479416907,-35.2031555176,0.0,0.462000012398,0.237000003457,-64.1910018921,467,155.619140625,21.8779659271,-0.0,-0.0415723510087,0.0235728658736,0.995945096016,173,180,190,188,0,541533824.0
1505419079913142321,15914,1505419079912919011,74.0,3,75,-23,29,98875,366,0.0159694645554,-35.1577262878,0.0,0.470999985933,0.197999998927,-64.2129974365,468,155.196746826,21.5773181915,-0.0,-0.0461927950382,0.0323755852878,1.01511323452,173,179,191,188,0,541538816.0
1505419079918270582,15915,1505419079918089642,74.0,3,71,-15,31,98859,366,0.0159910880029,-35.1122665405,0.0,0.481000006199,0.168999999762,-64.2149963379,469,154.959075928,20.8731269836,-0.0,-0.0400724336505,0.0192344374955,1.03504538536,173,180,190,188,0,541543872.0
1505419079936057429,15916,1505419079935790613,74.0,3,71,-15,31,98859,366,0.0160343367606,-35.1697158813,0.0,0.486999988556,0.140000000596,-64.2080001831,471,154.3881073,20.528137207,-0.0,-0.0525106824934,0.0337175875902,1.04587090015,171,181,188,191,0,541548736.0
1505419079937669625,15917,1505419079937330438,74.0,3,75,-23,25,98847,366,0.0160574913025,-35.162563324,0.0,0.504000008106,0.119999997318,-64.2129974365,473,153.966903687,19.891960144,-0.0,-0.0477370508015,0.0242646466941,1.06214797497,170,183,187,190,0,541553984.0
1505419079938627254,15918,1505419079938463507,74.0,3,75,-23,25,98844,366,0.0161027330905,-35.264881134,0.0,0.508000016212,0.103000000119,-64.1890029907,474,153.379333496,19.3041114807,-0.0,-0.0548675768077,0.0262528769672,1.06199729443,168,185,184,193,0,541558848.0
1505419079945221948,15919,1505419079945025987,74.0,3,73,-21,27,98850,366,0.0161349698901,-35.3706169128,0.0,0.503000020981,0.0790000036359,-64.18800354,476,152.438156128,19.0272369385,-0.0,-0.0663764774799,0.0343734808266,1.05922949314,167,184,183,194,0,541563840.0
1505419079947954469,15920,1505419079947043533,74.0,3,73,-21,27,98853,366,0.0161529891193,-35.5305175781,0.0,0.504000008106,0.0649999976158,-64.1780014038,478,151.358795166,18.5320205688,-0.0,-0.0738793164492,0.0273682922125,1.06238400936,167,185,183,193,0,541568832.0
1505419079947961814,15921,1505419079947062287,74.0,3,77,-15,25,98850,366,0.0161683857441,-35.7297897339,0.0,0.49200001359,0.0500000007451,-64.1640014648,477,150.155838013,18.2021541595,-0.0,-0.0779522508383,0.0282891895622,1.04776287079,167,186,182,196,0,541574080.0
1505419079954802371,15922,1505419079954581677,74.0,3,77,-15,25,98850,366,0.0161881670356,-35.8406867981,0.0,0.495000004768,0.0419999994338,-64.1719970703,478,149.036575317,17.6972980499,-0.0,-0.0761403292418,0.0253267139196,1.02701151371,168,185,184,193,0,541578880.0
1505419079955991291,15923,1505419079955815325,74.0,3,75,-17,23,98856,366,0.0161888599396,-35.9396133423,0.0,0.490000009537,0.0340000018477,-64.1610031128,480,148.081481934,16.893655777,-0.0,-0.0692803412676,0.0130309015512,1.01013731956,168,185,183,193,0,541583936.0
1505419079960056388,15924,1505419079959825191,74.0,3,75,-17,23,98856,366,0.0161969326437,-36.0023460388,0.0,0.47499999404,0.019999999553,-64.172996521,482,147.155654907,16.2531833649,-0.0,-0.0656978115439,0.0141994040459,0.993034124374,170,182,184,192,0,541588928.0
1505419079964872006,15925,1505419079964701014,74.0,3,73,-19,23,98872,366,0.0162140466273,-36.0390167236,0.0,0.472999989986,0.00600000005215,-64.1819992065,483,146.366592407,15.7541790009,-0.0,-0.0599161982536,0.0227903239429,1.01743900776,171,181,186,190,0,541593920.0
1505419079971016522,15926,1505419079970797778,74.0,3,73,-19,23,98872,366,0.0162281412631,-36.0264930725,0.0,0.449000000954,-0.00600000005215,-64.1900024414,484,145.855010986,15.3328933716,-0.0,-0.0484575368464,0.0201525986195,1.02813875675,173,180,185,190,0,541598912.0
1505419079980672098,15927,1505419079980430394,74.0,3,75,-17,23,98844,366,0.0162593014538,-35.9714775085,0.0,0.43599998951,-0.0109999999404,-64.2080001831,486,145.413696289,15.387588501,-0.0,-0.0469835810363,0.0407977327704,1.05766272545,174,179,186,188,0,541604096.0
1505419079980705959,15928,1505419079980454192,74.0,3,75,-17,23,98841,366,0.0162786617875,-35.8962364197,0.0,0.423000007868,-0.0149999996647,-64.216003418,488,145.293502808,15.0289068222,-0.0,-0.0341408550739,0.0245354901999,1.06244027615,174,179,186,187,0,541609088.0
1505419079985222539,15929,1505419079984993756,74.0,3,72,-26,22,98838,366,0.0163044650108,-35.8364868164,0.0,0.395999997854,-0.0240000002086,-64.2239990234,487,145.046661377,14.9812984467,-0.0,-0.037856400013,0.0303546693176,1.06667268276,174,178,186,189,0,541614144.0
1505419079992308661,15930,1505419079992101480,74.0,3,72,-26,22,98838,366,0.0163217093796,-35.7964668274,0.0,0.398000001907,-0.0299999993294,-64.2350006104,489,144.704162598,14.5629234314,-0.0,-0.0423864126205,0.024611486122,1.06370639801,173,180,187,187,0,541619200.0
1505419079996260811,15931,1505419079996091503,74.0,3,81,-21,23,98844,366,0.0163286384195,-35.7964897156,0.0,0.372999995947,-0.0390000008047,-64.2399978638,491,144.127624512,14.0592384338,-0.0,-0.0507417693734,0.01376398094,1.04758787155,173,178,185,189,0,541624128.0
1505419080003408625,15932,1505419080003230869,74.0,3,81,-21,23,98847,366,0.0163476746529,-35.83228302,0.0,0.358999997377,-0.0520000010729,-64.2470016479,493,143.311157227,13.7696905136,-0.0,-0.0591412484646,0.0246208328754,1.03330314159,172,179,186,188,0,541629056.0
1505419080014040355,15933,1505419080013798223,74.0,3,79,-19,27,98853,366,0.0163554158062,-35.8786010742,0.0,0.344000011683,-0.070000000298,-64.2590026855,495,142.385223389,13.2779750824,-0.0,-0.0616088584065,0.014805345796,1.01028430462,172,178,186,188,0,541634048.0
1505419080014972220,15934,1505419080014763983,74.0,3,79,-19,27,98853,366,0.0163808353245,-35.9406852722,0.0,0.310000002384,-0.103000000119,-64.2519989014,497,141.423934937,13.1654920578,-0.0,-0.0580922923982,0.0258945692331,0.987283170223,171,177,184,191,0,541639168.0
1505419080016277892,15935,1505419080016054461,74.0,3,75,-19,23,98856,366,0.0164040587842,-35.957572937,0.0,0.312999993563,-0.131999999285,-64.2570037842,499,140.568222046,12.8816509247,-0.0,-0.0537732280791,0.0271448846906,0.972681760788,169,179,185,189,0,541644096.0
1505419080021013943,15936,1505419080020733812,74.0,3,75,-19,23,98853,366,0.0164406504482,-35.9939880371,0.0,0.286000013351,-0.163000002503,-64.2539978027,500,139.710601807,12.9370088577,-0.0,-0.0522252358496,0.0331979505718,0.970879971981,169,178,183,191,0,541649152.0
1505419080025332944,15937,1505419080025197051,74.0,3,78,-18,26,98847,366,0.016477547586,-35.9975891113,0.0,0.284000009298,-0.186000004411,-64.2580032349,499,138.960784912,13.0100078583,-0.0,-0.0500979572535,0.0378404818475,0.986864209175,169,180,184,190,0,541654272.0
1505419080030576757,15938,1505419080030360430,74.0,3,78,-18,26,98850,366,0.0165033359081,-35.9546699524,0.0,0.273000001907,-0.20000000298,-64.2779998779,501,138.258026123,13.1033678055,-0.0,-0.0487118065357,0.036068059504,1.02000772953,171,178,185,188,0,541659200.0
1505419080035357896,15939,1505419080035083029,74.0,3,78,-22,22,98859,366,0.0165347438306,-35.9120292664,0.0,0.252000004053,-0.218999996781,-64.2860031128,503,137.676559448,13.251408577,-0.0,-0.0419429726899,0.0360719896853,1.03779125214,172,176,185,188,0,541664192.0
1505419080044323117,15940,1505419080044104923,74.0,3,78,-22,22,98859,366,0.016549391672,-35.8717651367,0.0,0.256000012159,-0.223000004888,-64.3099975586,505,137.08416748,13.081656456,-0.0,-0.0463025942445,0.0282279383391,1.05572974682,173,177,187,184,0,541669312.0
1505419080046454661,15941,1505419080046191470,74.0,3,78,-22,24,98850,366,0.0165772903711,-35.8450088501,0.0,0.225999996066,-0.225999996066,-64.3239974976,506,136.432327271,13.310710907,-0.0,-0.0485000275075,0.0355118662119,1.05011570454,175,174,185,186,0,541674368.0
1505419080051682547,15942,1505419080051367317,74.0,3,78,-22,24,98850,366,0.0166017971933,-35.8719596863,0.0,0.202000007033,-0.228000000119,-64.3339996338,508,135.538238525,13.3819007874,-0.0,-0.0589078254998,0.0300128534436,1.0411169529,174,175,185,186,0,541679232.0
1505419080055517513,15943,1505419080055300808,74.0,3,71,-17,23,98850,366,0.016633450985,-35.8962211609,0.0,0.162000000477,-0.224000006914,-64.3529968262,510,134.551803589,13.7112836838,-0.0,-0.0645142942667,0.0338249467313,1.03369867802,175,174,184,186,0,541684288.0
1505419080060235374,15944,1505419080060082742,74.0,3,71,-17,23,98850,366,0.016640143469,-35.978805542,0.0,0.105999998748,-0.238000005484,-64.3470001221,512,133.398727417,13.7249698639,-0.0,-0.0660500600934,0.0171793811023,1.00553429127,173,174,182,189,0,541689280.0
1505419080065808494,15945,1505419080065571309,74.0,3,76,-18,22,98844,366,0.0166292954236,-36.0344924927,0.0,0.0729999989271,-0.24699999392,-64.3479995728,511,132.351745605,13.2859420776,-0.0,-0.0645210072398,0.00239680474624,0.991272926331,171,177,182,189,0,541694720.0
1505419080070700599,15946,1505419080070492040,74.0,3,76,-18,22,98844,366,0.0166229624301,-36.0505409241,0.0,0.0270000007004,-0.268999993801,-64.3359985352,513,131.319564819,12.9406747818,-0.0,-0.0581596791744,0.00301540596411,0.96976184845,169,177,180,192,0,541699584.0
1505419080077536761,15947,1505419080077301531,74.0,3,75,-21,23,98856,366,0.0166229512542,-36.0914726257,0.0,0.0010000000475,-0.294999986887,-64.3199996948,515,130.19493103,12.6114997864,-0.0,-0.060150962323,0.00802423432469,0.955920219421,166,180,179,193,0,541704512.0
1505419080080378829,15948,1505419080080178547,74.0,3,75,-21,23,98856,366,0.0166539940983,-36.1069526672,0.0,-0.00400000018999,-0.316000014544,-64.3229980469,517,129.285095215,12.8103971481,-0.0,-0.0518357977271,0.0327165015042,0.975398004055,166,180,180,192,0,541709376.0
1505419080085500772,15949,1505419080085263470,74.0,3,79,-15,21,98868,366,0.0167056676,-36.152130127,0.0,-0.00600000005215,-0.344000011683,-64.3150024414,519,128.383377075,13.1699209213,-0.0,-0.0487247519195,0.0414662361145,0.97304058075,165,179,180,192,0,541714432.0
1505419080090536821,15950,1505419080090295875,74.0,3,79,-15,21,98868,366,0.0167362503707,-36.1136398315,0.0,0.0250000003725,-0.361999988556,-64.3290023804,520,127.568504333,13.2519378662,-0.0,-0.0471895486116,0.0385513082147,1.00237905979,165,180,183,188,0,541719424.0
1505419080096663355,15951,1505419080096479000,74.0,3,73,-15,13,98862,366,0.0167658254504,-36.0815086365,0.0,0.0439999997616,-0.381000012159,-64.3379974365,522,126.777908325,13.3209056854,-0.0,-0.0451560616493,0.035684466362,1.01242923737,167,178,184,187,0,541724480.0
1505419080100518945,15952,1505419080100339425,74.0,3,73,-15,13,98862,366,0.0167819149792,-36.0932922363,0.0,0.0649999976158,-0.402999997139,-64.3479995728,524,125.726486206,13.0636577606,-0.0,-0.0544700026512,0.0233307816088,1.02403390408,167,177,185,186,0,541729472.0
1505419080105731117,15953,1505419080105534210,74.0,3,82,-18,24,98850,366,0.0167909637094,-36.1284294128,0.0,0.0750000029802,-0.416000008583,-64.3710021973,522,124.720153809,12.6694087982,-0.0,-0.0570572726429,0.0137406410649,1.04348611832,171,176,186,185,0,541734656.0
1505419080111567770,15954,1505419080111348863,74.0,3,82,-18,24,98850,366,0.0168039873242,-36.158821106,0.0,0.0529999993742,-0.430000007153,-64.3840026855,524,123.591758728,12.6132688522,-0.0,-0.0586681030691,0.0195277482271,1.02955400944,172,173,185,186,0,541739648.0
1505419080115893308,15955,1505419080115683169,74.0,3,82,-14,20,98841,366,0.0168279502541,-36.2222747803,0.0,0.0410000011325,-0.437000006437,-64.40599823,526,122.22959137,12.5328769684,-0.0,-0.0695794671774,0.0197329595685,1.01713299751,173,173,186,184,0,541744640.0
1505419080120560333,15956,1505419080120353187,74.0,3,82,-14,20,98841,366,0.016847204417,-36.2868270874,0.0,0.0109999999404,-0.435000002384,-64.4270019531,528,120.970367432,12.5219783783,-0.0,-0.0679935365915,0.0168500784785,0.98692804575,175,171,185,183,0,541749568.0
1505419080127010436,15957,1505419080126754059,74.0,3,79,-17,23,98862,366,0.0168668087572,-36.3825531006,0.0,-0.0240000002086,-0.442999988794,-64.43800354,530,119.469665527,12.6924333572,-0.0,-0.0754949524999,0.0222881976515,0.953036010265,174,171,184,184,0,541754560.0
1505419080131900955,15958,1505419080131611692,74.0,3,79,-17,23,98862,366,0.0168919023126,-36.4557151794,0.0,-0.0359999984503,-0.448000013828,-64.4619979858,532,118.080055237,12.6182727814,-0.0,-0.0714620053768,0.0171984452754,0.948636651039,173,171,186,182,0,541759808.0
1505419080136094680,15959,1505419080135900648,74.0,3,76,-12,20,98856,366,0.0168981477618,-36.5005645752,0.0,-0.082000002265,-0.46099999547,-64.4729995728,534,116.882965088,12.6838092804,-0.0,-0.0610243342817,0.0129995821044,0.940321803093,174,169,184,185,0,541764736.0
1505419080148747944,15960,1505419080148448500,74.0,3,76,-12,20,98856,366,0.0169214401394,-36.5135879517,0.0,-0.116999998689,-0.485000014305,-64.4909973145,536,115.633209229,13.0723686218,-0.0,-0.0594716742635,0.0274459961802,0.958071827888,173,169,184,185,0,541769664.0
1505419080151245767,15961,1505419080151037026,74.0,3,80,-18,12,98850,366,0.0169458817691,-36.4276847839,0.0,-0.149000003934,-0.505999982357,-64.5179977417,534,114.80166626,13.7797241211,-0.0,-0.0455910861492,0.0401608534157,0.984001338482,175,169,186,184,0,541774720.0
1505419080153167824,15962,1505419080152987924,74.0,3,80,-18,12,98850,366,0.0170066002756,-36.3835334778,0.0,-0.181999996305,-0.532000005245,-64.5270004272,536,113.837554932,15.0439453125,-0.0,-0.0455229021609,0.0620648413897,0.998636543751,174,169,185,185,0,541779712.0
1505419080155735437,15963,1505419080155494607,74.0,3,75,-19,19,98853,366,0.0170548986644,-36.2257652283,0.0,-0.167999997735,-0.554000020027,-64.5550003052,538,112.826820374,16.079750061,-0.0,-0.0479338988662,0.0645178258419,1.02406525612,172,170,188,182,0,541784704.0
1505419080160574454,15964,1505419080160350871,74.0,3,75,-19,19,98856,366,0.017125107348,-36.1906356812,0.0,-0.177000001073,-0.561999976635,-64.56300354,540,111.965187073,17.3390007019,-0.0,-0.0453129634261,0.0690710842609,1.02109313011,173,171,185,183,0,541789632.0
1505419080165541963,15965,1505419080165350434,74.0,3,80,-18,20,98865,366,0.0171864144504,-36.2641830444,0.0,-0.158999994397,-0.569999992847,-64.5660018921,542,110.655944824,18.1724910736,-0.0,-0.063686221838,0.059902023524,1.02549207211,169,173,184,183,0,541794688.0
1505419080170692739,15966,1505419080170422005,74.0,3,80,-18,20,98865,366,0.0172317102551,-36.2887268066,0.0,-0.150999993086,-0.554000020027,-64.5790023804,544,109.510643005,18.782333374,-0.0,-0.0643224790692,0.0477205477655,1.01975440979,170,174,182,183,0,541799744.0
1505419080177328252,15967,1505419080177078022,74.0,3,74,-14,18,98838,366,0.0172795169055,-36.4560852051,0.0,-0.151999995112,-0.533999979496,-64.5609970093,546,108.450035095,19.2481460571,-0.0,-0.0626151934266,0.0417685583234,1.01026833057,168,177,179,185,0,541804864.0
1505419080180673760,15968,1505419080180500185,74.0,3,74,-14,18,98832,366,0.0173001084477,-36.5443191528,0.0,-0.12800000608,-0.512000024319,-64.56300354,548,107.261436462,19.2351932526,-0.0,-0.0686173662543,0.0285708829761,0.985851824284,165,179,179,185,0,541809728.0
1505419080186439043,15969,1505419080186250119,74.0,3,75,-23,13,98841,366,0.0172964297235,-36.5936088562,0.0,-0.136000007391,-0.488999992609,-64.5520019531,547,106.353149414,18.9176311493,-0.0,-0.0621880069375,0.00889914203435,0.961625158787,167,179,177,187,0,541814912.0
1505419080190915164,15970,1505419080190669210,74.0,3,75,-23,13,98844,366,0.0172902625054,-36.6518745422,0.0,-0.123000003397,-0.486000001431,-64.5429992676,549,105.181419373,18.4585151672,-0.0,-0.0643674433231,0.00825983472168,0.940654218197,163,180,177,188,0,541819904.0
1505419080195779202,15971,1505419080195585477,74.0,3,77,-17,13,98856,366,0.0172909647226,-36.7232437134,0.0,-0.120999999344,-0.476999998093,-64.5609970093,551,104.10193634,18.0094337463,-0.0,-0.0625020489097,0.00388208590448,0.93594378233,166,177,179,186,0,541824832.0
1505419080202189175,15972,1505419080202012407,74.0,3,77,-17,13,98853,366,0.0172946620733,-36.6967430115,0.0,-0.119999997318,-0.476000010967,-64.56199646,553,103.422584534,17.6888217926,-0.0,-0.0442378483713,0.010029793717,0.944400131702,167,176,179,185,0,541829888.0
1505419080211788876,15973,1505419080211554155,74.0,3,78,-14,16,98850,366,0.0172966904938,-36.6700782776,0.0,-0.111000001431,-0.483999997377,-64.5869979858,555,102.717811584,17.5791149139,-0.0,-0.0424407124519,0.0189908668399,0.959019422531,168,174,182,183,0,541835008.0
1505419080212505856,15974,1505419080212320164,74.0,3,78,-14,16,98853,366,0.0172969177365,-36.5836486816,0.0,-0.105999998748,-0.493000000715,-64.608001709,557,102.303337097,17.6269340515,-0.0,-0.029901208356,0.0251752585173,0.984934151173,170,171,184,181,0,541839872.0
1505419080219564461,15975,1505419080219394562,74.0,3,76,-24,16,98850,366,0.0173101648688,-36.5035018921,0.0,-0.0960000008345,-0.509000003338,-64.6149978638,559,101.838256836,17.512550354,-0.0,-0.02993029356,0.0212926734239,1.00905120373,168,172,184,181,0,541844928.0
1505419080222068923,15976,1505419080221887316,74.0,3,76,-24,16,98850,366,0.0173215400428,-36.4657592773,0.0,-0.082000002265,-0.509000003338,-64.6429977417,561,101.093902588,17.5036392212,-0.0,-0.045546296984,0.0256134830415,1.01893341541,170,171,184,179,0,541849920.0
1505419080226025371,15977,1505419080225853122,74.0,3,78,-14,10,98844,366,0.0173467453569,-36.4373893738,0.0,-0.0780000016093,-0.483000010252,-64.6429977417,560,100.739685059,17.4830093384,-0.0,-0.0404914915562,0.0249980855733,1.02874684334,171,174,181,180,0,541855104.0
1505419080230966195,15978,1505419080230707721,74.0,3,78,-14,10,98844,366,0.0173508543521,-36.4949417114,0.0,-0.0790000036359,-0.453999996185,-64.6500015259,562,99.80078125,17.2073192596,-0.0,-0.0633681342006,0.0121877938509,1.01121902466,170,174,180,181,0,541859968.0
1505419080236410639,15979,1505419080236179221,74.0,3,81,-17,15,98850,366,0.0173705387861,-36.5300598145,0.0,-0.0860000029206,-0.412000000477,-64.6650009155,564,99.0283203125,17.2693748474,-0.0,-0.0616866387427,0.0237555615604,1.00635528564,171,174,179,180,0,541865024.0
1505419080247645100,15980,1505419080247425323,74.0,3,81,-17,15,98853,366,0.0173718575388,-36.6241950989,0.0,-0.0960000008345,-0.388999998569,-64.6539993286,566,98.0209960938,17.1105518341,-0.0,-0.067411147058,0.0153166269884,0.976769506931,168,175,178,183,0,541870080.0
1505419080247661552,15981,1505419080247449709,74.0,3,77,-13,17,98847,366,0.0174031332135,-36.6906700134,0.0,-0.0920000001788,-0.368999987841,-64.672996521,568,96.8455810547,17.155538559,-0.0,-0.0739219039679,0.0254078321159,0.946437299252,168,175,179,182,0,541875008.0
1505419080250838883,15982,1505419080250568671,74.0,3,77,-13,17,98844,366,0.0174280125648,-36.7490844727,0.0,-0.112000003457,-0.360000014305,-64.6790008545,570,95.841506958,17.4670410156,-0.0,-0.0643298327923,0.0298953521997,0.920722007751,169,173,178,183,0,541880064.0
1505419080256204768,15983,1505419080255964451,74.0,3,82,-18,12,98862,366,0.0174644030631,-36.7793998718,0.0,-0.119999997318,-0.365999996662,-64.68699646,572,94.8212051392,17.9488220215,-0.0,-0.0608878172934,0.0397135615349,0.905598521233,168,172,179,183,0,541885056.0
1505419080261396443,15984,1505419080261257551,74.0,3,82,-18,12,98862,366,0.017498280853,-36.655166626,0.0,-0.128999993205,-0.372000008821,-64.7210006714,574,94.0662612915,18.658367157,-0.0,-0.0497977435589,0.0467941462994,0.938822925091,170,169,181,180,0,541890048.0
1505419080266189925,15985,1505419080266039380,74.0,3,80,-16,14,98856,366,0.0175391659141,-36.5922889709,0.0,-0.134000003338,-0.386999994516,-64.7289962769,572,93.6271743774,19.2467079163,-0.0,-0.0362793728709,0.0453608445823,0.969681024551,170,170,183,181,0,541895232.0
1505419080271296198,15986,1505419080271135373,74.0,3,80,-16,14,98859,366,0.0175555553287,-36.4187736511,0.0,-0.112000003457,-0.379999995232,-64.7610015869,574,93.3359298706,19.8253726959,-0.0,-0.033851813525,0.050495557487,1.01204895973,171,171,184,177,0,541900224.0
1505419080277695046,15987,1505419080277465756,74.0,3,79,-23,15,98853,366,0.0175706204027,-36.2978134155,0.0,-0.112000003457,-0.361000001431,-64.7850036621,576,93.1897506714,20.3084487915,-0.0,-0.0320713147521,0.0414172895253,1.02064013481,174,169,183,176,0,541905152.0
1505419080281109306,15988,1505419080280960682,74.0,3,79,-23,15,98850,366,0.0175996050239,-36.2606620789,0.0,-0.119000002742,-0.326999992132,-64.7959976196,578,92.8914413452,20.7117652893,-0.0,-0.0438071787357,0.0371469631791,1.01328313351,173,171,181,177,0,541910144.0
1505419080286653139,15989,1505419080286441575,74.0,3,80,-16,10,98844,366,0.0176438055933,-36.2089729309,0.0,-0.137999996543,-0.279000014067,-64.8389968872,580,92.3332061768,21.1766490936,-0.0,-0.0590388067067,0.0334251597524,0.993611037731,176,168,181,174,0,541915200.0
1505419080291317925,15990,1505419080291001419,74.0,3,80,-16,10,98844,366,0.0176673103124,-36.2892913818,0.0,-0.180999994278,-0.236000001431,-64.8450012207,582,91.5675964355,21.6839809418,-0.0,-0.0685654059052,0.0298510175198,0.966597318649,176,168,179,177,0,541920192.0
1505419080296126068,15991,1505419080295958508,74.0,3,82,-18,12,98844,366,0.0177126415074,-36.3317184448,0.0,-0.209999993443,-0.187999993563,-64.8730010986,584,90.7186431885,22.119474411,-0.0,-0.0746100693941,0.0280826929957,0.942384719849,175,169,179,176,0,541925248.0
1505419080301232911,15992,1505419080301049600,74.0,3,82,-18,12,98844,366,0.0177406761795,-36.3743362427,0.0,-0.24699999392,-0.148000001907,-64.8939971924,586,90.0309295654,22.5649185181,-0.0,-0.0676582157612,0.025351582095,0.928286671638,176,168,179,176,0,541930240.0
1505419080312362528,15993,1505419080312144240,74.0,3,81,-15,17,98856,366,0.0177770573646,-36.4256591797,0.0,-0.277000010014,-0.115999996662,-64.8949966431,576,89.6618118286,23.106590271,-0.0,-0.0565372519195,0.0379875674844,0.912637412548,176,172,180,181,0,541935488.0
1505419080314932766,15994,1505419080314762932,74.0,3,81,-15,17,98856,366,0.0177999176085,-36.3693389893,0.0,-0.287000000477,-0.0939999967813,-64.9300003052,578,89.3114089966,23.5822181702,-0.0,-0.0500458069146,0.0320981927216,0.921251177788,176,171,182,179,0,541940352.0
1505419080316545047,15995,1505419080316228833,74.0,3,84,-20,14,98865,366,0.0178538747132,-36.347694397,0.0,-0.301999986172,-0.0810000002384,-64.9329986572,580,89.188293457,24.4987506866,-0.0,-0.0396662056446,0.0501868650317,0.924099743366,174,171,181,180,0,541945344.0
1505419080321357728,15996,1505419080321046598,74.0,3,84,-20,14,98865,366,0.0178783237934,-36.2265701294,0.0,-0.289999991655,-0.0729999989271,-64.9570007324,582,89.1204910278,25.206451416,-0.0,-0.0361647643149,0.0476765371859,0.937616407871,173,172,182,179,0,541950272.0
1505419080328240414,15997,1505419080327966377,74.0,3,81,-17,17,98850,366,0.0179033279419,-36.1433525085,0.0,-0.27500000596,-0.0689999982715,-64.9749984741,583,89.0109863281,25.7184619904,-0.0,-0.037187192589,0.0413650609553,0.952098608017,173,172,183,178,0,541955328.0
1505419080331390356,15998,1505419080331203523,74.0,3,81,-17,17,98850,366,0.0179517846555,-36.1236076355,0.0,-0.261999994516,-0.0579999983311,-64.9749984741,585,88.9501647949,26.2169723511,-0.0,-0.0374769829214,0.0418413616717,0.957396149635,171,174,181,180,0,541960384.0
1505419080338416452,15999,1505419080338178875,74.0,3,80,-18,10,98850,366,0.0179702248424,-36.0936164856,0.0,-0.233999997377,-0.0599999986589,-64.9940032959,587,88.5644607544,26.3268623352,-0.0,-0.0474304258823,0.0299291051924,0.975330591202,169,174,182,179,0,541965504.0
1505419080346339328,16000,1505419080346150925,74.0,3,80,-18,10,98850,366,0.0180020928383,-36.1361541748,0.0,-0.221000000834,-0.0480000004172,-64.9889984131,589,88.1784896851,26.5117912292,-0.0,-0.0514786690474,0.0309140756726,0.977675914764,169,175,179,181,0,541970368.0
1505419080347812192,16001,1505419080347603619,74.0,3,81,-13,13,98853,366,0.0180245675147,-36.1638908386,0.0,-0.202999994159,-0.0450000017881,-64.9960021973,588,87.6329574585,26.5775432587,-0.0,-0.0561195909977,0.0288422480226,0.984310865402,168,176,180,182,0,541975552.0
1505419080352764126,16002,1505419080352562924,74.0,3,81,-13,13,98853,366,0.0180421490222,-36.2212867737,0.0,-0.189999997616,-0.0270000007004,-65.0029983521,590,86.9920349121,26.5944461823,-0.0,-0.0640005916357,0.0246420204639,0.983751118183,169,176,179,181,0,541980480.0
1505419080356758533,16003,1505419080356560494,74.0,3,76,-16,10,98850,366,0.0180505551398,-36.294342041,0.0,-0.192000001669,-0.00200000009499,-65.0019989014,591,86.3924026489,26.5650749207,-0.0,-0.0649204403162,0.0192915946245,0.975474238396,169,177,177,182,0,541985472.0
1505419080361764634,16004,1505419080361566650,74.0,3,76,-16,10,98853,366,0.01807615906,-36.391242981,0.0,-0.194999992847,0.01600000076,-65.0220031738,593,85.4446105957,26.4979972839,-0.0,-0.0780577212572,0.01628831774,0.964515566826,170,175,178,181,0,541990400.0
1505419080366584498,16005,1505419080366400937,74.0,3,80,-20,12,98853,366,0.0181020852178,-36.4671096802,0.0,-0.202000007033,0.0410000011325,-65.0419998169,595,84.6706466675,26.5197505951,-0.0,-0.0736256763339,0.0184784960002,0.952906966209,172,173,179,179,0,541995520.0
1505419080371851938,16006,1505419080371651010,74.0,3,80,-20,12,98850,366,0.018132975325,-36.4982528687,0.0,-0.209999993443,0.0430000014603,-65.0660018921,596,83.9220504761,26.7402992249,-0.0,-0.0668737590313,0.0260100010782,0.93778938055,172,170,181,179,0,542000640.0
1505419080377959062,16007,1505419080377742037,74.0,3,80,-14,12,98847,366,0.0181725583971,-36.4525909424,0.0,-0.204999998212,0.0460000000894,-65.1060028076,598,83.3757781982,27.0615501404,-0.0,-0.0587205030024,0.0325837545097,0.939686357975,174,168,184,175,0,542005504.0
1505419080381437193,16008,1505419080381260030,74.0,3,80,-14,12,98850,366,0.0181879270822,-36.3750915527,0.0,-0.197999998927,0.0480000004172,-65.1279983521,600,83.3189468384,27.4016647339,-0.0,-0.0389798544347,0.0351914651692,0.937777876854,175,168,184,174,0,542010496.0
1505419080387312570,16009,1505419080386994725,74.0,3,79,-15,11,98862,366,0.0182024594396,-36.2699890137,0.0,-0.185000002384,0.0460000000894,-65.1579971313,599,83.2245254517,27.7741966248,-0.0,-0.038791924715,0.039531391114,0.950941860676,175,168,186,175,0,542016000.0
1505419080391573362,16010,1505419080391276795,74.0,3,79,-15,11,98862,366,0.0182124618441,-36.1711502075,0.0,-0.159999996424,0.0590000003576,-65.1839981079,601,83.3505859375,28.0147209167,-0.0,-0.0343434587121,0.0363850854337,0.964735925198,175,169,185,173,0,542020608.0
1505419080399203857,16011,1505419080398992823,74.0,3,83,-17,9,98856,366,0.018247788772,-36.1280212402,0.0,-0.142000004649,0.0680000036955,-65.1930007935,603,83.3355636597,28.3658828735,-0.0,-0.0398792698979,0.0411822907627,0.982371985912,173,170,183,175,0,542025664.0
1505419080403461129,16012,1505419080403204984,74.0,3,83,-17,9,98853,366,0.0182720441371,-36.0172920227,0.0,-0.112999998033,0.0799999982119,-65.2220001221,604,83.2911758423,28.7654781342,-0.0,-0.0418554022908,0.0455516688526,0.999832808971,173,171,184,174,0,542031040.0
1505419080411311568,16013,1505419080411076335,74.0,3,84,-18,8,98850,366,0.0183019470423,-36.0324859619,0.0,-0.0879999995232,0.0930000022054,-65.2249984741,606,83.0765533447,28.8210887909,-0.0,-0.0498956367373,0.0328643545508,1.0048635006,171,172,182,176,0,542035648.0
1505419080412050080,16014,1505419080411864562,74.0,3,84,-18,8,98850,366,0.0183333624154,-36.0286903381,0.0,-0.0710000023246,0.0960000008345,-65.2429962158,608,82.6040344238,29.0164585114,-0.0,-0.0579013824463,0.0365182869136,0.996506154537,170,172,181,177,0,542040640.0
1505419080416783154,16015,1505419080416572625,74.0,3,80,-18,8,98841,366,0.0183563772589,-36.0659408569,0.0,-0.0500000007451,0.101000003517,-65.2630004883,609,81.9850769043,28.8631820679,-0.0,-0.0644796788692,0.0238279290497,0.98326164484,170,172,182,176,0,542045696.0
1505419080421752472,16016,1505419080421466306,74.0,3,80,-18,8,98841,366,0.0183726139367,-36.1458320618,0.0,-0.0439999997616,0.10000000149,-65.263999939,611,81.3012161255,28.8000793457,-0.0,-0.0659249350429,0.0253704953939,0.969183564186,169,172,180,178,0,542050688.0
1505419080426789226,16017,1505419080426573665,74.0,3,85,-19,7,98850,366,0.0184103362262,-36.1499977112,0.0,-0.0320000015199,0.101999998093,-65.2939987183,611,80.6291427612,28.8326396942,-0.0,-0.0652273744345,0.0295524578542,0.961903572083,171,171,182,177,0,542055872.0
1505419080431893046,16018,1505419080431701334,74.0,3,85,-19,7,98850,366,0.0184309110045,-36.2057151794,0.0,-0.019999999553,0.104999996722,-65.2949981689,613,80.120010376,28.754989624,-0.0,-0.0599363856018,0.0270728841424,0.962802410126,170,172,181,178,0,542060864.0
1505419080437806950,16019,1505419080437586978,74.0,3,84,-14,12,98859,366,0.0184563696384,-36.2078895569,0.0,-0.00600000005215,0.101999998093,-65.31199646,614,79.6492538452,28.7887039185,-0.0,-0.0569409132004,0.0314630307257,0.953304231167,169,172,181,178,0,542066304.0
1505419080445286634,16020,1505419080445089955,74.0,3,84,-14,12,98859,366,0.0184803642333,-36.1909141541,0.0,0.0170000009239,0.0989999994636,-65.3349990845,616,79.2291107178,28.7397270203,-0.0,-0.0544525422156,0.0310073997825,0.958636581898,170,171,182,176,0,542070784.0
1505419080450546229,16021,1505419080450135452,74.0,3,80,-12,10,98862,366,0.0185052528977,-36.1894989014,0.0,0.0430000014603,0.101000003517,-65.3389968872,618,79.0320281982,28.5804920197,-0.0,-0.0469934679568,0.0288407746702,0.953093647957,169,173,181,177,0,542075968.0
1505419080452398025,16022,1505419080452183593,74.0,3,80,-12,10,98862,366,0.0185163766146,-36.1165885925,0.0,0.0710000023246,0.101999998093,-65.3659973145,619,78.9992370605,28.5172691345,-0.0,-0.0398213379085,0.0329605489969,0.959855914116,169,172,182,175,0,542080832.0
1505419080456836789,16023,1505419080456593510,74.0,3,79,-19,3,98850,366,0.0185451880097,-36.0821342468,0.0,0.108999997377,0.118000000715,-65.3690032959,621,79.1260375977,28.2446212769,-0.0,-0.0377037189901,0.029374692589,0.964314520359,168,174,181,175,0,542085824.0
1505419080462146181,16024,1505419080461988433,74.0,3,79,-19,3,98850,366,0.0185663048178,-36.0697402954,0.0,0.138999998569,0.12800000608,-65.3779983521,622,79.0181503296,27.9696540833,-0.0,-0.0460979603231,0.0282057989389,0.972025990486,167,174,180,176,0,542090944.0
1505419080467314943,16025,1505419080467056135,74.0,3,75,-17,7,98847,366,0.0185827035457,-36.0556411743,0.0,0.16400000453,0.135000005364,-65.3980026245,622,78.7592315674,27.7006664276,-0.0,-0.0504305772483,0.0262846052647,0.98390609026,169,174,181,176,0,542096128.0
1505419080478605368,16026,1505419080478350387,74.0,3,75,-17,7,98847,366,0.018593236804,-36.098865509,0.0,0.181999996305,0.138999998569,-65.4010009766,624,78.3088607788,27.2367362976,-0.0,-0.0591082461178,0.0193130560219,0.991712808609,168,174,180,177,0,542100928.0
1505419080478610292,16027,1505419080478389516,74.0,3,86,-16,6,98847,366,0.0186155550182,-36.125617981,0.0,0.186000004411,0.129999995232,-65.4329986572,625,77.7743453979,26.8593883514,-0.0,-0.0588866658509,0.0181546211243,0.98475587368,170,170,182,177,0,542105984.0
1505419080482049042,16028,1505419080481829811,74.0,3,86,-16,6,98847,366,0.0186207238585,-36.1620979309,0.0,0.187000006437,0.135000005364,-65.4580001831,627,77.4536209106,26.2743263245,-0.0,-0.0538052581251,0.00969916768372,0.97639220953,172,169,182,174,0,542110976.0
1505419080487522059,16029,1505419080487255235,74.0,3,81,-15,5,98850,366,0.0186260342598,-36.2049293518,0.0,0.172999992967,0.128999993205,-65.4779968262,629,76.9534225464,25.7859172821,-0.0,-0.0584309287369,0.00975347682834,0.955833554268,172,168,182,176,0,542116288.0
1505419080492063961,16030,1505419080491835251,74.0,3,81,-15,5,98850,366,0.0186498817056,-36.2369232178,0.0,0.158000007272,0.133000001311,-65.5240020752,630,76.6403121948,25.4978141785,-0.0,-0.0525780878961,0.0158742554486,0.959502696991,175,166,184,173,0,542121024.0
1505419080497117253,16031,1505419080496952536,74.0,3,80,-16,10,98847,366,0.0186573285609,-36.2687835693,0.0,0.141000002623,0.128999993205,-65.5370025635,632,76.1652984619,25.1682567596,-0.0,-0.0578913763165,0.0147595349699,0.957961857319,174,166,183,174,0,542126080.0
1505419080503558808,16032,1505419080503364357,74.0,3,80,-16,10,98850,366,0.0186707470566,-36.2602119446,0.0,0.115999996662,0.11400000006,-65.5709991455,633,75.8102416992,25.0748748779,-0.0,-0.0499660819769,0.0207014139742,0.962744653225,174,164,183,174,0,542131072.0
1505419080511179990,16033,1505419080510759837,74.0,3,80,-14,8,98859,366,0.0186893437058,-36.2322044373,0.0,0.101000003517,0.108999997377,-65.5970001221,633,75.4697189331,25.1255531311,-0.0,-0.0505861267447,0.0280472263694,0.962082326412,175,165,184,174,0,542136768.0
1505419080512856499,16034,1505419080512634527,74.0,3,80,-14,8,98856,366,0.0187091361731,-36.2266960144,0.0,0.0790000036359,0.101999998093,-65.5979995728,635,75.2780838013,25.0124969482,-0.0,-0.0452061258256,0.0212169922888,0.952541708946,172,167,181,177,0,542141120.0
1505419080517075946,16035,1505419080516895902,74.0,3,76,-20,4,98853,366,0.0187232550234,-36.1531524658,0.0,0.070000000298,0.104999996722,-65.6330032349,636,75.1494293213,25.1632404327,-0.0,-0.0441883839667,0.0326001979411,0.958064675331,173,168,181,175,0,542146112.0
1505419080522115733,16036,1505419080521925499,74.0,3,76,-20,4,98853,366,0.0187530424446,-36.1366081238,0.0,0.0680000036955,0.112000003457,-65.6289978027,638,75.1597061157,24.9607334137,-0.0,-0.0404222458601,0.0218946989626,0.966941475868,170,170,179,176,0,542151104.0
1505419080527268156,16037,1505419080526980984,74.0,3,80,-18,0,98850,366,0.0187713168561,-36.0958137512,0.0,0.0729999989271,0.115000002086,-65.6439971924,640,75.1126480103,24.9473114014,-0.0,-0.0416950322688,0.0299696661532,0.989784836769,169,171,179,176,0,542156096.0
1505419080533842417,16038,1505419080533617803,74.0,3,80,-18,0,98853,366,0.018777789548,-36.0597076416,0.0,0.082000002265,0.127000004053,-65.6640014648,641,75.1376037598,24.7148780823,-0.0,-0.0408353842795,0.0221053101122,1.008289814,170,171,179,175,0,542161216.0
1505419080537534768,16039,1505419080537351696,74.0,3,79,-17,7,98850,366,0.0187915787101,-36.0418128967,0.0,0.070000000298,0.142000004649,-65.6640014648,643,75.1419448853,24.4112815857,-0.0,-0.043393664062,0.0151562122628,1.00347542763,169,171,176,177,0,542166464.0
1505419080544220524,16040,1505419080543976584,74.0,3,79,-17,7,98847,366,0.0188207775354,-36.037147522,0.0,0.0529999993742,0.156000003219,-65.7119979858,644,74.9041519165,24.3587112427,-0.0,-0.0526586025953,0.0213838163763,0.981468081474,173,167,179,174,0,542171200.0
1505419080547373058,16041,1505419080547173305,74.0,3,84,-14,4,98844,366,0.018808061257,-36.0895729065,0.0,0.0170000009239,0.171000003815,-65.736000061,645,74.787689209,23.7837047577,-0.0,-0.0480736084282,-0.00427239807323,0.954301416874,175,165,180,173,0,542176320.0
1505419080552324173,16042,1505419080552116552,74.0,3,84,-14,4,98844,366,0.0188232343644,-36.1662559509,0.0,-0.0270000007004,0.167999997735,-65.7760009766,646,74.4230422974,23.5368995667,-0.0,-0.0548766329885,0.00509209278971,0.935083866119,176,162,182,174,0,542181248.0
1505419080557260970,16043,1505419080557046967,74.0,3,77,-11,5,98853,366,0.0188219044358,-36.2847938538,0.0,-0.0689999982715,0.165999993682,-65.827003479,648,74.3567886353,23.2060050964,-0.0,-0.0426696687937,0.000377465737984,0.937659502029,179,160,184,170,0,542186240.0
1505419080562684087,16044,1505419080562469429,74.0,3,77,-11,5,98853,366,0.018815971911,-36.2446250916,0.0,-0.112999998033,0.162000000477,-65.8330001831,649,74.373374939,22.9096183777,-0.0,-0.0393022745848,0.00196840194985,0.94113856554,176,162,181,173,0,542191552.0
1505419080567628758,16045,1505419080567402827,74.0,3,77,-19,1,98856,366,0.0188032723963,-36.2106056213,0.0,-0.136000007391,0.156000003219,-65.8690032959,651,74.5052947998,22.9289951324,-0.0,-0.0334895774722,0.0170082692057,0.94865500927,175,163,182,172,0,542196352.0
1505419080577750453,16046,1505419080577499331,74.0,3,77,-19,1,98853,366,0.0188186410815,-36.1441841125,0.0,-0.143000006676,0.150999993086,-65.875,652,74.7288131714,22.8464679718,-0.0,-0.0304107200354,0.0174742285162,0.962011516094,173,165,181,174,0,542201408.0
1505419080579005738,16047,1505419080578820178,74.0,3,81,-13,1,98847,366,0.0188831537962,-36.1397323608,0.0,-0.136000007391,0.142000004649,-65.8690032959,654,74.8776168823,23.1691589355,-0.0,-0.0325757227838,0.0377953834832,0.966053962708,168,169,177,177,0,542206336.0
1505419080583702669,16048,1505419080583515847,74.0,3,81,-13,1,98853,366,0.0189102441072,-36.0365219116,0.0,-0.112999998033,0.130999997258,-65.8929977417,655,74.8572540283,23.6348056793,-0.0,-0.0380000174046,0.0462118238211,0.980906009674,167,169,179,176,0,542211328.0
1505419080587788321,16049,1505419080587573966,74.0,3,85,-15,5,98847,366,0.0352911800146,-15.3282032013,0.0,-0.101000003517,0.129999995232,-65.8690032959,656,74.7334442139,24.0819797516,-0.0,-0.0448767021298,0.0463291332126,0.986943423748,165,173,174,179,0,542216704.0
1505419080593186109,16050,1505419080592974761,74.0,3,85,-15,5,98844,366,0.0394480526447,-13.6449403763,0.0,-0.097000002861,0.125,-65.891998291,658,74.3522415161,24.6566677094,-0.0,-0.0537006035447,0.047139711678,0.989478349686,166,171,175,179,0,542221504.0
1505419080599265406,16051,1505419080598995586,74.0,3,82,-12,8,98847,366,0.0412758924067,-15.2832574844,0.0,-0.0960000008345,0.123999997973,-65.90599823,659,100.615196228,35.4569168091,-0.0,-0.0548672601581,0.0268828030676,1.0049021244,167,170,176,177,0,542226560.0
1505419080602347338,16052,1505419080602192024,74.0,3,82,-12,8,98850,366,0.0423751287162,-16.1115837097,0.0,-0.123999997973,0.129999995232,-65.9160003662,660,124.223190308,45.0690994263,-0.0,-0.0560404546559,0.0166594218463,0.984120666981,169,168,175,178,0,542231360.0
1505419080612284975,16053,1505419080612067458,74.0,3,81,-13,5,98838,366,0.0430830977857,-16.5905990601,0.0,-0.140000000596,0.12800000608,-65.9680023193,662,145.239974976,53.8579330444,-0.0,-0.0610508285463,0.0197654105723,0.966051578522,172,164,179,174,0,542236480.0
1505419080613157259,16054,1505419080612996790,74.0,3,81,-13,5,98835,366,0.0448120422661,-18.1697788239,0.0,-0.180000007153,0.141000002623,-65.9820022583,663,153.83895874,71.7181167603,-0.0,-0.0614365153015,0.00718885613605,0.930416047573,174,163,178,174,0,542241472.0
1505419080617533922,16055,1505419080617362173,74.0,3,83,-11,3,98844,366,0.0461145788431,-19.2377433777,0.0,-0.226999998093,0.138999998569,-66.0299987793,665,161.291900635,88.1847076416,-0.0,-0.0681130886078,0.0172090791166,0.900538504124,176,160,180,173,0,542246528.0
1505419080623059184,16056,1505419080622884246,74.0,3,83,-11,3,98844,366,0.047154173255,-19.9778003693,0.0,-0.25,0.144999995828,-66.0709991455,666,168.137619019,102.874252319,-0.0,-0.0638541132212,0.0169662404805,0.916944622993,177,159,182,169,0,542251520.0
1505419080628196357,16057,1505419080627992693,74.0,3,81,-9,3,98872,366,0.0487877689302,-21.1135349274,0.0,-0.282999992371,0.144999995828,-66.0930023193,667,165.453811646,124.9637146,-0.0,-0.0509739853442,0.0147847887129,0.912341117859,176,160,181,171,0,542256704.0
1505419080634952987,16058,1505419080634722055,74.0,3,81,-9,3,98875,366,0.0502515435219,-21.8911342621,0.0,-0.268999993801,0.136000007391,-66.1439971924,669,162.972915649,145.264312744,-0.0,-0.0489107780159,0.0400666706264,0.955262124538,175,160,185,167,0,542261696.0
1505419080646342225,16059,1505419080646136012,74.0,3,85,-15,5,98862,366,0.0514763854444,-22.4135189056,0.0,-0.252000004053,0.133000001311,-66.1689987183,670,161.130264282,163.122024536,-0.0,-0.0358866564929,0.0295851398259,0.965961515903,175,161,184,167,0,542266880.0
1505419080649614430,16060,1505419080648543597,74.0,3,85,-15,5,98859,366,0.0526774525642,-22.7750663757,0.0,-0.224000006914,0.119000002742,-66.2060012817,672,159.378875732,179.663894653,-0.0,-0.0355886891484,0.0524427257478,0.989318788052,174,161,185,168,0,542271552.0
1505419080649724455,16061,1505419080649593243,74.0,3,81,-15,1,98841,366,0.0536756403744,-23.033285141,0.0,-0.172999992967,0.118000000715,-66.2519989014,673,157.747421265,194.102584839,-0.0,-0.0382375121117,0.0417004190385,1.00112009048,174,161,187,164,0,542276608.0
1505419080653698880,16062,1505419080653468177,74.0,3,81,-15,1,98841,366,0.0542870499194,-23.4349193573,0.0,-0.152999997139,0.119000002742,-66.2699966431,674,152.655075073,201.358322144,-0.0,-0.0369841195643,0.0387829430401,0.992558419704,174,161,183,167,0,542281600.0
1505419080657601040,16063,1505419080657438292,74.0,3,78,-14,0,98832,366,0.0546154677868,-23.9062023163,0.0,-0.12800000608,0.120999999344,-66.3069992065,676,145.536376953,203.699081421,-0.0,-0.0514657534659,0.0345862731338,0.993765473366,173,162,183,167,0,542286656.0
1505419080663332716,16064,1505419080663175147,74.0,3,78,-14,0,98832,366,0.0548638477921,-24.298822403,0.0,-0.134000003338,0.127000004053,-66.327003479,677,139.287979126,205.478347778,-0.0,-0.048880327493,0.017326625064,0.972217381001,174,162,181,169,0,542292096.0
1505419080667769836,16065,1505419080667547326,74.0,3,82,-12,2,98844,366,0.0550639033318,-24.6731357574,0.0,-0.156000003219,0.134000003338,-66.3470001221,678,133.476348877,206.934509277,-0.0,-0.0573184788227,0.00785274244845,0.96086025238,173,162,179,171,0,542296768.0
1505419080678243287,16066,1505419080677999034,74.0,3,82,-12,2,98844,366,0.0552170872688,-24.9627780914,0.0,-0.158999994397,0.143999993801,-66.3789978027,679,128.321411133,208.019134521,-0.0,-0.0541049614549,0.000873260491062,0.937665164471,173,163,180,170,0,542301824.0
1505419080678248115,16067,1505419080678040036,74.0,3,83,-11,7,98850,366,0.0553480014205,-25.1929721832,0.0,-0.168999999762,0.149000003934,-66.4000015259,681,123.845985413,208.868637085,-0.0,-0.0486783385277,-0.00508458120748,0.930813789368,173,163,179,170,0,542306752.0
1505419080682768071,16068,1505419080682579586,74.0,3,83,-11,7,98850,366,0.0558039881289,-25.1980171204,0.0,-0.152999997139,0.144999995828,-66.4219970703,682,124.519294739,215.693771362,-0.0,-0.0501016937196,0.00209204666317,0.93175971508,170,164,180,170,0,542311744.0
1505419080688230134,16069,1505419080688015262,74.0,3,84,-18,2,98844,366,0.0563408024609,-25.1687202454,0.0,-0.133000001311,0.136000007391,-66.4479980469,683,125.175109863,222.208953857,-0.0,-0.0457277670503,0.0190470423549,0.928558468819,170,163,181,170,0,542316992.0
1505419080692798499,16070,1505419080692641513,74.0,3,84,-18,2,98844,366,0.0565346926451,-25.254611969,0.0,-0.119000002742,0.116999998689,-66.4589996338,685,124.121398926,220.664733887,-0.0,-0.0495716743171,0.0193339325488,0.92830568552,168,164,179,172,0,542321856.0
1505419080699594374,16071,1505419080699364299,74.0,3,87,-17,1,98844,366,0.0569332428277,-25.353603363,0.0,-0.0920000001788,0.105999998748,-66.4720001221,686,123.038375854,219.832473755,-0.0,-0.0554906725883,0.045602299273,0.908686041832,167,166,178,172,0,542326912.0
1505419080703204410,16072,1505419080702961784,74.0,3,87,-17,1,98844,366,0.0571861602366,-25.4513511658,0.0,-0.0759999975562,0.0869999974966,-66.4919967651,687,121.937889099,218.549926758,-0.0,-0.057536765933,0.0223242491484,0.921337783337,167,165,179,173,0,542332224.0
1505419080712322871,16073,1505419080712079399,74.0,3,88,-8,-2,98853,366,0.0574654750526,-25.4951686859,0.0,-0.070000000298,0.0860000029206,-66.4899978638,689,121.425865173,217.360931396,-0.0,-0.0442857518792,0.0215048696846,0.927652359009,166,167,175,174,0,542337216.0
1505419080713550773,16074,1505419080713343010,74.0,3,88,-8,-2,98853,366,0.0575775131583,-25.4790897369,0.0,-0.0630000010133,0.082999996841,-66.5220031738,690,120.919364929,215.818740845,-0.0,-0.0404244028032,-0.000490256526973,0.945868730545,167,166,177,172,0,542342080.0
1505419080717959385,16075,1505419080717766744,74.0,3,79,-13,-3,98856,366,0.0572454929352,-25.6097660065,0.0,-0.0909999981523,0.101000003517,-66.5400009155,691,115.498153687,205.282699585,-0.0,-0.0278152152896,-0.0131997512653,0.965278029442,171,164,175,172,0,542347008.0
1505419080724095686,16076,1505419080723907396,74.0,3,79,-13,-3,98859,366,0.0570812895894,-25.7520828247,0.0,-0.115999996662,0.116999998689,-66.5589981079,692,110.429000854,196.239593506,-0.0,-0.036390773952,0.00287818326615,0.961488008499,171,164,175,172,0,542351936.0
1505419080729591149,16077,1505419080729293444,74.0,3,85,-11,-5,98847,366,0.0570003651083,-25.8374176025,0.0,-0.145999997854,0.130999997258,-66.608001709,694,106.603591919,188.471939087,-0.0,-0.0414254553616,0.0106002427638,0.98438179493,174,160,177,169,0,542357056.0
1505419080733151263,16078,1505419080732899189,74.0,3,85,-11,-5,98847,366,0.0571040287614,-25.9837665558,0.0,-0.177000001073,0.152999997139,-66.6129989624,695,103.179626465,181.855117798,-0.0,-0.0493273846805,0.0268931761384,0.958289206028,173,162,175,170,0,542361920.0
1505419080738010342,16079,1505419080737796471,74.0,3,87,-17,3,98841,366,0.0572607070208,-26.1248016357,0.0,-0.165999993682,0.166999995708,-66.6610031128,696,99.7347183228,175.947021484,-0.0,-0.0583225227892,0.0328261069953,0.940859735012,172,162,179,167,0,542366976.0
1505419080744285900,16080,1505419080744081115,74.0,3,87,-17,3,98841,366,0.057745501399,-26.1617107391,0.0,-0.162000000477,0.187999993563,-66.68800354,697,99.3316955566,178.508300781,-0.0,-0.0576911605895,0.0264029055834,0.902832508087,174,161,179,166,0,542372032.0
1505419080747970852,16081,1505419080747780144,74.0,3,81,-11,1,98841,366,0.0582650713623,-26.2196159363,0.0,-0.129999995232,0.194999992847,-66.6999969482,700,98.9633712769,180.78414917,-0.0,-0.0591207742691,0.0321494787931,0.882569313049,169,163,179,167,0,542377088.0
1505419080755358823,16082,1505419080755164499,74.0,3,81,-11,1,98841,366,0.0587462633848,-26.2131271362,0.0,-0.0930000022054,0.194999992847,-66.7590026855,701,98.5352554321,182.836975098,-0.0,-0.0549185350537,0.0327253900468,0.889957487583,172,160,182,164,0,542382144.0
1505419080758240513,16083,1505419080758035116,74.0,3,87,-15,1,98853,366,0.0587267503142,-26.4113864899,0.0,-0.0680000036955,0.184000000358,-66.7659988403,702,91.8775939941,172.56401062,-0.0,-0.0376341491938,0.0266159214079,0.895483374596,170,161,181,167,0,542387136.0
1505419080763513175,16084,1505419080763338077,74.0,3,87,-15,1,98850,366,0.0587630905211,-26.5080661774,0.0,-0.01600000076,0.167999997735,-66.827003479,703,85.8220443726,163.394058228,-0.0,-0.0324231274426,0.0324764028192,0.921393692493,171,160,185,163,0,542392320.0
1505419080768064812,16085,1505419080767875972,74.0,3,83,-13,1,98856,366,0.0587233863771,-26.5640239716,0.0,0.0,0.152999997139,-66.8710021973,705,80.6027984619,154.800125122,-0.0,-0.024991966784,0.014336977154,0.940387606621,174,156,185,162,0,542397056.0
1505419080778504046,16086,1505419080778090597,74.0,3,83,-13,1,98859,366,0.0587792992592,-26.5939311981,0.0,0.0189999993891,0.146999999881,-66.8870010376,706,76.1115646362,147.184463501,-0.0,-0.0211150553077,0.0212432332337,0.97414791584,172,159,182,164,0,542402112.0
1505419080778511695,16087,1505419080778130985,74.0,3,83,-11,-1,98850,366,0.0590009242296,-26.7644062042,0.0,0.0240000002086,0.142000004649,-66.9430007935,707,67.0626983643,143.741516113,-0.0,-0.031613573432,0.0204525254667,0.986303627491,174,157,183,163,0,542407104.0
1505419080783390940,16088,1505419080783149515,74.0,3,83,-11,-1,98850,366,0.0592007040977,-26.9534473419,0.0,0.0109999999404,0.150999993086,-66.93800354,708,59.1086502075,140.476364136,-0.0,-0.0330618061125,0.0126299401745,0.977601528168,172,160,178,167,0,542412224.0
1505419080789720183,16089,1505419080789500935,74.0,3,83,-11,1,98841,366,0.0594866350293,-27.2112674713,0.0,0.0130000002682,0.157000005245,-66.9720001221,709,51.2756271362,137.806747437,-0.0,-0.057002723217,0.0243721045554,0.950899481773,171,161,178,167,0,542417280.0
1505419080793876977,16090,1505419080793656407,74.0,3,83,-11,1,98841,366,0.0597863271832,-27.4381561279,0.0,-0.00300000002608,0.16400000453,-67.0,710,45.9974327087,138.239990234,-0.0,-0.0668082982302,0.00685993768275,0.924283444881,172,160,178,168,0,542422720.0
1505419080799081593,16091,1505419080798821351,74.0,3,87,-11,-5,98856,366,0.0601562745869,-27.7204608917,0.0,-0.0270000007004,0.17499999702,-66.986000061,711,41.1650466919,138.893539429,-0.0,-0.0756892040372,0.0166571605951,0.917374134064,169,164,173,172,0,542427200.0
1505419080803280847,16092,1505419080803033664,74.0,3,87,-11,-5,98856,366,0.0605189651251,-27.970457077,0.0,-0.0430000014603,0.182999998331,-67.0230026245,712,36.6414489746,139.521240234,-0.0,-0.0781923234463,0.0174828991294,0.898499250412,169,163,174,171,0,542432192.0
1505419080813832479,16093,1505419080813556832,74.0,3,88,-6,-2,98847,366,0.0608237609267,-28.0399227142,0.0,-0.070000000298,0.197999998927,-67.0019989014,713,37.8161392212,139.023910522,-0.0,-0.064018510282,0.0191656332463,0.892505943775,167,166,170,174,0,542437248.0
1505419080813838390,16094,1505419080813590391,74.0,3,88,-6,-2,98847,366,0.0612586773932,-28.0381736755,0.0,-0.0520000010729,0.206000000238,-67.0189971924,715,38.9759063721,138.907043457,-0.0,-0.0556965582073,0.0388875976205,0.872037291527,164,168,172,173,0,542442432.0
1505419080818492132,16095,1505419080818267385,74.0,3,85,-13,1,98847,366,0.061639726162,-27.9706516266,0.0,-0.0260000005364,0.201000005007,-67.0540008545,716,40.2245063782,138.597244263,-0.0,-0.0431961491704,0.032667953521,0.884268820286,166,165,176,170,0,542447296.0
1505419080823310193,16096,1505419080823139689,74.0,3,85,-13,1,98847,366,0.0624186210334,-27.8610572815,0.0,0.00899999961257,0.204999998212,-67.047996521,717,41.3409767151,147.165618896,-0.0,-0.0334184654057,0.0362146385014,0.903735399246,165,167,174,170,0,542452352.0
1505419080828630440,16097,1505419080828435874,74.0,3,86,-10,-4,98844,366,0.0631176531315,-27.6834468842,0.0,0.0540000014007,0.189999997616,-67.111000061,718,42.2214279175,154.773040771,-0.0,-0.0277023613453,0.0341053381562,0.929577827454,168,162,180,166,0,542457472.0
1505419080834873052,16098,1505419080834583541,74.0,3,86,-10,-4,98841,366,0.0637344270945,-27.5401115417,0.0,0.0599999986589,0.20000000298,-67.1139984131,719,43.37474823,161.454437256,-0.0,-0.0230217054486,0.0247126612812,0.951846003532,170,162,177,167,0,542462464.0
1505419080844809847,16099,1505419080844561057,74.0,3,85,-13,-3,98850,366,0.0643628165126,-27.4256210327,0.0,0.0710000023246,0.203999996185,-67.1520004272,720,44.0443115234,167.611907959,-0.0,-0.0333639271557,0.0315189920366,0.955660164356,170,162,178,166,0,542467328.0
1505419080844814089,16100,1505419080844592802,74.0,3,85,-13,-3,98853,366,0.0643757730722,-27.4601211548,0.0,0.0500000007451,0.217999994755,-67.202003479,721,42.5111312866,158.140045166,-0.0,-0.0419375523925,0.0352442227304,0.958311259747,175,157,179,165,0,542472320.0
1505419080850091229,16101,1505419080849798123,74.0,3,80,-12,-4,98841,366,0.0644032135606,-27.6184997559,0.0,0.0289999991655,0.239999994636,-67.2050018311,722,40.876373291,149.426925659,-0.0,-0.0603393055499,0.0273907221854,0.939372181892,173,160,176,167,0,542477376.0
1505419080853211890,16102,1505419080853062852,74.0,3,80,-12,-4,98838,366,0.0650001168251,-27.5425605774,0.0,0.01600000076,0.241999998689,-67.2689971924,723,45.1429595947,153.677993774,-0.0,-0.0684977695346,0.0394689776003,0.907038211823,174,157,180,165,0,542482368.0
1505419080858707449,16103,1505419080858518456,74.0,3,89,-17,-5,98844,366,0.0654050409794,-27.5530719757,0.0,0.0010000000475,0.263999998569,-67.2770004272,724,49.1562194824,156.812850952,-0.0,-0.0709371268749,0.0124144898728,0.881397902966,174,159,177,165,0,542487552.0
1505419080867290990,16104,1505419080867000206,74.0,3,89,-17,-5,98847,366,0.0658563971519,-27.4855594635,0.0,0.01600000076,0.256000012159,-67.3069992065,725,52.9533615112,159.796585083,-0.0,-0.0561822243035,0.0230480767787,0.855515241623,170,160,179,166,0,542492608.0
1505419080870120533,16105,1505419080869720139,74.0,3,83,-7,-1,98862,366,0.0660834535956,-27.2376403809,0.0,0.0340000018477,0.252000004053,-67.3570022583,726,60.4668617249,159.529968262,-0.0,-0.0358235351741,0.013764731586,0.871192932129,173,158,181,163,0,542497536.0
1505419080877539504,16106,1505419080877309271,74.0,3,83,-7,-1,98862,366,0.0663071200252,-27.0173549652,0.0,0.0659999996424,0.239999994636,-67.361000061,727,67.4432754517,159.071166992,-0.0,-0.0298794545233,0.010033134371,0.878338456154,169,161,180,165,0,542502592.0
1505419080878623899,16107,1505419080878391420,74.0,3,82,-12,-4,98841,366,0.0666057765484,-26.6913318634,0.0,0.104999996722,0.217999994755,-67.4199981689,728,73.8955307007,159.049758911,-0.0,-0.0135347573087,0.0257098302245,0.909019231796,170,158,183,163,0,542507520.0
1505419080883591831,16108,1505419080883389204,74.0,3,82,-12,-4,98841,366,0.066881492734,-26.4688453674,0.0,0.129999995232,0.211999997497,-67.4270019531,729,79.6517868042,158.762512207,-0.0,-0.0227688010782,0.0168682597578,0.921714663506,170,160,180,164,0,542512512.0
1505419080888916240,16109,1505419080888464361,74.0,3,85,-13,-7,98853,366,0.0669535845518,-26.4245796204,0.0,0.157000005245,0.194999992847,-67.4489974976,730,79.6543807983,151.820343018,-0.0,-0.0275068450719,0.025988811627,0.940827190876,168,161,179,166,0,542517632.0
1505419080895287565,16110,1505419080895077479,74.0,3,85,-13,-7,98853,366,0.0670126751065,-26.4002933502,0.0,0.158999994397,0.194999992847,-67.4879989624,731,79.4973373413,145.549285889,-0.0,-0.0343316532671,0.0206968132406,0.951409816742,171,160,178,165,0,542522688.0
1505419080898853865,16111,1505419080898620237,74.0,3,85,-17,-3,98859,366,0.0671380013227,-26.4676094055,0.0,0.16099999845,0.192000001669,-67.4850006104,732,79.0900726318,139.897949219,-0.0,-0.0491589121521,0.0221558697522,0.950504422188,168,162,176,168,0,542527744.0
1505419080903651113,16112,1505419080903424251,74.0,3,85,-17,-3,98856,366,0.0672415941954,-26.5279541016,0.0,0.166999995708,0.187000006437,-67.5380020142,733,78.4291152954,134.819473267,-0.0,-0.0550631098449,0.0195763781667,0.944933354855,170,160,179,166,0,542532608.0
1505419080911544936,16113,1505419080911336718,74.0,3,81,-13,1,98850,366,0.0674970149994,-26.532913208,0.0,0.163000002503,0.196999996901,-67.5520019531,734,82.3556365967,133.617797852,-0.0,-0.0673213228583,0.0171238128096,0.927902281284,171,160,177,166,0,542537792.0
1505419080914119696,16114,1505419080913918408,74.0,3,81,-13,1,98850,366,0.0677107274532,-26.5249900818,0.0,0.170000001788,0.188999995589,-67.5830001831,734,85.8716659546,132.410415649,-0.0,-0.0637724250555,0.0124020595104,0.911160647869,169,160,179,166,0,542542848.0
1505419080918811869,16115,1505419080918524017,74.0,3,83,-13,1,98844,366,0.067964695394,-26.4942646027,0.0,0.165999993682,0.192000001669,-67.6230010986,735,88.5562820435,131.946960449,-0.0,-0.0544103011489,0.0158305130899,0.900298058987,172,158,179,164,0,542547712.0
1505419080925206767,16116,1505419080925015663,74.0,3,83,-13,1,98844,366,0.0682276561856,-26.4746513367,0.0,0.172000005841,0.186000004411,-67.6330032349,736,91.0664520264,131.429412842,-0.0,-0.0517369322479,0.0147465150803,0.88969451189,170,160,178,166,0,542552704.0
1505419080929420387,16117,1505419080928433635,74.0,3,83,-9,-1,98850,366,0.0685315579176,-26.3774147034,0.0,0.186000004411,0.172999992967,-67.6699981689,737,93.5627593994,131.188232422,-0.0,-0.0381050743163,0.0236472580582,0.896226584911,169,160,179,165,0,542557696.0
1505419080933836047,16118,1505419080933615688,74.0,3,83,-9,-1,98853,366,0.0689392387867,-26.2556610107,0.0,0.195999994874,0.163000002503,-67.6819992065,738,96.0559005737,131.236343384,-0.0,-0.0300213433802,0.0361571386456,0.904416620731,169,161,178,167,0,542562688.0
1505419080938919239,16119,1505419080938696330,74.0,3,85,-13,-3,98853,366,0.0693014264107,-26.1322994232,0.0,0.208000004292,0.140000000596,-67.6989974976,739,98.2565841675,131.124801636,-0.0,-0.028561046347,0.0302133820951,0.923504650593,167,161,177,168,0,542567808.0
1505419080944361262,16120,1505419080944163914,74.0,3,85,-13,-3,98853,366,0.0696751028299,-26.0146446228,0.0,0.202999994159,0.126000002027,-67.7249984741,739,99.0960693359,130.648910522,-0.0,-0.0230521913618,0.0354956239462,0.939444601536,169,160,176,168,0,542572736.0
1505419080948910028,16121,1505419080948653112,74.0,3,84,-12,-4,98847,366,0.0699385851622,-26.0220336914,0.0,0.197999998927,0.104000002146,-67.7340011597,740,97.1763687134,128.162063599,-0.0,-0.0325460582972,0.0270286593586,0.943664133549,167,161,176,170,0,542577920.0
1505419080954330895,16122,1505419080954101553,74.0,3,84,-12,-4,98844,366,0.0701366588473,-26.0959339142,0.0,0.20000000298,0.082999996841,-67.7570037842,740,94.9985961914,125.678390503,-0.0,-0.0492256805301,0.0170568563044,0.944298446178,167,162,177,170,0,542583040.0
1505419080960610800,16123,1505419080960435585,74.0,3,85,-15,-3,98844,366,0.0703571289778,-26.1990184784,0.0,0.194999992847,0.0740000009537,-67.7779998779,741,92.8800430298,123.495109558,-0.0,-0.0568520911038,0.0183312539011,0.928806900978,168,161,176,169,0,542587840.0
1505419080963976224,16124,1505419080963782492,74.0,3,85,-15,-3,98847,366,0.0705197751522,-26.3556098938,0.0,0.196999996901,0.0590000003576,-67.7919998169,742,90.693572998,121.258468628,-0.0,-0.0680078268051,0.00812287256122,0.922544717789,167,162,176,170,0,542592832.0
1505419080968938549,16125,1505419080968731024,74.0,3,82,-12,-2,98847,366,0.0707598477602,-26.4528160095,0.0,0.192000001669,0.0610000006855,-67.8239974976,743,88.9406890869,119.587059021,-0.0,-0.059525873512,0.0198672320694,0.904860854149,169,161,176,168,0,542597824.0
1505419080977452754,16126,1505419080977158332,74.0,3,82,-12,-2,98847,366,0.070838496089,-26.5107975006,0.0,0.188999995589,0.0579999983311,-67.8379974365,743,88.1866226196,114.02545166,-0.0,-0.0505222789943,0.0190193131566,0.904943227768,169,161,176,168,0,542602816.0
1505419080978962228,16127,1505419080978764355,74.0,3,89,-11,-7,98859,366,0.0709868893027,-26.5435848236,0.0,0.20000000298,0.0509999990463,-67.8600006104,744,87.5528335571,109.18132019,-0.0,-0.0474701188505,0.0263391956687,0.895324587822,168,162,177,168,0,542607872.0
1505419080985191552,16128,1505419080985004156,74.0,3,89,-11,-7,98859,366,0.0714482441545,-26.4747028351,0.0,0.209999993443,0.0450000017881,-67.8830032349,745,87.3907318115,111.71068573,-0.0,-0.0316219218075,0.0293801277876,0.912376523018,168,161,177,167,0,542612864.0
1505419080989693693,16129,1505419080989437341,74.0,3,83,-9,-5,98853,366,0.0718157365918,-26.44257164,0.0,0.225999996066,0.0299999993294,-67.8909988403,747,87.1121139526,113.591133118,-0.0,-0.036853287369,0.0166861321777,0.9210485816,166,162,176,168,0,542618304.0
1505419080994013973,16130,1505419080993862568,74.0,3,83,-9,-5,98853,366,0.07221057266,-26.3782310486,0.0,0.233999997377,0.0230000000447,-67.9169998169,747,86.9381866455,115.513923645,-0.0,-0.0324384868145,0.0237455181777,0.935554981232,167,162,176,168,0,542623104.0
1505419080999115905,16131,1505419080998914501,74.0,3,89,-13,-5,98838,366,0.0725783258677,-26.3547000885,0.0,0.241999998689,0.0140000004321,-67.9300003052,748,86.6206512451,117.110710144,-0.0,-0.0395271517336,0.0197440925986,0.942031979561,166,162,176,168,0,542627968.0
1505419081004071510,16132,1505419081003859943,74.0,3,89,-13,-5,98838,366,0.0729851350188,-26.3746833801,0.0,0.256000012159,0.00400000018999,-67.9499969482,749,86.0340957642,118.691009521,-0.0,-0.0506606996059,0.0262359026819,0.93741607666,166,162,176,168,0,542632960.0
1505419081011735893,16133,1505419081011483561,74.0,3,84,-10,-8,98841,366,0.0731109902263,-26.3820228577,0.0,0.259000003338,-0.00700000021607,-67.9779968262,749,86.6573638916,113.442321777,-0.0,-0.0506573617458,0.0276514627039,0.938573539257,167,161,177,168,0,542638144.0
1505419081015377042,16134,1505419081015177778,74.0,3,84,-10,-8,98841,366,0.0732152685523,-26.4178237915,0.0,0.272000014782,-0.0189999993891,-67.9990005493,750,87.1084823608,108.513298035,-0.0,-0.0552271716297,0.0206030216068,0.931780159473,167,161,178,167,0,542643008.0
