%time,field.header.seq,field.header.stamp,field.header.frame_id,field.orientation.x,field.orientation.y,field.orientation.z,field.orientation.w,field.orientation_covariance0,field.orientation_covariance1,field.orientation_covariance2,field.orientation_covariance3,field.orientation_covariance4,field.orientation_covariance5,field.orientation_covariance6,field.orientation_covariance7,field.orientation_covariance8,field.angular_velocity.x,field.angular_velocity.y,field.angular_velocity.z,field.angular_velocity_covariance0,field.angular_velocity_covariance1,field.angular_velocity_covariance2,field.angular_velocity_covariance3,field.angular_velocity_covariance4,field.angular_velocity_covariance5,field.angular_velocity_covariance6,field.angular_velocity_covariance7,field.angular_velocity_covariance8,field.linear_acceleration.x,field.linear_acceleration.y,field.linear_acceleration.z,field.linear_acceleration_covariance0,field.linear_acceleration_covariance1,field.linear_acceleration_covariance2,field.linear_acceleration_covariance3,field.linear_acceleration_covariance4,field.linear_acceleration_covariance5,field.linear_acceleration_covariance6,field.linear_acceleration_covariance7,field.linear_acceleration_covariance8
1505419079904737181,15913,1505419079904558857,0.00451440605986,-0.000390068626365,-0.531334173838,0.847150201379,1.0,0.0,0.0,0.0,1.0,0.0,0.0,0.0,100000.0,0.0492973476648,-0.113343171775,-0.0059389770031,1.0,0.0,0.0,0.0,1.0,0.0,0.0,0.0,1.0,-0.407409039885,0.231014085561,9.76026194096,0.1,0.0,0.0,0.0,0.1,0.0,0.0,0.0,0.1
1505419079913131643,15914,1505419079912919011,0.00439997322347,-0.000720965700859,-0.531495898502,0.847049130995,1.0,0.0,0.0,0.0,1.0,0.0,0.0,0.0,100000.0,0.0315479487181,-0.136389672756,-0.067998021841,1.0,0.0,0.0,0.0,1.0,0.0,0.0,0.0,1.0,-0.452689391375,0.317280735821,9.9481096983,0.1,0.0,0.0,0.0,0.1,0.0,0.0,0.0,0.1
1505419079918258196,15915,1505419079918089642,0.00433937101164,-0.000981790397548,-0.531509924759,0.847040380283,1.0,0.0,0.0,0.0,1.0,0.0,0.0,0.0,100000.0,0.0463159531355,-0.0993606671691,0.00145594787318,1.0,0.0,0.0,0.0,1.0,0.0,0.0,0.0,1.0,-0.392709849775,0.188497487456,10.1434447765,0.1,0.0,0.0,0.0,0.1,0.0,0.0,0.0,0.1
1505419079936047293,15916,1505419079935790613,0.00424928832137,-0.00122372535605,-0.531457427539,0.847073461253,1.0,0.0,0.0,0.0,1.0,0.0,0.0,0.0,100000.0,0.0185469835997,-0.108383193612,0.0310373902321,1.0,0.0,0.0,0.0,1.0,0.0,0.0,0.0,1.0,-0.514604688436,0.330432358384,10.2495348215,0.1,0.0,0.0,0.0,0.1,0.0,0.0,0.0,0.1
1505419079937524341,15917,1505419079937330438,0.00428213579663,-0.0014505988112,-0.531493634905,0.847050219959,1.0,0.0,0.0,0.0,1.0,0.0,0.0,0.0,100000.0,0.0670924112201,-0.0714203044772,-0.00698513165116,1.0,0.0,0.0,0.0,1.0,0.0,0.0,0.0,1.0,-0.467823097855,0.237793537602,10.4090501547,0.1,0.0,0.0,0.0,0.1,0.0,0.0,0.0,0.1
1505419079938606983,15918,1505419079938463507,0.00423318975161,-0.00159392837357,-0.531315726948,0.84716181323,1.0,0.0,0.0,0.0,1.0,0.0,0.0,0.0,100000.0,0.0172171257436,-0.0660628452897,0.0899784117937,1.0,0.0,0.0,0.0,1.0,0.0,0.0,0.0,1.0,-0.537702252716,0.257278194278,10.4075734854,0.1,0.0,0.0,0.0,0.1,0.0,0.0,0.0,0.1
1505419079945231898,15919,1505419079945025987,0.00408496326988,-0.00174813991816,-0.531307716669,0.847167260516,1.0,0.0,0.0,0.0,1.0,0.0,0.0,0.0,100000.0,-0.0148418843746,-0.0977278500795,0.0131474882364,1.0,0.0,0.0,0.0,1.0,0.0,0.0,0.0,1.0,-0.650489479303,0.336860112101,10.3804490328,0.1,0.0,0.0,0.0,0.1,0.0,0.0,0.0,0.1
1505419079947927286,15920,1505419079947043533,0.00402760714079,-0.00185592639119,-0.531233339739,0.847213947399,1.0,0.0,0.0,0.0,1.0,0.0,0.0,0.0,100000.0,0.00529648922384,-0.0676297098398,0.042647331953,1.0,0.0,0.0,0.0,1.0,0.0,0.0,0.0,1.0,-0.724017301202,0.268209263682,10.4113632917,0.1,0.0,0.0,0.0,0.1,0.0,0.0,0.0,0.1
1505419079947953610,15921,1505419079947062287,0.00386958263529,-0.00191072349809,-0.531129579488,0.847279614566,1.0,0.0,0.0,0.0,1.0,0.0,0.0,0.0,100000.0,-0.0374398268759,-0.0728221535683,0.0583262145519,1.0,0.0,0.0,0.0,1.0,0.0,0.0,0.0,1.0,-0.763932058215,0.27723405771,10.2680761337,0.1,0.0,0.0,0.0,0.1,0.0,0.0,0.0,0.1
1505419079954792765,15922,1505419079954581677,0.00385454622517,-0.00198404884311,-0.53118840621,0.847242635336,1.0,0.0,0.0,0.0,1.0,0.0,0.0,0.0,100000.0,0.0149842016399,-0.0458389818668,-0.0199972987175,1.0,0.0,0.0,0.0,1.0,0.0,0.0,0.0,1.0,-0.746175226569,0.248201796412,10.0647128344,0.1,0.0,0.0,0.0,0.1,0.0,0.0,0.0,0.1
1505419079955977893,15923,1505419079955815325,0.0037806882631,-0.00201965752275,-0.531106964303,0.847293939461,1.0,0.0,0.0,0.0,1.0,0.0,0.0,0.0,100000.0,-0.00497758761048,-0.0441570654511,0.0465464144945,1.0,0.0,0.0,0.0,1.0,0.0,0.0,0.0,1.0,-0.678947344422,0.127702835202,9.89934573174,0.1,0.0,0.0,0.0,0.1,0.0,0.0,0.0,0.1
1505419079960044993,15924,1505419079959825191,0.00360467568063,-0.00205402972019,-0.53119548726,0.84723912893,1.0,0.0,0.0,0.0,1.0,0.0,0.0,0.0,100000.0,-0.0398331210017,-0.0655451864004,-0.0365684479475,1.0,0.0,0.0,0.0,1.0,0.0,0.0,0.0,1.0,-0.643838553131,0.13915415965,9.73173441887,0.1,0.0,0.0,0.0,0.1,0.0,0.0,0.0,0.1
1505419079964861319,15925,1505419079964701014,0.00352482201575,-0.00214854548808,-0.53126166345,0.847197736264,1.0,0.0,0.0,0.0,1.0,0.0,0.0,0.0,100000.0,-0.00299427472055,-0.0589689947665,-0.0220694802701,1.0,0.0,0.0,0.0,1.0,0.0,0.0,0.0,1.0,-0.587178742886,0.22334517464,9.97090227604,0.1,0.0,0.0,0.0,0.1,0.0,0.0,0.0,0.1
1505419079971004056,15926,1505419079970797778,0.0032916029833,-0.00212622660869,-0.531320922472,0.847161567739,1.0,0.0,0.0,0.0,1.0,0.0,0.0,0.0,100000.0,-0.0735652893782,-0.0485521629453,-0.0193102862686,1.0,0.0,0.0,0.0,1.0,0.0,0.0,0.0,1.0,-0.474883861095,0.197495466471,10.0757598162,0.1,0.0,0.0,0.0,0.1,0.0,0.0,0.0,0.1
1505419079980605059,15927,1505419079980430394,0.00317198172002,-0.00210341268895,-0.531454066694,0.847078561399,1.0,0.0,0.0,0.0,1.0,0.0,0.0,0.0,100000.0,-0.0497708693147,-0.0232843868434,-0.056486595422,1.0,0.0,0.0,0.0,1.0,0.0,0.0,0.0,1.0,-0.460439094156,0.39981778115,10.3650947094,0.1,0.0,0.0,0.0,0.1,0.0,0.0,0.0,0.1
1505419079980615361,15928,1505419079980454192,0.00305718765543,-0.00207290331592,-0.531513350593,0.847041861313,1.0,0.0,0.0,0.0,1.0,0.0,0.0,0.0,100000.0,-0.0406017303467,-0.0119959935546,-0.0196463335305,1.0,0.0,0.0,0.0,1.0,0.0,0.0,0.0,1.0,-0.334580379725,0.240447803959,10.4119147062,0.1,0.0,0.0,0.0,0.1,0.0,0.0,0.0,0.1
1505419079985170705,15929,1505419079984993756,0.00281572208799,-0.00201439126648,-0.531572688273,0.847005602708,1.0,0.0,0.0,0.0,1.0,0.0,0.0,0.0,100000.0,-0.0919188559055,-0.0315599180758,-0.0212319791317,1.0,0.0,0.0,0.0,1.0,0.0,0.0,0.0,1.0,-0.370992720127,0.297475759313,10.4533922911,0.1,0.0,0.0,0.0,0.1,0.0,0.0,0.0,0.1
1505419079992295817,15930,1505419079992101480,0.00280247343958,-0.00206828715977,-0.531653808512,0.846954601041,1.0,0.0,0.0,0.0,1.0,0.0,0.0,0.0,100000.0,0.0118254665285,-0.0205656848848,-0.0276923943311,1.0,0.0,0.0,0.0,1.0,0.0,0.0,0.0,1.0,-0.415386843681,0.241192563996,10.4243227005,0.1,0.0,0.0,0.0,0.1,0.0,0.0,0.0,0.1
1505419079996247061,15931,1505419079996091503,0.0025758520621,-0.00201893013508,-0.531690952624,0.846932122312,1.0,0.0,0.0,0.0,1.0,0.0,0.0,0.0,100000.0,-0.0783858448267,-0.0382652804255,-0.00929330382496,1.0,0.0,0.0,0.0,1.0,0.0,0.0,0.0,1.0,-0.497269339859,0.134887013212,10.2663611412,0.1,0.0,0.0,0.0,0.1,0.0,0.0,0.0,0.1
1505419080003394251,15932,1505419080003230869,0.0024119356231,-0.00205020057333,-0.531742633551,0.846900083191,1.0,0.0,0.0,0.0,1.0,0.0,0.0,0.0,100000.0,-0.0419962033629,-0.055699005723,-0.0186144560575,1.0,0.0,0.0,0.0,1.0,0.0,0.0,0.0,1.0,-0.579584234953,0.241284162179,10.1263707876,0.1,0.0,0.0,0.0,0.1,0.0,0.0,0.0,0.1
1505419080014023287,15933,1505419080013798223,0.00221732880392,-0.00211385851614,-0.531831145614,0.846844878127,1.0,0.0,0.0,0.0,1.0,0.0,0.0,0.0,100000.0,-0.0431331396103,-0.0755648165941,-0.0321182087064,1.0,0.0,0.0,0.0,1.0,0.0,0.0,0.0,1.0,-0.603766812384,0.145092388801,9.90078618526,0.1,0.0,0.0,0.0,0.1,0.0,0.0,0.0,0.1
1505419080014957911,15934,1505419080014763983,0.00181304129922,-0.00219982359266,-0.531779214168,0.846878232709,1.0,0.0,0.0,0.0,1.0,0.0,0.0,0.0,100000.0,-0.116141401231,-0.127515807748,0.0313756167889,1.0,0.0,0.0,0.0,1.0,0.0,0.0,0.0,1.0,-0.569304465503,0.253766778484,9.67537506819,0.1,0.0,0.0,0.0,0.1,0.0,0.0,0.0,0.1
1505419080016270673,15935,1505419080016054461,0.00170052636951,-0.00242814105951,-0.531815420646,0.846855106086,1.0,0.0,0.0,0.0,1.0,0.0,0.0,0.0,100000.0,0.0112648792565,-0.109639123082,-0.00852691009641,1.0,0.0,0.0,0.0,1.0,0.0,0.0,0.0,1.0,-0.526977635175,0.266019869968,9.53228125572,0.1,0.0,0.0,0.0,0.1,0.0,0.0,0.0,0.1
1505419080020984970,15936,1505419080020733812,0.0013571855359,-0.002531895103,-0.531793005991,0.846869497817,1.0,0.0,0.0,0.0,1.0,0.0,0.0,0.0,100000.0,-0.095233798027,-0.11652276665,0.021033866331,1.0,0.0,0.0,0.0,1.0,0.0,0.0,0.0,1.0,-0.511807311326,0.325339915603,9.51462372541,0.1,0.0,0.0,0.0,0.1,0.0,0.0,0.0,0.1
1505419080025324097,15937,1505419080025197051,0.00123557165783,-0.00269263372253,-0.531822067466,0.846850938266,1.0,0.0,0.0,0.0,1.0,0.0,0.0,0.0,100000.0,-0.00969140976667,-0.0878143012524,-0.00738885812461,1.0,0.0,0.0,0.0,1.0,0.0,0.0,0.0,1.0,-0.490959981084,0.370836722106,9.67126924992,0.1,0.0,0.0,0.0,0.1,0.0,0.0,0.0,0.1
1505419080030569563,15938,1505419080030360430,0.0010888253942,-0.00274523436508,-0.531969738209,0.846758215654,1.0,0.0,0.0,0.0,1.0,0.0,0.0,0.0,100000.0,-0.0427533239126,-0.0568532459438,-0.0601568073034,1.0,0.0,0.0,0.0,1.0,0.0,0.0,0.0,1.0,-0.47737570405,0.35346698314,9.9960757494,0.1,0.0,0.0,0.0,0.1,0.0,0.0,0.0,0.1
1505419080035345024,15939,1505419080035083029,0.000845248789473,-0.00278820196885,-0.53202889991,0.846721182648,1.0,0.0,0.0,0.0,1.0,0.0,0.0,0.0,100000.0,-0.0759555101395,-0.0708064511418,-0.0212756246328,1.0,0.0,0.0,0.0,1.0,0.0,0.0,0.0,1.0,-0.411041132361,0.353505498916,10.1703542709,0.1,0.0,0.0,0.0,0.1,0.0,0.0,0.0,0.1
1505419080044302321,15940,1505419080044104923,0.000855639484973,-0.00283650863721,-0.532205984757,0.846609716391,1.0,0.0,0.0,0.0,1.0,0.0,0.0,0.0,100000.0,0.0159817244858,-0.0173732079566,-0.0754198282957,1.0,0.0,0.0,0.0,1.0,0.0,0.0,0.0,1.0,-0.453765423596,0.276633795723,10.3461515188,0.1,0.0,0.0,0.0,0.1,0.0,0.0,0.0,0.1
1505419080046441914,15941,1505419080046191470,0.000619731680738,-0.00271941689821,-0.532310066705,0.846544868031,1.0,0.0,0.0,0.0,1.0,0.0,0.0,0.0,100000.0,-0.108074449003,-0.0208083633333,-0.0387511849403,1.0,0.0,0.0,0.0,1.0,0.0,0.0,0.0,1.0,-0.475300269574,0.348016288877,10.2911339045,0.1,0.0,0.0,0.0,0.1,0.0,0.0,0.0,0.1
1505419080051635188,15942,1505419080051367317,0.000432911988519,-0.00262274278655,-0.532384468951,0.84649850031,1.0,0.0,0.0,0.0,1.0,0.0,0.0,0.0,100000.0,-0.0839580222964,-0.0196624696255,-0.0290113091469,1.0,0.0,0.0,0.0,1.0,0.0,0.0,0.0,1.0,-0.577296689898,0.294125963748,10.2029461384,0.1,0.0,0.0,0.0,0.1,0.0,0.0,0.0,0.1
1505419080055506720,15943,1505419080055300808,0.000155612696567,-0.00240738274203,-0.532525757333,0.846410360328,1.0,0.0,0.0,0.0,1.0,0.0,0.0,0.0,100000.0,-0.144499957561,-0.000544151291251,-0.0572837889194,1.0,0.0,0.0,0.0,1.0,0.0,0.0,0.0,1.0,-0.632240083814,0.331484477967,10.1302470446,0.1,0.0,0.0,0.0,0.1,0.0,0.0,0.0,0.1
1505419080060223141,15944,1505419080060082742,-0.000322964982883,-0.00225056628326,-0.53248234904,0.846438053614,1.0,0.0,0.0,0.0,1.0,0.0,0.0,0.0,100000.0,-0.188209667802,-0.0675805136561,0.0288819074631,1.0,0.0,0.0,0.0,1.0,0.0,0.0,0.0,1.0,-0.647290588915,0.168357934803,9.85423605442,0.1,0.0,0.0,0.0,0.1,0.0,0.0,0.0,0.1
1505419080065740457,15945,1505419080065571309,-0.000608562036589,-0.00216369576096,-0.532490226718,0.846433167192,1.0,0.0,0.0,0.0,1.0,0.0,0.0,0.0,100000.0,-0.100407831371,-0.0454628653824,0.00342480838299,1.0,0.0,0.0,0.0,1.0,0.0,0.0,0.0,1.0,-0.63230587095,0.0234886865132,9.71447467804,0.1,0.0,0.0,0.0,0.1,0.0,0.0,0.0,0.1
1505419080070677000,15946,1505419080070492040,-0.00105035233626,-0.00211255358365,-0.532402135034,0.846488275459,1.0,0.0,0.0,0.0,1.0,0.0,0.0,0.0,100000.0,-0.146118789911,-0.0899277925491,0.0527643375099,1.0,0.0,0.0,0.0,1.0,0.0,0.0,0.0,1.0,-0.569964855909,0.0295509784482,9.50366611481,0.1,0.0,0.0,0.0,0.1,0.0,0.0,0.0,0.1
1505419080077482715,15947,1505419080077301531,-0.00136290809402,-0.0021840076255,-0.532284112996,0.846561867582,1.0,0.0,0.0,0.0,1.0,0.0,0.0,0.0,100000.0,-0.0804525613785,-0.104361206293,0.0612166188657,1.0,0.0,0.0,0.0,1.0,0.0,0.0,0.0,1.0,-0.589479430765,0.078637496382,9.36801815033,0.1,0.0,0.0,0.0,0.1,0.0,0.0,0.0,0.1
1505419080080366205,15948,1505419080080178547,-0.0014974533168,-0.00231588404478,-0.532306103734,0.846547462487,1.0,0.0,0.0,0.0,1.0,0.0,0.0,0.0,100000.0,-0.0280204862356,-0.0826492831111,0.000915914773941,1.0,0.0,0.0,0.0,1.0,0.0,0.0,0.0,1.0,-0.507990817726,0.320621714741,9.55890043974,0.1,0.0,0.0,0.0,0.1,0.0,0.0,0.0,0.1
1505419080085428664,15949,1505419080085263470,-0.00164211993936,-0.00251355885224,-0.532246711324,0.846583973241,1.0,0.0,0.0,0.0,1.0,0.0,0.0,0.0,100000.0,-0.0148541014642,-0.107338182628,0.0337980389595,1.0,0.0,0.0,0.0,1.0,0.0,0.0,0.0,1.0,-0.477502568811,0.406369113922,9.53579769135,0.1,0.0,0.0,0.0,0.1,0.0,0.0,0.0,0.1
1505419080090497753,15950,1505419080090295875,-0.00149704269112,-0.00279034362136,-0.532349150738,0.846518962903,1.0,0.0,0.0,0.0,1.0,0.0,0.0,0.0,100000.0,0.104930862784,-0.0704591721296,-0.0379348509014,1.0,0.0,0.0,0.0,1.0,0.0,0.0,0.0,1.0,-0.462457576394,0.377802820504,9.82331478596,0.1,0.0,0.0,0.0,0.1,0.0,0.0,0.0,0.1
1505419080096647764,15951,1505419080096479000,-0.00144518862069,-0.00301885534028,-0.53241478805,0.846476988115,1.0,0.0,0.0,0.0,1.0,0.0,0.0,0.0,100000.0,0.0620314851403,-0.0740555375814,-0.0235840082169,1.0,0.0,0.0,0.0,1.0,0.0,0.0,0.0,1.0,-0.442529404163,0.349707770348,9.92180652618,0.1,0.0,0.0,0.0,0.1,0.0,0.0,0.0,0.1
1505419080100506967,15952,1505419080100339425,-0.00139256645634,-0.00327881553255,-0.532487666886,0.846430265729,1.0,0.0,0.0,0.0,1.0,0.0,0.0,0.0,100000.0,0.0732683762908,-0.0871808156371,-0.0289698019624,1.0,0.0,0.0,0.0,1.0,0.0,0.0,0.0,1.0,-0.533806025982,0.228641659766,10.0355322599,0.1,0.0,0.0,0.0,0.1,0.0,0.0,0.0,0.1
1505419080105717737,15953,1505419080105534210,-0.00137979743745,-0.00342103137163,-0.532656998245,0.846323174044,1.0,0.0,0.0,0.0,1.0,0.0,0.0,0.0,100000.0,0.0427880957723,-0.0610244870186,-0.0710052922368,1.0,0.0,0.0,0.0,1.0,0.0,0.0,0.0,1.0,-0.5591612719,0.134658282436,10.2261639595,0.1,0.0,0.0,0.0,0.1,0.0,0.0,0.0,0.1
1505419080111553414,15954,1505419080111348863,-0.00160774503903,-0.00342198370637,-0.532753369701,0.84626210612,1.0,0.0,0.0,0.0,1.0,0.0,0.0,0.0,100000.0,-0.0731270313263,-0.0627627596259,-0.0354864448309,1.0,0.0,0.0,0.0,1.0,0.0,0.0,0.0,1.0,-0.574947410077,0.191371932626,10.0896292925,0.1,0.0,0.0,0.0,0.1,0.0,0.0,0.0,0.1
1505419080115832757,15955,1505419080115683169,-0.0017295657356,-0.00341755706694,-0.532916011564,0.846159472868,1.0,0.0,0.0,0.0,1.0,0.0,0.0,0.0,100000.0,-0.0407834649086,-0.0457846410573,-0.0682787746191,1.0,0.0,0.0,0.0,1.0,0.0,0.0,0.0,1.0,-0.681878778338,0.193383003771,9.96790337563,0.1,0.0,0.0,0.0,0.1,0.0,0.0,0.0,0.1
1505419080120545802,15956,1505419080120353187,-0.00194238685609,-0.00326291544229,-0.533072010272,0.84606135261,1.0,0.0,0.0,0.0,1.0,0.0,0.0,0.0,100000.0,-0.0999657958746,-0.0133518818766,-0.065433382988,1.0,0.0,0.0,0.0,1.0,0.0,0.0,0.0,1.0,-0.666336658597,0.165130769089,9.67189484835,0.1,0.0,0.0,0.0,0.1,0.0,0.0,0.0,0.1
1505419080126920829,15957,1505419080126754059,-0.00223832045623,-0.00315894885332,-0.53315407713,0.846009303143,1.0,0.0,0.0,0.0,1.0,0.0,0.0,0.0,100000.0,-0.122730866075,-0.0506581291556,-0.0295257866383,1.0,0.0,0.0,0.0,1.0,0.0,0.0,0.0,1.0,-0.739850534499,0.218424336985,9.3397529006,0.1,0.0,0.0,0.0,0.1,0.0,0.0,0.0,0.1
1505419080131845931,15958,1505419080131611692,-0.00235083515468,-0.00313953923176,-0.533331461352,0.845897256881,1.0,0.0,0.0,0.0,1.0,0.0,0.0,0.0,100000.0,-0.0372905284166,-0.0395817197859,-0.0754809975624,1.0,0.0,0.0,0.0,1.0,0.0,0.0,0.0,1.0,-0.700327652693,0.168544763699,9.29663918018,0.1,0.0,0.0,0.0,0.1,0.0,0.0,0.0,0.1
1505419080136082480,15959,1505419080135900648,-0.00275119442987,-0.00302114581963,-0.533413716879,0.845844613539,1.0,0.0,0.0,0.0,1.0,0.0,0.0,0.0,100000.0,-0.154613509774,-0.062456317246,-0.029973089695,1.0,0.0,0.0,0.0,1.0,0.0,0.0,0.0,1.0,-0.59803847596,0.127395904623,9.21515367031,0.1,0.0,0.0,0.0,0.1,0.0,0.0,0.0,0.1
1505419080148642779,15960,1505419080148448500,-0.00312173656037,-0.0030348875918,-0.533547176076,0.845759099933,1.0,0.0,0.0,0.0,1.0,0.0,0.0,0.0,100000.0,-0.123188555241,-0.0986091345549,-0.0540817677975,1.0,0.0,0.0,0.0,1.0,0.0,0.0,0.0,1.0,-0.582822407782,0.268970762566,9.38910391331,0.1,0.0,0.0,0.0,0.1,0.0,0.0,0.0,0.1
1505419080151235931,15961,1505419080151037026,-0.00345640960055,-0.00304007272717,-0.533747046957,0.845631658025,1.0,0.0,0.0,0.0,1.0,0.0,0.0,0.0,100000.0,-0.122090980411,-0.0799026787281,-0.0846154689789,1.0,0.0,0.0,0.0,1.0,0.0,0.0,0.0,1.0,-0.446792644262,0.393576363474,9.64321311712,0.1,0.0,0.0,0.0,0.1,0.0,0.0,0.0,0.1
1505419080153137477,15962,1505419080152987924,-0.00382127692202,-0.00307793365631,-0.533814090379,0.845587630633,1.0,0.0,0.0,0.0,1.0,0.0,0.0,0.0,100000.0,-0.138459682465,-0.100832141936,-0.0240514576435,1.0,0.0,0.0,0.0,1.0,0.0,0.0,0.0,1.0,-0.446124441177,0.608235445619,9.78663812876,0.1,0.0,0.0,0.0,0.1,0.0,0.0,0.0,0.1
1505419080155722149,15963,1505419080155494607,-0.00382125911844,-0.00330456065981,-0.534020062035,0.845456711607,1.0,0.0,0.0,0.0,1.0,0.0,0.0,0.0,100000.0,0.0237606037408,-0.0846018642187,-0.0881324708462,1.0,0.0,0.0,0.0,1.0,0.0,0.0,0.0,1.0,-0.469752208889,0.632274693251,10.03583951,0.1,0.0,0.0,0.0,0.1,0.0,0.0,0.0,0.1
1505419080160560882,15964,1505419080160350871,-0.00392517379353,-0.00332136890361,-0.534079276152,0.845418765053,1.0,0.0,0.0,0.0,1.0,0.0,0.0,0.0,100000.0,-0.0558286719024,-0.0390054546297,-0.0190489012748,1.0,0.0,0.0,0.0,1.0,0.0,0.0,0.0,1.0,-0.444067041576,0.676896625757,10.0067126751,0.1,0.0,0.0,0.0,0.1,0.0,0.0,0.0,0.1
1505419080165524920,15965,1505419080165350434,-0.00382975116276,-0.00346418384072,-0.534100766274,0.845405053156,1.0,0.0,0.0,0.0,1.0,0.0,0.0,0.0,100000.0,0.0401144437492,-0.0478081032634,-0.00369739532471,1.0,0.0,0.0,0.0,1.0,0.0,0.0,0.0,1.0,-0.624124974012,0.587039830536,10.0498223066,0.1,0.0,0.0,0.0,0.1,0.0,0.0,0.0,0.1
1505419080170613350,15966,1505419080170422005,-0.00369654155995,-0.00338301000481,-0.534196641857,0.845345396068,1.0,0.0,0.0,0.0,1.0,0.0,0.0,0.0,100000.0,0.0120976362377,0.0383012257516,-0.0345592647791,1.0,0.0,0.0,0.0,1.0,0.0,0.0,0.0,1.0,-0.630360294878,0.467661368102,9.99359321594,0.1,0.0,0.0,0.0,0.1,0.0,0.0,0.0,0.1
1505419080177317472,15967,1505419080177078022,-0.00361017756296,-0.00323137323842,-0.534064085239,0.845430114026,1.0,0.0,0.0,0.0,1.0,0.0,0.0,0.0,100000.0,-0.0137783139944,0.0522029623389,0.0700484216213,1.0,0.0,0.0,0.0,1.0,0.0,0.0,0.0,1.0,-0.613628895581,0.409331871569,9.90062963963,0.1,0.0,0.0,0.0,0.1,0.0,0.0,0.0,0.1
1505419080180655948,15968,1505419080180500185,-0.00333063552191,-0.00318085699347,-0.534078487091,0.845422355183,1.0,0.0,0.0,0.0,1.0,0.0,0.0,0.0,100000.0,0.0815039202571,0.0523275211453,0.00410193298012,1.0,0.0,0.0,0.0,1.0,0.0,0.0,0.0,1.0,-0.672450189292,0.279994653165,9.66134787798,0.1,0.0,0.0,0.0,0.1,0.0,0.0,0.0,0.1
1505419080186422328,15969,1505419080186250119,-0.00328217667519,-0.00297419764467,-0.53399780563,0.845474260428,1.0,0.0,0.0,0.0,1.0,0.0,0.0,0.0,100000.0,-0.0184680838138,0.0653417855501,0.0452035181224,1.0,0.0,0.0,0.0,1.0,0.0,0.0,0.0,1.0,-0.609442467988,0.0872115919366,9.42392655611,0.1,0.0,0.0,0.0,0.1,0.0,0.0,0.0,0.1
1505419080190876306,15970,1505419080190669210,-0.00317204402422,-0.003012892492,-0.533931075533,0.845516686527,1.0,0.0,0.0,0.0,1.0,0.0,0.0,0.0,100000.0,0.0536258816719,-0.00839878432453,0.0421153306961,1.0,0.0,0.0,0.0,1.0,0.0,0.0,0.0,1.0,-0.630800944567,0.0809463802725,9.21841133833,0.1,0.0,0.0,0.0,0.1,0.0,0.0,0.0,0.1
1505419080195765126,15971,1505419080195585477,-0.0031158168089,-0.00295531483176,-0.534063919354,0.845433195376,1.0,0.0,0.0,0.0,1.0,0.0,0.0,0.0,100000.0,0.0196250453591,0.0139805022627,-0.0549442321062,1.0,0.0,0.0,0.0,1.0,0.0,0.0,0.0,1.0,-0.612520079315,0.0380444418639,9.17224906683,0.1,0.0,0.0,0.0,0.1,0.0,0.0,0.0,0.1
1505419080202184601,15972,1505419080202012407,-0.00310380427413,-0.00295257061183,-0.534071278929,0.84542860003,1.0,0.0,0.0,0.0,1.0,0.0,0.0,0.0,100000.0,0.0112446602434,-0.00457192771137,0.00611291825771,1.0,0.0,0.0,0.0,1.0,0.0,0.0,0.0,1.0,-0.433530914038,0.0982919784263,9.25512129068,0.1,0.0,0.0,0.0,0.1,0.0,0.0,0.0,0.1
1505419080211778252,15973,1505419080211554155,-0.00307535525097,-0.00305286790371,-0.53425538902,0.845312014283,1.0,0.0,0.0,0.0,1.0,0.0,0.0,0.0,100000.0,0.0305803958327,-0.0326129049063,-0.0801800489426,1.0,0.0,0.0,0.0,1.0,0.0,0.0,0.0,1.0,-0.415918982029,0.186110495031,9.39839034081,0.1,0.0,0.0,0.0,0.1,0.0,0.0,0.0,0.1
1505419080212495860,15974,1505419080212320164,-0.00308100729309,-0.00314200562958,-0.534410067979,0.845213886798,1.0,0.0,0.0,0.0,1.0,0.0,0.0,0.0,100000.0,0.017210803926,-0.0325615517795,-0.064731195569,1.0,0.0,0.0,0.0,1.0,0.0,0.0,0.0,1.0,-0.293031841889,0.246717533469,9.65235468149,0.1,0.0,0.0,0.0,0.1,0.0,0.0,0.0,0.1
1505419080219528066,15975,1505419080219394562,-0.00308206716271,-0.00330646838054,-0.534461166243,0.845180945068,1.0,0.0,0.0,0.0,1.0,0.0,0.0,0.0,100000.0,0.0363973341882,-0.0537229813635,-0.0150560438633,1.0,0.0,0.0,0.0,1.0,0.0,0.0,0.0,1.0,-0.293316876888,0.208668199554,9.88870179653,0.1,0.0,0.0,0.0,0.1,0.0,0.0,0.0,0.1
1505419080222057735,15976,1505419080221887316,-0.00297963249467,-0.00337103720958,-0.53466725841,0.845050697108,1.0,0.0,0.0,0.0,1.0,0.0,0.0,0.0,100000.0,0.0470732152462,-0.00641873851418,-0.0882368981838,1.0,0.0,0.0,0.0,1.0,0.0,0.0,0.0,1.0,-0.446353710443,0.251012133807,9.98554747105,0.1,0.0,0.0,0.0,0.1,0.0,0.0,0.0,0.1
1505419080226004899,15977,1505419080225853122,-0.00282882348414,-0.00319796372155,-0.534667534993,0.845051713098,1.0,0.0,0.0,0.0,1.0,0.0,0.0,0.0,100000.0,0.0124753825366,0.082161962986,0.010218590498,1.0,0.0,0.0,0.0,1.0,0.0,0.0,0.0,1.0,-0.39681661725,0.244981238618,10.0817190647,0.1,0.0,0.0,0.0,0.1,0.0,0.0,0.0,0.1
1505419080230953020,15978,1505419080230707721,-0.002701071229,-0.0029792720043,-0.534719616943,0.845019975746,1.0,0.0,0.0,0.0,1.0,0.0,0.0,0.0,100000.0,0.00266064703465,0.0837806090713,-0.0169059038162,1.0,0.0,0.0,0.0,1.0,0.0,0.0,0.0,1.0,-0.621007715166,0.119440379739,9.90994644165,0.1,0.0,0.0,0.0,0.1,0.0,0.0,0.0,0.1
1505419080236363611,15979,1505419080236179221,-0.0025570521696,-0.00263655553228,-0.5348309101,0.84495112738,1.0,0.0,0.0,0.0,1.0,0.0,0.0,0.0,100000.0,-0.0232360512018,0.129959046841,-0.0399853885174,1.0,0.0,0.0,0.0,1.0,0.0,0.0,0.0,1.0,-0.604529059678,0.232804503292,9.86228179932,0.1,0.0,0.0,0.0,0.1,0.0,0.0,0.0,0.1
1505419080247625577,15980,1505419080247425323,-0.00252320909906,-0.00242053153008,-0.534750247469,0.845002927377,1.0,0.0,0.0,0.0,1.0,0.0,0.0,0.0,100000.0,-0.0288817696273,0.0614536441863,0.0451896637678,1.0,0.0,0.0,0.0,1.0,0.0,0.0,0.0,1.0,-0.660629241168,0.150102944486,9.57234116793,0.1,0.0,0.0,0.0,0.1,0.0,0.0,0.0,0.1
1505419080247634623,15981,1505419080247449709,-0.00240076189371,-0.00229131825569,-0.534890431925,0.844914914082,1.0,0.0,0.0,0.0,1.0,0.0,0.0,0.0,100000.0,0.0125603470951,0.0486330464482,-0.055564686656,1.0,0.0,0.0,0.0,1.0,0.0,0.0,0.0,1.0,-0.724434658885,0.248996754736,9.27508553267,0.1,0.0,0.0,0.0,0.1,0.0,0.0,0.0,0.1
1505419080250815447,15982,1505419080250568671,-0.0025063294585,-0.00213147121672,-0.534935163356,0.844886706102,1.0,0.0,0.0,0.0,1.0,0.0,0.0,0.0,100000.0,-0.0739264115691,0.0138733806089,-0.0107127651572,1.0,0.0,0.0,0.0,1.0,0.0,0.0,0.0,1.0,-0.630432361364,0.292974451557,9.02307567596,0.1,0.0,0.0,0.0,0.1,0.0,0.0,0.0,0.1
1505419080256181451,15983,1505419080255964451,-0.00259347168727,-0.00213818298054,-0.534994219012,0.844849032492,1.0,0.0,0.0,0.0,1.0,0.0,0.0,0.0,100000.0,-0.0377281904221,-0.0370782315731,-0.0208589956164,1.0,0.0,0.0,0.0,1.0,0.0,0.0,0.0,1.0,-0.596700609475,0.389192903042,8.87486550808,0.1,0.0,0.0,0.0,0.1,0.0,0.0,0.0,0.1
1505419080261376370,15984,1505419080261257551,-0.00268847304353,-0.00213960342569,-0.535245024289,0.844689859169,1.0,0.0,0.0,0.0,1.0,0.0,0.0,0.0,100000.0,-0.0447550602257,-0.0286408104002,-0.110187478364,1.0,0.0,0.0,0.0,1.0,0.0,0.0,0.0,1.0,-0.488017886877,0.458582633734,9.20046466589,0.1,0.0,0.0,0.0,0.1,0.0,0.0,0.0,0.1
1505419080266180802,15985,1505419080266039380,-0.00279554763894,-0.00222662398225,-0.535303951205,0.844651944225,1.0,0.0,0.0,0.0,1.0,0.0,0.0,0.0,100000.0,-0.0299482643604,-0.0547098182142,-0.017332047224,1.0,0.0,0.0,0.0,1.0,0.0,0.0,0.0,1.0,-0.355537854135,0.444536276907,9.5028740406,0.1,0.0,0.0,0.0,0.1,0.0,0.0,0.0,0.1
1505419080271283583,15986,1505419080271135373,-0.00260132244386,-0.00227707141884,-0.535539462896,0.84450312714,1.0,0.0,0.0,0.0,1.0,0.0,0.0,0.0,100000.0,0.0595801621675,0.0224646553397,-0.102067247033,1.0,0.0,0.0,0.0,1.0,0.0,0.0,0.0,1.0,-0.331747772545,0.494856463373,9.91807980537,0.1,0.0,0.0,0.0,0.1,0.0,0.0,0.0,0.1
1505419080277682383,15987,1505419080277465756,-0.0025129750111,-0.0021365204726,-0.535716489302,0.844391475163,1.0,0.0,0.0,0.0,1.0,0.0,0.0,0.0,100000.0,-0.0105996020138,0.0675687789917,-0.0730642676353,1.0,0.0,0.0,0.0,1.0,0.0,0.0,0.0,1.0,-0.314298884571,0.405889437348,10.0022733212,0.1,0.0,0.0,0.0,0.1,0.0,0.0,0.0,0.1
1505419080281081706,15988,1505419080280960682,-0.0024057847828,-0.00185302716302,-0.535797844734,0.844340836433,1.0,0.0,0.0,0.0,1.0,0.0,0.0,0.0,100000.0,-0.0299033578485,0.115086905658,-0.0290100574493,1.0,0.0,0.0,0.0,1.0,0.0,0.0,0.0,1.0,-0.42931035161,0.364040239155,9.93017470837,0.1,0.0,0.0,0.0,0.1,0.0,0.0,0.0,0.1
1505419080286635815,15989,1505419080286441575,-0.00232187845644,-0.00140963887084,-0.536115104984,0.844140519112,1.0,0.0,0.0,0.0,1.0,0.0,0.0,0.0,100000.0,-0.0727093890309,0.151739239693,-0.142149031162,1.0,0.0,0.0,0.0,1.0,0.0,0.0,0.0,1.0,-0.578580305725,0.327566565573,9.73738816977,0.1,0.0,0.0,0.0,0.1,0.0,0.0,0.0,0.1
1505419080291306513,15990,1505419080291001419,-0.00243751236326,-0.000891574036552,-0.536159778263,0.844112525557,1.0,0.0,0.0,0.0,1.0,0.0,0.0,0.0,100000.0,-0.15308855474,0.132364705205,-0.00895088911057,1.0,0.0,0.0,0.0,1.0,0.0,0.0,0.0,1.0,-0.671940977871,0.292539971694,9.47265372276,0.1,0.0,0.0,0.0,0.1,0.0,0.0,0.0,0.1
1505419080296111074,15991,1505419080295958508,-0.00242664860074,-0.000401710571708,-0.536365993263,0.84398191407,1.0,0.0,0.0,0.0,1.0,0.0,0.0,0.0,100000.0,-0.10502396524,0.145315438509,-0.0886816382408,1.0,0.0,0.0,0.0,1.0,0.0,0.0,0.0,1.0,-0.731178680062,0.275210391358,9.23537025452,0.1,0.0,0.0,0.0,0.1,0.0,0.0,0.0,0.1
1505419080301219376,15992,1505419080301049600,-0.00251192115861,6.65414653395e-05,-0.536520364635,0.843883631881,1.0,0.0,0.0,0.0,1.0,0.0,0.0,0.0,100000.0,-0.133806958795,0.123668864369,-0.0625088512897,1.0,0.0,0.0,0.0,1.0,0.0,0.0,0.0,1.0,-0.66305051446,0.248445504531,9.09720938206,0.1,0.0,0.0,0.0,0.1,0.0,0.0,0.0,0.1
1505419080312352258,15993,1505419080312144240,-0.00258302222396,0.00044268270657,-0.536527291977,0.843878899483,1.0,0.0,0.0,0.0,1.0,0.0,0.0,0.0,100000.0,-0.113677635789,0.100605264306,0.00781828165054,1.0,0.0,0.0,0.0,1.0,0.0,0.0,0.0,1.0,-0.554065068811,0.372278161347,8.94384664297,0.1,0.0,0.0,0.0,0.1,0.0,0.0,0.0,0.1
1505419080314870480,15994,1505419080314762932,-0.00255346024021,0.000652297330018,-0.536784690319,0.843715147777,1.0,0.0,0.0,0.0,1.0,0.0,0.0,0.0,100000.0,-0.0388291403651,0.0686496719718,-0.114569962025,1.0,0.0,0.0,0.0,1.0,0.0,0.0,0.0,1.0,-0.490448907763,0.314562288672,9.02826154232,0.1,0.0,0.0,0.0,0.1,0.0,0.0,0.0,0.1
1505419080316434891,15995,1505419080316228833,-0.00260298494022,0.000818347136126,-0.536806470692,0.843700994311,1.0,0.0,0.0,0.0,1.0,0.0,0.0,0.0,100000.0,-0.0699816122651,0.0442862212658,-0.000931054353714,1.0,0.0,0.0,0.0,1.0,0.0,0.0,0.0,1.0,-0.388728815317,0.491831277311,9.05617748499,0.1,0.0,0.0,0.0,0.1,0.0,0.0,0.0,0.1
1505419080321350159,15996,1505419080321046598,-0.00247698467576,0.000821553361568,-0.536983137661,0.843588939866,1.0,0.0,0.0,0.0,1.0,0.0,0.0,0.0,100000.0,0.026809759438,0.0295666344464,-0.0729719400406,1.0,0.0,0.0,0.0,1.0,0.0,0.0,0.0,1.0,-0.354414690286,0.467230064422,9.18864079714,0.1,0.0,0.0,0.0,0.1,0.0,0.0,0.0,0.1
1505419080328183196,15997,1505419080327966377,-0.00234769227571,0.000781078070119,-0.537115669141,0.843504971071,1.0,0.0,0.0,0.0,1.0,0.0,0.0,0.0,100000.0,0.0405083149672,0.0160040874034,-0.0523961484432,1.0,0.0,0.0,0.0,1.0,0.0,0.0,0.0,1.0,-0.364434487373,0.405377597362,9.33056635857,0.1,0.0,0.0,0.0,0.1,0.0,0.0,0.0,0.1
1505419080331375180,15998,1505419080331203523,-0.00220044021807,0.000801115020778,-0.537115597736,0.843505394735,1.0,0.0,0.0,0.0,1.0,0.0,0.0,0.0,100000.0,0.0316580235958,0.0377420559525,0.0108801722527,1.0,0.0,0.0,0.0,1.0,0.0,0.0,0.0,1.0,-0.367274432629,0.410045344383,9.38248226643,0.1,0.0,0.0,0.0,0.1,0.0,0.0,0.0,0.1
1505419080338317015,15999,1505419080338178875,-0.00200359844263,0.000655483082731,-0.537255689513,0.843416789032,1.0,0.0,0.0,0.0,1.0,0.0,0.0,0.0,100000.0,0.0954947248101,-0.00843321159482,-0.0578192919493,1.0,0.0,0.0,0.0,1.0,0.0,0.0,0.0,1.0,-0.464818173647,0.293305230886,9.55823979378,0.1,0.0,0.0,0.0,0.1,0.0,0.0,0.0,0.1
1505419080346328873,16000,1505419080346150925,-0.00185168440113,0.000682775046211,-0.537218779086,0.843440625344,1.0,0.0,0.0,0.0,1.0,0.0,0.0,0.0,100000.0,0.0380846448243,0.0331861935556,0.0275897532701,1.0,0.0,0.0,0.0,1.0,0.0,0.0,0.0,1.0,-0.504490956664,0.302957941592,9.58122396469,0.1,0.0,0.0,0.0,0.1,0.0,0.0,0.0,0.1
1505419080347792228,16001,1505419080347603619,-0.00170509458514,0.000620574269719,-0.537270396078,0.843408103493,1.0,0.0,0.0,0.0,1.0,0.0,0.0,0.0,100000.0,0.0591112226248,0.0012984117493,-0.0135370716453,1.0,0.0,0.0,0.0,1.0,0.0,0.0,0.0,1.0,-0.549971991777,0.282654030621,9.64624648094,0.1,0.0,0.0,0.0,0.1,0.0,0.0,0.0,0.1
1505419080352746390,16002,1505419080352562924,-0.00152497643674,0.000692198446066,-0.537321761515,0.843375669504,1.0,0.0,0.0,0.0,1.0,0.0,0.0,0.0,100000.0,0.045949831605,0.0493930205703,-0.0151023566723,1.0,0.0,0.0,0.0,1.0,0.0,0.0,0.0,1.0,-0.62720579803,0.241491800547,9.64076095819,0.1,0.0,0.0,0.0,0.1,0.0,0.0,0.0,0.1
1505419080356749380,16003,1505419080356560494,-0.00142247844907,0.000885560399512,-0.537314100068,0.843380548866,1.0,0.0,0.0,0.0,1.0,0.0,0.0,0.0,100000.0,-0.00633943267167,0.0710034221411,0.0119505822659,1.0,0.0,0.0,0.0,1.0,0.0,0.0,0.0,1.0,-0.636220315099,0.18905762732,9.55964753628,0.1,0.0,0.0,0.0,0.1,0.0,0.0,0.0,0.1
1505419080361752074,16004,1505419080361566650,-0.00135997666125,0.00103234269216,-0.537461067211,0.843286834929,1.0,0.0,0.0,0.0,1.0,0.0,0.0,0.0,100000.0,-0.00664498284459,0.0439262986183,-0.0583805330098,1.0,0.0,0.0,0.0,1.0,0.0,0.0,0.0,1.0,-0.764965668321,0.159625513852,9.45225255489,0.1,0.0,0.0,0.0,0.1,0.0,0.0,0.0,0.1
1505419080366573194,16005,1505419080366400937,-0.00129401622673,0.0012493769931,-0.537607798272,0.843193109446,1.0,0.0,0.0,0.0,1.0,0.0,0.0,0.0,100000.0,-0.0239391922951,0.0707876086235,-0.0615036860108,1.0,0.0,0.0,0.0,1.0,0.0,0.0,0.0,1.0,-0.721531628072,0.181089260802,9.33848826885,0.1,0.0,0.0,0.0,0.1,0.0,0.0,0.0,0.1
1505419080371838018,16006,1505419080371651010,-0.00134322644939,0.00130190694874,-0.537784280929,0.843080404212,1.0,0.0,0.0,0.0,1.0,0.0,0.0,0.0,100000.0,-0.0301062427461,-0.00761433504522,-0.0716881155968,1.0,0.0,0.0,0.0,1.0,0.0,0.0,0.0,1.0,-0.655362838507,0.254898010567,9.19033592939,0.1,0.0,0.0,0.0,0.1,0.0,0.0,0.0,0.1
1505419080377944796,16007,1505419080377742037,-0.00129190686763,0.00130096451856,-0.538078557152,0.842892700645,1.0,0.0,0.0,0.0,1.0,0.0,0.0,0.0,100000.0,0.0120636150241,0.000698647461832,-0.128869146109,1.0,0.0,0.0,0.0,1.0,0.0,0.0,0.0,1.0,-0.575460929424,0.319320794195,9.20892630816,0.1,0.0,0.0,0.0,0.1,0.0,0.0,0.0,0.1
1505419080381423134,16008,1505419080381260030,-0.00123077990046,0.00128304266379,-0.538240387632,0.842789489792,1.0,0.0,0.0,0.0,1.0,0.0,0.0,0.0,100000.0,0.0182566735893,0.00890666339546,-0.0701002776623,1.0,0.0,0.0,0.0,1.0,0.0,0.0,0.0,1.0,-0.38200257346,0.344876358658,9.19022319317,0.1,0.0,0.0,0.0,0.1,0.0,0.0,0.0,0.1
1505419080387136680,16009,1505419080386994725,-0.00114424639258,0.00120757130492,-0.538461171942,0.84264868052,1.0,0.0,0.0,0.0,1.0,0.0,0.0,0.0,100000.0,0.0356854684651,-0.006865080446,-0.0937472879887,1.0,0.0,0.0,0.0,1.0,0.0,0.0,0.0,1.0,-0.380160862207,0.387407632917,9.31923023462,0.1,0.0,0.0,0.0,0.1,0.0,0.0,0.0,0.1
1505419080391471269,16010,1505419080391276795,-0.000899052954386,0.0011858966613,-0.53865244562,0.842526752205,1.0,0.0,0.0,0.0,1.0,0.0,0.0,0.0,100000.0,0.0779190659523,0.048613473773,-0.0804365053773,1.0,0.0,0.0,0.0,1.0,0.0,0.0,0.0,1.0,-0.336565895379,0.35657383725,9.45441206694,0.1,0.0,0.0,0.0,0.1,0.0,0.0,0.0,0.1
1505419080399156077,16011,1505419080398992823,-0.000724311523255,0.00116751411942,-0.538718709873,0.842484577851,1.0,0.0,0.0,0.0,1.0,0.0,0.0,0.0,100000.0,0.0549117252231,0.0329099483788,-0.0222986359149,1.0,0.0,0.0,0.0,1.0,0.0,0.0,0.0,1.0,-0.390816845,0.403586449474,9.62724546194,0.1,0.0,0.0,0.0,0.1,0.0,0.0,0.0,0.1
1505419080403399087,16012,1505419080403204984,-0.00045440338515,0.00111951869363,-0.538932052617,0.842348373808,1.0,0.0,0.0,0.0,1.0,0.0,0.0,0.0,100000.0,0.0885493904352,0.0425646342337,-0.0886500775814,1.0,0.0,0.0,0.0,1.0,0.0,0.0,0.0,1.0,-0.41018294245,0.446406354755,9.79836152792,0.1,0.0,0.0,0.0,0.1,0.0,0.0,0.0,0.1
1505419080411302144,16013,1505419080411076335,-0.00020946245078,0.00109750875587,-0.53895420485,0.842334325951,1.0,0.0,0.0,0.0,1.0,0.0,0.0,0.0,100000.0,0.0805935263634,0.0400936454535,-0.00142577290535,1.0,0.0,0.0,0.0,1.0,0.0,0.0,0.0,1.0,-0.488977240026,0.322070674598,9.84766230583,0.1,0.0,0.0,0.0,0.1,0.0,0.0,0.0,0.1
1505419080412039125,16014,1505419080411864562,-7.02264192255e-05,0.00103961650938,-0.5390866269,0.842249679705,1.0,0.0,0.0,0.0,1.0,0.0,0.0,0.0,100000.0,0.0524225980043,0.00162212084979,-0.0527440905571,1.0,0.0,0.0,0.0,1.0,0.0,0.0,0.0,1.0,-0.567433547974,0.357879211754,9.76576031446,0.1,0.0,0.0,0.0,0.1,0.0,0.0,0.0,0.1
1505419080416741431,16015,1505419080416572625,0.000107816890108,0.000977554904634,-0.539233795753,0.842155535682,1.0,0.0,0.0,0.0,1.0,0.0,0.0,0.0,100000.0,0.0722772777081,0.00420068111271,-0.0576225556433,1.0,0.0,0.0,0.0,1.0,0.0,0.0,0.0,1.0,-0.631900852919,0.233513704687,9.63596411943,0.1,0.0,0.0,0.0,0.1,0.0,0.0,0.0,0.1
1505419080421744043,16016,1505419080421466306,0.000147214598053,0.000941970156166,-0.539241198292,0.842150830365,1.0,0.0,0.0,0.0,1.0,0.0,0.0,0.0,100000.0,0.0216773767024,-0.0193160176277,0.00602635741234,1.0,0.0,0.0,0.0,1.0,0.0,0.0,0.0,1.0,-0.64606436342,0.24863085486,9.49799892902,0.1,0.0,0.0,0.0,0.1,0.0,0.0,0.0,0.1
1505419080426735144,16017,1505419080426573665,0.000245051697898,0.000900135062402,-0.539461728925,0.842009603705,1.0,0.0,0.0,0.0,1.0,0.0,0.0,0.0,100000.0,0.0378642529249,-0.00398291926831,-0.0939089953899,1.0,0.0,0.0,0.0,1.0,0.0,0.0,0.0,1.0,-0.639228269458,0.289614086971,9.42665500641,0.1,0.0,0.0,0.0,0.1,0.0,0.0,0.0,0.1
1505419080431854976,16018,1505419080431701334,0.000347357487407,0.000865683426228,-0.539469147496,0.842004850838,1.0,0.0,0.0,0.0,1.0,0.0,0.0,0.0,100000.0,0.0434784144163,-0.00270835775882,0.00504583166912,1.0,0.0,0.0,0.0,1.0,0.0,0.0,0.0,1.0,-0.587376578897,0.265314264596,9.43546361923,0.1,0.0,0.0,0.0,0.1,0.0,0.0,0.0,0.1
1505419080437786164,16019,1505419080437586978,0.000436219968899,0.000777666416186,-0.539594158714,0.841924788107,1.0,0.0,0.0,0.0,1.0,0.0,0.0,0.0,100000.0,0.044950671494,-0.0167304240167,-0.0499018579721,1.0,0.0,0.0,0.0,1.0,0.0,0.0,0.0,1.0,-0.558020949364,0.308337701112,9.34238146544,0.1,0.0,0.0,0.0,0.1,0.0,0.0,0.0,0.1
1505419080445272392,16020,1505419080445089955,0.000591208661552,0.000647202574467,-0.539763306761,0.841816372064,1.0,0.0,0.0,0.0,1.0,0.0,0.0,0.0,100000.0,0.0809632763267,-0.0187747869641,-0.0686133503914,1.0,0.0,0.0,0.0,1.0,0.0,0.0,0.0,1.0,-0.533634913713,0.303872517869,9.3946385026,0.1,0.0,0.0,0.0,0.1,0.0,0.0,0.0,0.1
1505419080450278127,16021,1505419080450135452,0.000791650415562,0.000539398914178,-0.539792805495,0.841797368417,1.0,0.0,0.0,0.0,1.0,0.0,0.0,0.0,100000.0,0.0882679969072,0.00320368167013,-0.00428038835526,1.0,0.0,0.0,0.0,1.0,0.0,0.0,0.0,1.0,-0.460535985976,0.282639591768,9.34031774998,0.1,0.0,0.0,0.0,0.1,0.0,0.0,0.0,0.1
1505419080452319539,16022,1505419080452183593,0.00100214878881,0.000414612411383,-0.539991253702,0.8416699292,1.0,0.0,0.0,0.0,1.0,0.0,0.0,0.0,100000.0,0.0941411629319,0.00623155664653,-0.0844009369612,1.0,0.0,0.0,0.0,1.0,0.0,0.0,0.0,1.0,-0.390249111503,0.32301338017,9.40658795834,0.1,0.0,0.0,0.0,0.1,0.0,0.0,0.0,0.1
1505419080456853085,16023,1505419080456593510,0.00135666346726,0.000353028263887,-0.540013479535,0.841655200635,1.0,0.0,0.0,0.0,1.0,0.0,0.0,0.0,100000.0,0.130573704839,0.057700522244,0.000105798244476,1.0,0.0,0.0,0.0,1.0,0.0,0.0,0.0,1.0,-0.369496446103,0.287871987373,9.45028229952,0.1,0.0,0.0,0.0,0.1,0.0,0.0,0.0,0.1
1505419080462132601,16024,1505419080461988433,0.00162415581099,0.000284973881808,-0.540079657461,0.841612288708,1.0,0.0,0.0,0.0,1.0,0.0,0.0,0.0,100000.0,0.104378163815,0.0319921001792,-0.0184560120106,1.0,0.0,0.0,0.0,1.0,0.0,0.0,0.0,1.0,-0.451760011166,0.276416829601,9.52585470676,0.1,0.0,0.0,0.0,0.1,0.0,0.0,0.0,0.1
1505419080467141747,16025,1505419080467056135,0.00184079691008,0.000218236574876,-0.540226654775,0.841517513371,1.0,0.0,0.0,0.0,1.0,0.0,0.0,0.0,100000.0,0.0904008969665,0.0187703408301,-0.060079574585,1.0,0.0,0.0,0.0,1.0,0.0,0.0,0.0,1.0,-0.494219657034,0.257589131594,9.64227968454,0.1,0.0,0.0,0.0,0.1,0.0,0.0,0.0,0.1
1505419080478556891,16026,1505419080478350387,0.0019918438325,0.000162700342782,-0.540248725104,0.841503013132,1.0,0.0,0.0,0.0,1.0,0.0,0.0,0.0,100000.0,0.0674648880959,0.00324772763997,-0.00210557878017,1.0,0.0,0.0,0.0,1.0,0.0,0.0,0.0,1.0,-0.579260811955,0.189267949015,9.71878552437,0.1,0.0,0.0,0.0,0.1,0.0,0.0,0.0,0.1
1505419080478568154,16027,1505419080478389516,0.00197880870893,7.71977521927e-05,-0.540483627126,0.841352201617,1.0,0.0,0.0,0.0,1.0,0.0,0.0,0.0,100000.0,0.017699226737,-0.0408522412181,-0.0988126918674,1.0,0.0,0.0,0.0,1.0,0.0,0.0,0.0,1.0,-0.577089325339,0.177915287018,9.65060756207,0.1,0.0,0.0,0.0,0.1,0.0,0.0,0.0,0.1
1505419080482036370,16028,1505419080481829811,0.00200975767253,0.000108753757641,-0.540667213506,0.841234160793,1.0,0.0,0.0,0.0,1.0,0.0,0.0,0.0,100000.0,0.0172047112137,0.0134289534763,-0.0788004398346,1.0,0.0,0.0,0.0,1.0,0.0,0.0,0.0,1.0,-0.527291529626,0.0950518433005,9.56864365339,0.1,0.0,0.0,0.0,0.1,0.0,0.0,0.0,0.1
1505419080487462468,16029,1505419080487255235,0.00187869489639,0.000130433847085,-0.540813952693,0.84114013224,1.0,0.0,0.0,0.0,1.0,0.0,0.0,0.0,100000.0,-0.0401774682105,-0.0301660969853,-0.0570426881313,1.0,0.0,0.0,0.0,1.0,0.0,0.0,0.0,1.0,-0.572623101622,0.0955840729177,9.36716883183,0.1,0.0,0.0,0.0,0.1,0.0,0.0,0.0,0.1
1505419080492053570,16030,1505419080491835251,0.00178756024656,0.000229870084886,-0.541151600546,0.840923121941,1.0,0.0,0.0,0.0,1.0,0.0,0.0,0.0,100000.0,-0.0440427660942,0.00622000265867,-0.151266813278,1.0,0.0,0.0,0.0,1.0,0.0,0.0,0.0,1.0,-0.515265261382,0.155567703396,9.40312643051,0.1,0.0,0.0,0.0,0.1,0.0,0.0,0.0,0.1
1505419080497106518,16031,1505419080496952536,0.00164394872147,0.000280611231819,-0.541246945905,0.840862035199,1.0,0.0,0.0,0.0,1.0,0.0,0.0,0.0,100000.0,-0.0531473308802,-0.0244803633541,-0.0348518490791,1.0,0.0,0.0,0.0,1.0,0.0,0.0,0.0,1.0,-0.567335487902,0.144643442705,9.38802620173,0.1,0.0,0.0,0.0,0.1,0.0,0.0,0.0,0.1
1505419080503538128,16032,1505419080503364357,0.0013897375188,0.000288211995451,-0.541496275809,0.840701950068,1.0,0.0,0.0,0.0,1.0,0.0,0.0,0.0,100000.0,-0.0828903093934,-0.0544137358665,-0.106543987989,1.0,0.0,0.0,0.0,1.0,0.0,0.0,0.0,1.0,-0.489667603374,0.202873856947,9.4348976016,0.1,0.0,0.0,0.0,0.1,0.0,0.0,0.0,0.1
1505419080511125695,16033,1505419080510759837,0.00125613573048,0.000322126070988,-0.541686966802,0.840579293318,1.0,0.0,0.0,0.0,1.0,0.0,0.0,0.0,100000.0,-0.0523742213845,-0.0248211696744,-0.08195322752,1.0,0.0,0.0,0.0,1.0,0.0,0.0,0.0,1.0,-0.495744042099,0.27486281842,9.42840679884,0.1,0.0,0.0,0.0,0.1,0.0,0.0,0.0,0.1
1505419080512845692,16034,1505419080512634527,0.00106166943083,0.000374765172427,-0.541694221439,0.840574864524,1.0,0.0,0.0,0.0,1.0,0.0,0.0,0.0,100000.0,-0.0726694241166,-0.0258774012327,0.00795346498489,1.0,0.0,0.0,0.0,1.0,0.0,0.0,0.0,1.0,-0.443020033091,0.207926524431,9.33490874767,0.1,0.0,0.0,0.0,0.1,0.0,0.0,0.0,0.1
1505419080517068531,16035,1505419080516895902,0.00100996639094,0.000439007537456,-0.541950931826,0.840409408998,1.0,0.0,0.0,0.0,1.0,0.0,0.0,0.0,100000.0,-0.0341157093644,0.00797237548977,-0.112168937922,1.0,0.0,0.0,0.0,1.0,0.0,0.0,0.0,1.0,-0.433046162874,0.319481939822,9.38903381824,0.1,0.0,0.0,0.0,0.1,0.0,0.0,0.0,0.1
1505419080522101894,16036,1505419080521925499,0.00102838692547,0.000499840135771,-0.541921547178,0.840428301097,1.0,0.0,0.0,0.0,1.0,0.0,0.0,0.0,100000.0,-0.00238402374089,0.0252385884523,0.0280795395374,1.0,0.0,0.0,0.0,1.0,0.0,0.0,0.0,1.0,-0.396138009429,0.214568049833,9.47602646351,0.1,0.0,0.0,0.0,0.1,0.0,0.0,0.0,0.1
1505419080527125529,16037,1505419080526980984,0.00107931018734,0.000498055464103,-0.542031571231,0.840357282838,1.0,0.0,0.0,0.0,1.0,0.0,0.0,0.0,100000.0,0.014390040189,0.0114685827866,-0.0431533157825,1.0,0.0,0.0,0.0,1.0,0.0,0.0,0.0,1.0,-0.408611316234,0.293702728301,9.69989140034,0.1,0.0,0.0,0.0,0.1,0.0,0.0,0.0,0.1
1505419080533831351,16038,1505419080533617803,0.00120216799803,0.000543276673509,-0.542178304919,0.840262426459,1.0,0.0,0.0,0.0,1.0,0.0,0.0,0.0,100000.0,0.0353732258081,0.0407932139933,-0.0604616552591,1.0,0.0,0.0,0.0,1.0,0.0,0.0,0.0,1.0,-0.400186765939,0.2166320391,9.88124017715,0.1,0.0,0.0,0.0,0.1,0.0,0.0,0.0,0.1
1505419080537521402,16039,1505419080537351696,0.00118514669397,0.000710043841991,-0.542178228942,0.840262375289,1.0,0.0,0.0,0.0,1.0,0.0,0.0,0.0,100000.0,-0.0375347435474,0.052643597126,0.0137909650803,1.0,0.0,0.0,0.0,1.0,0.0,0.0,0.0,1.0,-0.425257907808,0.148530880176,9.83405919075,0.1,0.0,0.0,0.0,0.1,0.0,0.0,0.0,0.1
1505419080544154822,16040,1505419080543976584,0.00112710459019,0.000892663279111,-0.542529974567,0.84003521324,1.0,0.0,0.0,0.0,1.0,0.0,0.0,0.0,100000.0,-0.0542517155409,0.0435857102275,-0.156954661012,1.0,0.0,0.0,0.0,1.0,0.0,0.0,0.0,1.0,-0.516054305434,0.209561400488,9.61838719845,0.1,0.0,0.0,0.0,0.1,0.0,0.0,0.0,0.1
1505419080547360821,16041,1505419080547173305,0.000934462104665,0.00117286905398,-0.542705522432,0.839921702946,1.0,0.0,0.0,0.0,1.0,0.0,0.0,0.0,100000.0,-0.109638549387,0.0472617298365,-0.0753439068794,1.0,0.0,0.0,0.0,1.0,0.0,0.0,0.0,1.0,-0.471121362597,-0.0418695011176,9.35215388536,0.1,0.0,0.0,0.0,0.1,0.0,0.0,0.0,0.1
1505419080552309973,16042,1505419080552116552,0.000598221309891,0.00135905524739,-0.542998220322,0.839732533505,1.0,0.0,0.0,0.0,1.0,0.0,0.0,0.0,100000.0,-0.145635336637,-0.015703342855,-0.126707077026,1.0,0.0,0.0,0.0,1.0,0.0,0.0,0.0,1.0,-0.537791003287,0.0499025093392,9.16382188797,0.1,0.0,0.0,0.0,0.1,0.0,0.0,0.0,0.1
1505419080557248736,16043,1505419080557046967,0.000281652684248,0.00154329325977,-0.543371403873,0.839490950738,1.0,0.0,0.0,0.0,1.0,0.0,0.0,0.0,100000.0,-0.130368888378,-0.00561422389001,-0.167341649532,1.0,0.0,0.0,0.0,1.0,0.0,0.0,0.0,1.0,-0.418162754178,0.00369916423224,9.18906311989,0.1,0.0,0.0,0.0,0.1,0.0,0.0,0.0,0.1
1505419080562663270,16044,1505419080562469429,-5.95661974852e-05,0.00172263243061,-0.543414758081,0.839462583853,1.0,0.0,0.0,0.0,1.0,0.0,0.0,0.0,100000.0,-0.142699509859,-0.0136765995994,-0.0087895989418,1.0,0.0,0.0,0.0,1.0,0.0,0.0,0.0,1.0,-0.385162290931,0.0192903391086,9.2231579423,0.1,0.0,0.0,0.0,0.1,0.0,0.0,0.0,0.1
1505419080567539235,16045,1505419080567402827,-0.000255948958915,0.00178782930183,-0.543678214233,0.839291807136,1.0,0.0,0.0,0.0,1.0,0.0,0.0,0.0,100000.0,-0.0745779275894,-0.0166942365468,-0.117515444756,1.0,0.0,0.0,0.0,1.0,0.0,0.0,0.0,1.0,-0.328197859228,0.166681038216,9.29681909084,0.1,0.0,0.0,0.0,0.1,0.0,0.0,0.0,0.1
1505419080577717905,16046,1505419080577499331,-0.000330847675453,0.00178443701159,-0.543722101862,0.839263356921,1.0,0.0,0.0,0.0,1.0,0.0,0.0,0.0,100000.0,-0.0211278889328,-0.00952213071287,-0.00999909639359,1.0,0.0,0.0,0.0,1.0,0.0,0.0,0.0,1.0,-0.298025056347,0.171247439459,9.42771285772,0.1,0.0,0.0,0.0,0.1,0.0,0.0,0.0,0.1
1505419080578989916,16047,1505419080578820178,-0.000322372176513,0.00168529056671,-0.543678422297,0.839291861631,1.0,0.0,0.0,0.0,1.0,0.0,0.0,0.0,100000.0,0.0161725282669,-0.0240024589002,0.0332618057728,1.0,0.0,0.0,0.0,1.0,0.0,0.0,0.0,1.0,-0.319242083281,0.370394758135,9.46732883453,0.1,0.0,0.0,0.0,0.1,0.0,0.0,0.0,0.1
1505419080583692911,16048,1505419080583515847,-0.000205791779811,0.00149564398427,-0.543854619703,0.839178093926,1.0,0.0,0.0,0.0,1.0,0.0,0.0,0.0,100000.0,0.0677948221564,-0.0368022657931,-0.0709087997675,1.0,0.0,0.0,0.0,1.0,0.0,0.0,0.0,1.0,-0.372400170565,0.452875873446,9.61287889481,0.1,0.0,0.0,0.0,0.1,0.0,0.0,0.0,0.1
1505419080587711826,16049,1505419080587573966,-0.000122958971897,0.00143134268013,-0.543679056717,0.839291975076,1.0,0.0,0.0,0.0,1.0,0.0,0.0,0.0,100000.0,0.0296152830124,-0.00525809079409,0.0949010252953,1.0,0.0,0.0,0.0,1.0,0.0,0.0,0.0,1.0,-0.439791680872,0.454025505483,9.67204555273,0.1,0.0,0.0,0.0,0.1,0.0,0.0,0.0,0.1
1505419080593090635,16050,1505419080592974761,-0.000117108596176,0.00137576722362,-0.543847573019,0.839182882852,1.0,0.0,0.0,0.0,1.0,0.0,0.0,0.0,100000.0,-0.00205504521728,-0.0256037153304,-0.0704880580306,1.0,0.0,0.0,0.0,1.0,0.0,0.0,0.0,1.0,-0.526265914738,0.461969174445,9.69688782692,0.1,0.0,0.0,0.0,0.1,0.0,0.0,0.0,0.1
1505419080599142661,16051,1505419080598995586,-0.000114364707469,0.00136371195973,-0.54395011743,0.83911643826,1.0,0.0,0.0,0.0,1.0,0.0,0.0,0.0,100000.0,0.00370838493109,-0.0100418869406,-0.0361740738153,1.0,0.0,0.0,0.0,1.0,0.0,0.0,0.0,1.0,-0.537699149549,0.263451470062,9.84804081917,0.1,0.0,0.0,0.0,0.1,0.0,0.0,0.0,0.1
1505419080602327951,16052,1505419080602192024,-0.000290783991534,0.00154058550905,-0.544022929231,0.839068885439,1.0,0.0,0.0,0.0,1.0,0.0,0.0,0.0,100000.0,-0.092160589993,0.0140061331913,-0.024406015873,1.0,0.0,0.0,0.0,1.0,0.0,0.0,0.0,1.0,-0.549196455628,0.163262334093,9.64438253641,0.1,0.0,0.0,0.0,0.1,0.0,0.0,0.0,0.1
1505419080612280072,16053,1505419080612067458,-0.00041670824585,0.00160209036224,-0.544403453441,0.838821875932,1.0,0.0,0.0,0.0,1.0,0.0,0.0,0.0,100000.0,-0.0553317889571,-0.0165211446583,-0.171291708946,1.0,0.0,0.0,0.0,1.0,0.0,0.0,0.0,1.0,-0.598298119754,0.193701023608,9.46730546951,0.1,0.0,0.0,0.0,0.1,0.0,0.0,0.0,0.1
1505419080613114051,16054,1505419080612996790,-0.000647521133275,0.00188736342074,-0.544505116066,0.838755147319,1.0,0.0,0.0,0.0,1.0,0.0,0.0,0.0,100000.0,-0.131607726216,0.0317930616438,-0.0383128859103,1.0,0.0,0.0,0.0,1.0,0.0,0.0,0.0,1.0,-0.602077849954,0.0704507901333,9.11807726622,0.1,0.0,0.0,0.0,0.1,0.0,0.0,0.0,0.1
1505419080617524658,16055,1505419080617362173,-0.00100016425936,0.00209647358615,-0.544855600699,0.838526671524,1.0,0.0,0.0,0.0,1.0,0.0,0.0,0.0,100000.0,-0.158104628325,-0.0209361407906,-0.156046956778,1.0,0.0,0.0,0.0,1.0,0.0,0.0,0.0,1.0,-0.667508268356,0.168648975343,8.82527734041,0.1,0.0,0.0,0.0,0.1,0.0,0.0,0.0,0.1
1505419080623048323,16056,1505419080622884246,-0.00113913369937,0.00225014593351,-0.54515502439,0.838331461059,1.0,0.0,0.0,0.0,1.0,0.0,0.0,0.0,100000.0,-0.0773111656308,0.0103323124349,-0.129292190075,1.0,0.0,0.0,0.0,1.0,0.0,0.0,0.0,1.0,-0.625770309567,0.166269156709,8.98605730534,0.1,0.0,0.0,0.0,0.1,0.0,0.0,0.0,0.1
1505419080628183032,16057,1505419080627992693,-0.00138009374955,0.00240740438763,-0.545315315145,0.838226405462,1.0,0.0,0.0,0.0,1.0,0.0,0.0,0.0,100000.0,-0.1131850034,-0.00503621529788,-0.0669399499893,1.0,0.0,0.0,0.0,1.0,0.0,0.0,0.0,1.0,-0.499545056373,0.144890929386,8.94094295502,0.1,0.0,0.0,0.0,0.1,0.0,0.0,0.0,0.1
1505419080634894093,16058,1505419080634722055,-0.0013195018157,0.00227553499576,-0.545688781372,0.837983791455,1.0,0.0,0.0,0.0,1.0,0.0,0.0,0.0,100000.0,0.0398610085249,-0.033615168184,-0.167966961861,1.0,0.0,0.0,0.0,1.0,0.0,0.0,0.0,1.0,-0.479325624555,0.392653372139,9.36156882048,0.1,0.0,0.0,0.0,0.1,0.0,0.0,0.0,0.1
1505419080646327249,16059,1505419080646136012,-0.00120899655682,0.00217290584022,-0.545871996069,0.83786489407,1.0,0.0,0.0,0.0,1.0,0.0,0.0,0.0,100000.0,0.0556627213955,-0.0080358767882,-0.0750655010343,1.0,0.0,0.0,0.0,1.0,0.0,0.0,0.0,1.0,-0.351689233631,0.289934370294,9.46642285585,0.1,0.0,0.0,0.0,0.1,0.0,0.0,0.0,0.1
1505419080649564446,16060,1505419080648543597,-0.00107033315832,0.00193750532672,-0.546143309565,0.837688835951,1.0,0.0,0.0,0.0,1.0,0.0,0.0,0.0,100000.0,0.0785617977381,-0.0423892810941,-0.116758227348,1.0,0.0,0.0,0.0,1.0,0.0,0.0,0.0,1.0,-0.348769153655,0.513938712329,9.69532412291,0.1,0.0,0.0,0.0,0.1,0.0,0.0,0.0,0.1
1505419080649690217,16061,1505419080649593243,-0.000701600409136,0.00168741038133,-0.546480342703,0.837469937038,1.0,0.0,0.0,0.0,1.0,0.0,0.0,0.0,100000.0,0.169466674328,-0.00355034321547,-0.150221899152,1.0,0.0,0.0,0.0,1.0,0.0,0.0,0.0,1.0,-0.374727618694,0.408664106578,9.81097688675,0.1,0.0,0.0,0.0,0.1,0.0,0.0,0.0,0.1
1505419080653677998,16062,1505419080653468177,-0.000550414018879,0.00159942624372,-0.546612140581,0.83738420492,1.0,0.0,0.0,0.0,1.0,0.0,0.0,0.0,100000.0,0.0597069635987,0.00962383486331,-0.0516210794449,1.0,0.0,0.0,0.0,1.0,0.0,0.0,0.0,1.0,-0.36244437173,0.380072841793,9.7270725131,0.1,0.0,0.0,0.0,0.1,0.0,0.0,0.0,0.1
1505419080657586449,16063,1505419080657438292,-0.000357702070204,0.00149490451706,-0.54688282031,0.837207750896,1.0,0.0,0.0,0.0,1.0,0.0,0.0,0.0,100000.0,0.0837147310376,-0.00127803534269,-0.115106940269,1.0,0.0,0.0,0.0,1.0,0.0,0.0,0.0,1.0,-0.504364383966,0.338945476711,9.73890163898,0.1,0.0,0.0,0.0,0.1,0.0,0.0,0.0,0.1
1505419080663317845,16064,1505419080663175147,-0.000372629693529,0.00156744042647,-0.547028802389,0.83711223479,1.0,0.0,0.0,0.0,1.0,0.0,0.0,0.0,100000.0,-0.0165805909783,0.0179454535246,-0.0604252815247,1.0,0.0,0.0,0.0,1.0,0.0,0.0,0.0,1.0,-0.479027209431,0.169800925627,9.52773033381,0.1,0.0,0.0,0.0,0.1,0.0,0.0,0.0,0.1
1505419080667754746,16065,1505419080667547326,-0.000499626829158,0.00172368592843,-0.547174454642,0.837016663793,1.0,0.0,0.0,0.0,1.0,0.0,0.0,0.0,100000.0,-0.0693277940154,0.0157107096165,-0.0581898130476,1.0,0.0,0.0,0.0,1.0,0.0,0.0,0.0,1.0,-0.561721092463,0.0769568759948,9.41643047333,0.1,0.0,0.0,0.0,0.1,0.0,0.0,0.0,0.1
1505419080678226611,16066,1505419080677999034,-0.000473283889404,0.00181118645036,-0.547407951167,0.836863806485,1.0,0.0,0.0,0.0,1.0,0.0,0.0,0.0,100000.0,0.00527413934469,0.0288998950273,-0.100309312344,1.0,0.0,0.0,0.0,1.0,0.0,0.0,0.0,1.0,-0.530228622258,0.00855795281241,9.18911861181,0.1,0.0,0.0,0.0,0.1,0.0,0.0,0.0,0.1
1505419080678237493,16067,1505419080678040036,-0.000522081333966,0.00189556769339,-0.547561088087,0.836763400889,1.0,0.0,0.0,0.0,1.0,0.0,0.0,0.0,100000.0,-0.0195277687162,0.0127609726042,-0.060756534338,1.0,0.0,0.0,0.0,1.0,0.0,0.0,0.0,1.0,-0.477047717571,-0.0498288958333,9.1219751358,0.1,0.0,0.0,0.0,0.1,0.0,0.0,0.0,0.1
1505419080682756134,16068,1505419080682579586,-0.000424017055728,0.00178998647235,-0.547722015542,0.836658359098,1.0,0.0,0.0,0.0,1.0,0.0,0.0,0.0,100000.0,0.0701959878206,-0.0168433263898,-0.0636109411716,1.0,0.0,0.0,0.0,1.0,0.0,0.0,0.0,1.0,-0.490996598452,0.020502057299,9.13124520779,0.1,0.0,0.0,0.0,0.1,0.0,0.0,0.0,0.1
1505419080688205016,16069,1505419080688015262,-0.000320641128883,0.00162875277098,-0.547912273635,0.836534150381,1.0,0.0,0.0,0.0,1.0,0.0,0.0,0.0,100000.0,0.0717049017549,-0.034243773669,-0.0804609358311,1.0,0.0,0.0,0.0,1.0,0.0,0.0,0.0,1.0,-0.448132117093,0.186661015078,9.09987299442,0.1,0.0,0.0,0.0,0.1,0.0,0.0,0.0,0.1
1505419080692780801,16070,1505419080692641513,-0.00030915027614,0.00142313964109,-0.547993023531,0.836481634742,1.0,0.0,0.0,0.0,1.0,0.0,0.0,0.0,100000.0,0.0512418486178,-0.0686553120613,-0.0274662971497,1.0,0.0,0.0,0.0,1.0,0.0,0.0,0.0,1.0,-0.485802408308,0.189472538978,9.0973957181,0.1,0.0,0.0,0.0,0.1,0.0,0.0,0.0,0.1
1505419080699536210,16071,1505419080699364299,-0.000164524771204,0.00121374382993,-0.54808835527,0.836419544592,1.0,0.0,0.0,0.0,1.0,0.0,0.0,0.0,100000.0,0.082364782691,-0.0478966496885,-0.0328136086464,1.0,0.0,0.0,0.0,1.0,0.0,0.0,0.0,1.0,-0.543808591366,0.446902532876,8.90512320995,0.1,0.0,0.0,0.0,0.1,0.0,0.0,0.0,0.1
1505419080703141157,16072,1505419080702961784,-0.000138440966563,0.000998556651717,-0.548234637975,0.836323959625,1.0,0.0,0.0,0.0,1.0,0.0,0.0,0.0,100000.0,0.0592064931989,-0.0725814625621,-0.0581465959549,1.0,0.0,0.0,0.0,1.0,0.0,0.0,0.0,1.0,-0.563860306144,0.218777641654,9.0291102767,0.1,0.0,0.0,0.0,0.1,0.0,0.0,0.0,0.1
1505419080712307376,16073,1505419080712079399,-9.9452146241e-05,0.000962551132521,-0.54822010889,0.836333531441,1.0,0.0,0.0,0.0,1.0,0.0,0.0,0.0,100000.0,0.0246448367834,-0.00676322728395,0.0209205448627,1.0,0.0,0.0,0.0,1.0,0.0,0.0,0.0,1.0,-0.434000368416,0.210747722909,9.09099311829,0.1,0.0,0.0,0.0,0.1,0.0,0.0,0.0,0.1
1505419080713541009,16074,1505419080713343010,-6.24624479538e-05,0.000907184501925,-0.548453755289,0.836180394068,1.0,0.0,0.0,0.0,1.0,0.0,0.0,0.0,100000.0,0.038817204535,-0.00806931871921,-0.101510435343,1.0,0.0,0.0,0.0,1.0,0.0,0.0,0.0,1.0,-0.396159147471,-0.00480451396434,9.26951355934,0.1,0.0,0.0,0.0,0.1,0.0,0.0,0.0,0.1
1505419080717948271,16075,1505419080717766744,-0.000180444738147,0.00117257247019,-0.548584667569,0.83609416636,1.0,0.0,0.0,0.0,1.0,0.0,0.0,0.0,100000.0,-0.0755113884807,0.0677184760571,-0.0492822229862,1.0,0.0,0.0,0.0,1.0,0.0,0.0,0.0,1.0,-0.272589109838,-0.1293575624,9.45972468853,0.1,0.0,0.0,0.0,0.1,0.0,0.0,0.0,0.1
1505419080724082938,16076,1505419080723907396,-0.000286021674608,0.00140904330637,-0.548722809433,0.836003116739,1.0,0.0,0.0,0.0,1.0,0.0,0.0,0.0,100000.0,-0.0749445408583,0.0605528876185,-0.0560478270054,1.0,0.0,0.0,0.0,1.0,0.0,0.0,0.0,1.0,-0.35662958473,0.0282061960083,9.42258248329,0.1,0.0,0.0,0.0,0.1,0.0,0.0,0.0,0.1
1505419080729513269,16077,1505419080729293444,-0.000437139873944,0.00165502274755,-0.549079675149,0.835768257441,1.0,0.0,0.0,0.0,1.0,0.0,0.0,0.0,100000.0,-0.0973061546683,0.0506242327392,-0.158271938562,1.0,0.0,0.0,0.0,1.0,0.0,0.0,0.0,1.0,-0.405969462544,0.103882379085,9.64694159031,0.1,0.0,0.0,0.0,0.1,0.0,0.0,0.0,0.1
1505419080733080786,16078,1505419080732899189,-0.000557735211332,0.00196404325161,-0.549115275603,0.835744126851,1.0,0.0,0.0,0.0,1.0,0.0,0.0,0.0,100000.0,-0.109647043049,0.0728496313095,-0.00608584284782,1.0,0.0,0.0,0.0,1.0,0.0,0.0,0.0,1.0,-0.483408369869,0.263553126156,9.39123421907,0.1,0.0,0.0,0.0,0.1,0.0,0.0,0.0,0.1
1505419080737997711,16079,1505419080737796471,-0.000409578323781,0.0020136088615,-0.549465278157,0.835514024853,1.0,0.0,0.0,0.0,1.0,0.0,0.0,0.0,100000.0,0.0365254096687,0.0387454107404,-0.153017282486,1.0,0.0,0.0,0.0,1.0,0.0,0.0,0.0,1.0,-0.571560723335,0.321695848554,9.22042540312,0.1,0.0,0.0,0.0,0.1,0.0,0.0,0.0,0.1
1505419080744274872,16080,1505419080744081115,-0.000279211863144,0.00214761040729,-0.549661827077,0.835384453808,1.0,0.0,0.0,0.0,1.0,0.0,0.0,0.0,100000.0,0.0110019519925,0.0648376345634,-0.0839115381241,1.0,0.0,0.0,0.0,1.0,0.0,0.0,0.0,1.0,-0.565373373777,0.258748474717,8.84775857925,0.1,0.0,0.0,0.0,0.1,0.0,0.0,0.0,0.1
1505419080747955835,16081,1505419080747780144,-1.21369829109e-05,0.00204514753541,-0.54974972165,0.8353269185,1.0,0.0,0.0,0.0,1.0,0.0,0.0,0.0,100000.0,0.107312805951,0.0167280863971,-0.0283316373825,1.0,0.0,0.0,0.0,1.0,0.0,0.0,0.0,1.0,-0.579383587837,0.315064892173,8.64917926788,0.1,0.0,0.0,0.0,0.1,0.0,0.0,0.0,0.1
1505419080755321508,16082,1505419080755164499,0.000258540199617,0.00186750795559,-0.550180409251,0.835043689185,1.0,0.0,0.0,0.0,1.0,0.0,0.0,0.0,100000.0,0.125438079238,-0.00724807940423,-0.194331496954,1.0,0.0,0.0,0.0,1.0,0.0,0.0,0.0,1.0,-0.538201643527,0.320708822459,8.72158337831,0.1,0.0,0.0,0.0,0.1,0.0,0.0,0.0,0.1
1505419080758197419,16083,1505419080758035116,0.000388006691717,0.00166729499591,-0.550231919416,0.835010122354,1.0,0.0,0.0,0.0,1.0,0.0,0.0,0.0,100000.0,0.0890599042177,-0.0347933359444,-0.0132409930229,1.0,0.0,0.0,0.0,1.0,0.0,0.0,0.0,1.0,-0.368814662099,0.260836029798,8.77573707104,0.1,0.0,0.0,0.0,0.1,0.0,0.0,0.0,0.1
1505419080763486390,16084,1505419080763338077,0.000690788037323,0.0013006501669,-0.550677206984,0.834716984869,1.0,0.0,0.0,0.0,1.0,0.0,0.0,0.0,100000.0,0.179014191031,-0.0491365268826,-0.20097219944,1.0,0.0,0.0,0.0,1.0,0.0,0.0,0.0,1.0,-0.317746648937,0.318268747628,9.02965818644,0.1,0.0,0.0,0.0,0.1,0.0,0.0,0.0,0.1
1505419080768051248,16085,1505419080767875972,0.000735680920095,0.00111421431976,-0.550997942921,0.834505532754,1.0,0.0,0.0,0.0,1.0,0.0,0.0,0.0,100000.0,0.0668558776379,-0.0433147847652,-0.139989972115,1.0,0.0,0.0,0.0,1.0,0.0,0.0,0.0,1.0,-0.244921274483,0.140502376109,9.21579854488,0.1,0.0,0.0,0.0,0.1,0.0,0.0,0.0,0.1
1505419080778311613,16086,1505419080778090597,0.000845333814547,0.000979042637718,-0.551114655862,0.834428524788,1.0,0.0,0.0,0.0,1.0,0.0,0.0,0.0,100000.0,0.0684229433537,-0.00955928489566,-0.0450574755669,1.0,0.0,0.0,0.0,1.0,0.0,0.0,0.0,1.0,-0.206927542016,0.20818368569,9.54664957523,0.1,0.0,0.0,0.0,0.1,0.0,0.0,0.0,0.1
1505419080778323529,16087,1505419080778130985,0.000858144574577,0.000918167607413,-0.551522432297,0.834159113856,1.0,0.0,0.0,0.0,1.0,0.0,0.0,0.0,100000.0,0.0242502614856,-0.00964725483209,-0.183275282383,1.0,0.0,0.0,0.0,1.0,0.0,0.0,0.0,1.0,-0.309813019633,0.200434749573,9.66577554941,0.1,0.0,0.0,0.0,0.1,0.0,0.0,0.0,0.1
1505419080783371005,16088,1505419080783149515,0.000806782924409,0.00104628579242,-0.551485897868,0.834183168639,1.0,0.0,0.0,0.0,1.0,0.0,0.0,0.0,100000.0,-0.0381756611168,0.0335262268782,0.0295307040215,1.0,0.0,0.0,0.0,1.0,0.0,0.0,0.0,1.0,-0.324005699903,0.12377341371,9.58049497604,0.1,0.0,0.0,0.0,0.1,0.0,0.0,0.0,0.1
1505419080789623968,16089,1505419080789500935,0.000850538468708,0.00108008611858,-0.551733340408,0.834019442867,1.0,0.0,0.0,0.0,1.0,0.0,0.0,0.0,100000.0,0.00999218039215,0.0127065945417,-0.10638988018,1.0,0.0,0.0,0.0,1.0,0.0,0.0,0.0,1.0,-0.558626687527,0.238846624643,9.31881492138,0.1,0.0,0.0,0.0,0.1,0.0,0.0,0.0,0.1
1505419080793867305,16090,1505419080793656407,0.000768085912523,0.001207882456,-0.551936907942,0.833884644729,1.0,0.0,0.0,0.0,1.0,0.0,0.0,0.0,100000.0,-0.0474527701735,0.0132906902581,-0.0832978188992,1.0,0.0,0.0,0.0,1.0,0.0,0.0,0.0,1.0,-0.654721322656,0.0672273892909,9.05797775984,0.1,0.0,0.0,0.0,0.1,0.0,0.0,0.0,0.1
1505419080799039084,16091,1505419080798821351,0.00064624802266,0.00140360609684,-0.551834663611,0.833952106713,1.0,0.0,0.0,0.0,1.0,0.0,0.0,0.0,100000.0,-0.0790723562241,0.0201158653945,0.0602483153343,1.0,0.0,0.0,0.0,1.0,0.0,0.0,0.0,1.0,-0.741754199564,0.163240173832,8.99026651382,0.1,0.0,0.0,0.0,0.1,0.0,0.0,0.0,0.1
1505419080803267576,16092,1505419080803033664,0.000568828519822,0.00153869409342,-0.552103641781,0.833773876771,1.0,0.0,0.0,0.0,1.0,0.0,0.0,0.0,100000.0,-0.0493266358972,0.00730195175856,-0.115106202662,1.0,0.0,0.0,0.0,1.0,0.0,0.0,0.0,1.0,-0.766284769773,0.171332411468,8.80529265404,0.1,0.0,0.0,0.0,0.1,0.0,0.0,0.0,0.1
1505419080813774085,16093,1505419080813556832,0.000444319514579,0.00177800273327,-0.55195024353,0.833875032576,1.0,0.0,0.0,0.0,1.0,0.0,0.0,0.0,100000.0,-0.0890726000071,0.0387828834355,0.0842827409506,1.0,0.0,0.0,0.0,1.0,0.0,0.0,0.0,1.0,-0.627381400764,0.187823205814,8.746558249,0.1,0.0,0.0,0.0,0.1,0.0,0.0,0.0,0.1
1505419080813783126,16094,1505419080813590391,0.000614097492363,0.00174942686752,-0.552074111115,0.833792982836,1.0,0.0,0.0,0.0,1.0,0.0,0.0,0.0,100000.0,0.053455080837,0.0233710482717,-0.0453785508871,1.0,0.0,0.0,0.0,1.0,0.0,0.0,0.0,1.0,-0.545826270431,0.381098456681,8.54596545696,0.1,0.0,0.0,0.0,0.1,0.0,0.0,0.0,0.1
1505419080818420998,16095,1505419080818267385,0.000779675455851,0.00158754589474,-0.552329213571,0.833624202888,1.0,0.0,0.0,0.0,1.0,0.0,0.0,0.0,100000.0,0.0894014686346,-0.0175728481263,-0.110109299421,1.0,0.0,0.0,0.0,1.0,0.0,0.0,0.0,1.0,-0.42332226187,0.320145944506,8.6658344388,0.1,0.0,0.0,0.0,0.1,0.0,0.0,0.0,0.1
