%time,field.transforms0.header.seq,field.transforms0.header.stamp,field.transforms0.header.frame_id,field.transforms0.child_frame_id,field.transforms0.transform.translation.x,field.transforms0.transform.translation.y,field.transforms0.transform.translation.z,field.transforms0.transform.rotation.x,field.transforms0.transform.rotation.y,field.transforms0.transform.rotation.z,field.transforms0.transform.rotation.w
1505419079904753613,0,1505419079904558857,-1.29250164774,0.987395657368,0.467,0.00451440138298,-0.000390065410862,-0.531333654389,0.847150527205
1505419079910430294,0,1505419079910272744,0.849366366863,0.0351529866457,-0.27652785182,0.0162254814059,-0.71052390337,0.133670479059,0.690669715405
1505419079910445727,0,1505419079910292304,0.302928686142,0.455192476511,0.225038826466,0.00541856465861,0.0461060628295,-0.017380585894,0.998770594597
1505419079910450795,0,1505419079910298976,1.41338729858,0.0812871754169,-2.00581169128,0.40944609046,0.133941799402,0.898220717907,-0.0872522965074
1505419079913150607,0,1505419079912919011,-1.29209964011,0.988642395251,0.468,0.00439996906012,-0.000720962462499,-0.531495411878,0.84704943636
1505419079918281551,0,1505419079918089642,-1.29184828727,0.989410802364,0.469,0.00433936689961,-0.000981786869888,-0.531509446247,0.847040680569
1505419079920701902,0,1505419079920558510,0.849052190781,0.0342776961625,-0.276553660631,0.0161402691156,-0.710820674896,0.13359798491,0.690380454063
1505419079920714346,0,1505419079920570287,0.303919374943,0.457549870014,0.224740877748,0.00553704658523,0.0463184341788,-0.0169236920774,0.998768031597
1505419079920834857,0,1505419079920576905,1.41332566738,0.0812984704971,-2.00576162338,0.40932393074,0.134021610022,0.89825707674,-0.0873294249177
1505419079931147559,0,1505419079930832118,0.84853887558,0.0336237475276,-0.276426553726,0.0159744545817,-0.71113461256,0.131725773215,0.690420687199
1505419079931167393,0,1505419079930844737,0.305010646582,0.460033506155,0.225113689899,0.00520855002105,0.0460424050689,-0.0165941547602,0.998788177967
1505419079931173935,0,1505419079930850223,1.41339170933,0.0812331289053,-2.0058529377,0.409390121698,0.134081706405,0.898227035999,-0.0872356817126
1505419079936064146,0,1505419079935790613,-1.2909863919,0.992029480384,0.471,0.00424928460949,-0.00122372156728,-0.531456920641,0.847073779307
1505419079937680849,0,1505419079937330438,-1.29091083475,0.992256278176,0.473,0.00428213202151,-0.00145059474865,-0.531493148285,0.847050525321
1505419079938641499,0,1505419079938463507,-1.29085485692,0.992422253024,0.474,0.00423318611493,-0.00159392396537,-0.531315199393,0.847162144124
1505419079941240578,0,1505419079941116405,0.848322749138,0.033135637641,-0.27638566494,0.0153440004215,-0.711081802845,0.13022685051,0.6907736063
1505419079941249351,0,1505419079941170511,0.306161165237,0.462532818317,0.224933713675,0.00555267790332,0.0464094653726,-0.01599567011,0.998778998852
1505419079941260228,0,1505419079941188605,1.41332113743,0.0813292860985,-2.00574302673,0.40924295783,0.134095057845,0.898279070854,-0.0873696655035
1505419079945230736,0,1505419079945025987,-1.29053168283,0.993377184872,0.476,0.00408495984392,-0.00174813542236,-0.531307185058,0.847167593945
1505419079947958120,0,1505419079947043533,-1.29043232526,0.99366835303,0.478,0.00402760393188,-0.00185592190724,-0.531232823973,0.847214270828
1505419079947970129,0,1505419079947062287,-1.29043140529,0.993671036342,0.477,0.00386957957376,-0.00191071904814,-0.531129063342,0.847279938143
1505419079949040828,0,1505419079948851661,0.21,0.0,0.0,-0.499999999999,0.500000836553,-0.499999999999,0.499999163447
1505419079949051751,0,1505419079948851752,0.0,-0.02,0.0,0.707106189653,0.707107372717,-1.18306495402e-06,-1.18306297463e-06
1505419079951094961,0,1505419079950904271,0.847899794579,0.0326126776636,-0.276285588741,0.0144035508856,-0.711331963539,0.129279047251,0.690714418888
1505419079951118258,0,1505419079950915684,0.30713391304,0.465073436499,0.224849373102,0.00526143005118,0.0465506613255,-0.0158351510763,0.998776555061
1505419079951130871,0,1505419079950921236,1.41336083412,0.081280618906,-2.00580239296,0.409366518259,0.133936524391,0.898243963718,-0.087394669652
1505419079954811343,0,1505419079954581677,-1.29006294409,0.99473772882,0.478,0.0038545432197,-0.00198404450294,-0.531187922515,0.847242938618
1505419079956035188,0,1505419079955815325,-1.29000208116,0.994911228622,0.48,0.00378068541646,-0.0020196529836,-0.531106435988,0.847294270647
1505419079960060695,0,1505419079959825191,-1.28980367527,0.995470755653,0.482,0.00360467305019,-0.00205402551601,-0.531195007621,0.847239429671
1505419079960251332,0,1505419079960077498,0.847405254841,0.0323049463332,-0.276284188032,0.0126467617229,-0.711491644382,0.128077283502,0.690808176994
1505419079960271587,0,1505419079960087881,0.308192074299,0.467796206474,0.225199565291,0.00484794564545,0.0462830886245,-0.0157271958888,0.998792767525
1505419079960339158,0,1505419079960093128,1.41335642338,0.0812945067883,-2.0057516098,0.409435302019,0.13390763104,0.898228347301,-0.0872772634029
1505419079964893551,0,1505419079964701014,-1.28956201456,0.996146631196,0.483,0.00352481960205,-0.00214854116801,-0.531261163909,0.847198049537
1505419079970572949,0,1505419079970371047,0.847271084785,0.03190696612,-0.276302188635,0.0111702429131,-0.711506605148,0.129287809134,0.690592765808
1505419079970586633,0,1505419079970383769,0.309285849333,0.470408648252,0.224823370576,0.00535620376468,0.0465109609067,-0.0151293212548,0.998788833618
1505419079970595801,0,1505419079970390126,1.41334271431,0.0813058316708,-2.00576400757,0.409258127213,0.134115755558,0.898280918598,-0.087247274816
1505419079971017928,0,1505419079970797778,-1.289259004,0.996987866863,0.484,0.00329160078443,-0.00212622230514,-0.531320398975,0.847161896084
1505419079980686175,0,1505419079980430394,-1.28878300238,0.998313533856,0.486,0.00317197967744,-0.00210340859949,-0.5314535598,0.84707887944
1505419079980689601,0,1505419079980454192,-1.2887818204,0.998316802878,0.488,0.00305718563855,-0.00207289915801,-0.531512819746,0.847042194433
1505419079980765869,0,1505419079980646855,0.847010910511,0.0312721803784,-0.276493728161,0.0101314494386,-0.711492836475,0.129309684038,0.690618813038
1505419079980997288,0,1505419079980655562,0.310339093208,0.47315505147,0.225131526589,0.00461050402373,0.0461038611829,-0.0151774752885,0.998810708523
1505419079981003693,0,1505419079980660625,1.41342484951,0.081264257431,-2.00585436821,0.409449487925,0.133954554796,0.898225426674,-0.0871690884233
1505419079985202196,0,1505419079984993756,-1.28855673321,0.998939310295,0.487,0.00281572029107,-0.00201438747243,-0.531572189867,0.847005915518
1505419079991091172,0,1505419079990902531,0.84677696228,0.0308094844222,-0.276422262192,0.00883442163467,-0.711758136749,0.128730282187,0.690471410751
1505419079991104024,0,1505419079990914433,0.311367213726,0.476009994745,0.225074738264,0.00442927144468,0.0459424071014,-0.014711366035,0.998825967312
1505419079991107794,0,1505419079990919721,1.41345822811,0.0812061131001,-2.00585794449,0.40950268507,0.133753806353,0.898230910301,-0.0871696025133
1505419079992329822,0,1505419079992101480,-1.28820287507,0.999910570463,0.489,0.0028024716833,-0.00206828326471,-0.531653298322,0.846954921315
1505419079996272878,0,1505419079996091503,-1.28800346907,1.00045287343,0.491,0.00257585052007,-0.00201892650747,-0.531690462707,0.846932429888
1505419080000247754,0,1505419080000105593,0.846602857113,0.0301760341972,-0.276438772678,0.0077345254831,-0.711886942387,0.127357959747,0.690606415272
1505419080000259848,0,1505419080000114311,0.312427401543,0.478767037392,0.225150763988,0.00402667559683,0.0459942705929,-0.0143094053492,0.998831093311
1505419080000265569,0,1505419080000120186,1.41339695454,0.0812648832798,-2.00579452515,0.409439563751,0.1340072155,0.898220896721,-0.0871808379889
1505419080003422005,0,1505419080003230869,-1.28764746038,1.00141711386,0.493,0.00241193433225,-0.00205019691881,-0.53174211563,0.84690040839
1505419080010619806,0,1505419080010426844,0.846324026585,0.0295931212604,-0.276322513819,0.00677747372538,-0.711970806122,0.126099526882,0.690760791302
1505419080010630746,0,1505419080010438682,0.313456982374,0.481712669134,0.225300878286,0.00338457082398,0.0456616394222,-0.014389785938,0.998847603798
1505419080010633917,0,1505419080010467352,1.41337561607,0.0812947303057,-2.0057656765,0.409334361553,0.13406829536,0.89825963974,-0.0871815010905
1505419080014046667,0,1505419080013798223,-1.28712038101,1.00283337717,0.495,0.00221732766935,-0.00211385483184,-0.531830619965,0.846845208254
1505419080014974977,0,1505419080014763983,-1.28707250039,1.00296192147,0.497,0.00181304064372,-0.00219982017222,-0.53177871652,0.846878545207
1505419080016286574,0,1505419080016054461,-1.28700868552,1.0031325381,0.499,0.00170052613293,-0.00242813743656,-0.531814886889,0.84685544129
1505419080021024046,0,1505419080020733812,-1.28677923312,1.00374768998,0.5,0.00135718546688,-0.00253189154121,-0.531792516454,0.846869805233
1505419080021036816,0,1505419080020824114,0.846600532532,0.0288177356124,-0.276263803244,0.00616881623864,-0.712189972401,0.125137716532,0.690715491772
1505419080021044862,0,1505419080020836154,0.314522117376,0.484607636929,0.225087806582,0.00331731210463,0.0458819754422,-0.0136989466846,0.998847365379
1505419080021099743,0,1505419080020842215,1.41337919235,0.0812842026353,-2.00579309464,0.409421265125,0.133838191628,0.898240447044,-0.0873249322176
1505419080025342261,0,1505419080025197051,-1.28656216574,1.00433157386,0.499,0.00123557197781,-0.00269263000593,-0.531821537765,0.846851270929
1505419080030559167,0,1505419080030272520,0.846852123737,0.0282232966274,-0.276188850403,0.00530012650415,-0.712161362171,0.12440302223,0.690884888172
1505419080030586740,0,1505419080030285151,0.315608799458,0.487549811602,0.225692853332,0.0025770009961,0.0458467081189,-0.013462388888,0.998854517937
1505419080030594056,0,1505419080030291075,1.413382411,0.0812858119607,-2.00574326515,0.409377247095,0.133929908276,0.898258149624,-0.0872085019946
1505419080030597371,0,1505419080030360430,-1.28631329232,1.0050040783,0.501,0.00108882587147,-0.00274523076081,-0.531969233215,0.846758532924
1505419080035373982,0,1505419080035083029,-1.28608757161,1.00561703436,0.503,0.000845249586084,-0.002788198476,-0.532028370972,0.846721515011
1505419080040640086,0,1505419080040523210,0.847104012966,0.0273979306221,-0.276081115007,0.00447142543271,-0.712267518044,0.122758939862,0.691075325012
1505419080040765729,0,1505419080040584849,0.316598415375,0.490555137396,0.225417256355,0.00221566576511,0.0457233823836,-0.0130592407659,0.998866379261
1505419080040769588,0,1505419080040598182,1.41343605518,0.0812449082732,-2.00580573082,0.409531652927,0.133912593126,0.898198008537,-0.0871293619275
1505419080044350462,0,1505419080044104923,-1.28565778965,1.00678270536,0.505,0.000855640141601,-0.00283650503015,-0.532205496736,0.846610023189
1505419080046470438,0,1505419080046191470,-1.28555947734,1.00705130258,0.506,0.000619732597967,-0.00271941369203,-0.532309579059,0.846545174673
1505419080049052069,0,1505419080048864161,0.21,0.0,0.0,-0.499999999999,0.500000836553,-0.499999999999,0.499999163447
1505419080049065061,0,1505419080048864427,0.0,-0.02,0.0,0.707106189653,0.707107372717,-1.18306495402e-06,-1.18306297463e-06
1505419080051031193,0,1505419080050844095,0.84740704298,0.0266344249249,-0.275970906019,0.00324548524804,-0.712400496006,0.121621139348,0.691146373749
1505419080051043561,0,1505419080050856688,0.317613899708,0.493460983038,0.225258395076,0.00226360210218,0.0455243997276,-0.0125570716336,0.998881697655
1505419080051048388,0,1505419080050863052,1.41336071491,0.0813071802258,-2.00578403473,0.409322530031,0.13400028646,0.898272931576,-0.0872055068612
1505419080051699609,0,1505419080051367317,-1.28531805855,1.00771361057,0.508,0.000432913035993,-0.00262273970195,-0.532383965472,0.84649881697
1505419080055524531,0,1505419080055300808,-1.28513760171,1.00821406884,0.51,0.000155613932759,-0.00240738003581,-0.532525274493,0.846410664118
1505419080060249209,0,1505419080060107528,0.847461283207,0.0257839690894,-0.275811314583,0.0027470397763,-0.712504863739,0.119381345809,0.69143140316
1505419080060277369,0,1505419080060120809,0.318628430367,0.496573388577,0.225952938199,0.00100843072869,0.0452931374311,-0.0127019071952,0.998892486095
1505419080060281863,0,1505419080060149958,1.41338908672,0.0812598243356,-2.00575852394,0.409462094307,0.133874326944,0.898220479488,-0.0872831344604
1505419080060400059,0,1505419080060082742,-1.28492060322,1.00881750947,0.512,-0.000322963255678,-0.00225056404495,-0.532481841884,0.846438372665
1505419080065822783,0,1505419080065571309,-1.28467186615,1.0095039025,0.511,-0.000608560122644,-0.00216369386796,-0.532489723613,0.846433483701
1505419080070729943,0,1505419080070492040,-1.28444940239,1.01011392215,0.513,-0.00105035001516,-0.00211255199074,-0.532401639654,0.846488587036
1505419080070764183,0,1505419080070387293,0.847968399525,0.0249878261238,-0.275829672813,0.00178561045323,-0.712694585323,0.118838585913,0.691332578659
1505419080070767682,0,1505419080070400325,0.319593250751,0.49964505434,0.22535726428,0.00129504117649,0.0453480482101,-0.0120403254405,0.998897790909
1505419080070792926,0,1505419080070407148,1.41341197491,0.0812828689814,-2.00581336021,0.409495383501,0.133952900767,0.898197054863,-0.0872476771474
1505419080077541242,0,1505419080077301531,-1.28414261154,1.01095013096,0.515,-0.0013629054037,-0.0021840062071,-0.532283609132,0.8465621844
1505419080080507641,0,1505419080080178547,-1.28401466056,1.01130132553,0.517,-0.00149745030771,-0.00231588234129,-0.53230561203,0.846547771678
1505419080081066461,0,1505419080080938865,0.848240494728,0.024438649416,-0.275846898556,0.00042096717516,-0.712674617767,0.117728546262,0.691545188427
1505419080081079742,0,1505419080080963764,0.320601075888,0.502811431885,0.2257925421,0.000554628961254,0.0452523119748,-0.011808604002,0.998905658722
1505419080081086599,0,1505419080080971572,1.41338503361,0.0813015848398,-2.00578141212,0.409425407648,0.133929118514,0.898236572742,-0.0872054025531
1505419080085508740,0,1505419080085263470,-1.28379206438,1.01191866585,0.519,-0.00164211657946,-0.00251355710557,-0.532246187196,0.846584302772
1505419080090548820,0,1505419080090295875,-1.28357406498,1.01252616677,0.52,-0.00149703942607,-0.00279034165834,-0.532348626993,0.846519292282
1505419080090731274,0,1505419080090512084,0.848541796207,0.0236691571772,-0.275876909494,-0.000927166838665,-0.712614297867,0.116477787495,0.691818594933
1505419080090742487,0,1505419080090522492,0.321610331535,0.505881428719,0.225923955441,-8.05920208222e-05,0.0452802442014,-0.0113689927384,0.998909652233
1505419080090747855,0,1505419080090528081,1.4133939743,0.0812730491161,-2.00577807426,0.409411907196,0.133908525109,0.898244798183,-0.0872163623571
1505419080096717330,0,1505419080096479000,-1.28330883598,1.01326840064,0.522,-0.00144518528531,-0.00301885286803,-0.532414300781,0.84647729461
1505419080100568962,0,1505419080100339425,-1.28314418344,1.01372775337,0.524,-0.00139256301988,-0.00327881290014,-0.532487163788,0.846430582242
1505419080100897012,0,1505419080100717896,0.848718225956,0.0227943994105,-0.275900244713,-0.00236593489535,-0.712672173977,0.11509142071,0.691987454891
1505419080100906048,0,1505419080100727458,0.322577655315,0.508978903294,0.225530281663,-6.80263256072e-05,0.0452014580369,-0.0107637504116,0.998919904232
1505419080100927127,0,1505419080100747976,1.41344869137,0.0812275707722,-2.00584363937,0.409469395876,0.133849591017,0.898228287697,-0.0872066542506
1505419080105778523,0,1505419080105534210,-1.28292328139,1.01434037153,0.522,-0.0013797938374,-0.00342102850259,-0.532656475649,0.846323502972
1505419080111220886,0,1505419080110991339,0.848979651928,0.0216110944748,-0.275786340237,-0.00311788823456,-0.712608098984,0.114604614675,0.692131280899
1505419080111239298,0,1505419080111005190,0.323514401913,0.512216866016,0.226135477424,-0.00108832016122,0.0447852350771,-0.0108252512291,0.998937427998
1505419080111244705,0,1505419080111012554,1.41344249249,0.0812576115131,-2.00581145287,0.409501194954,0.13381101191,0.898220121861,-0.0872002393007
1505419080111650197,0,1505419080111348863,-1.28267871809,1.015020089,0.524,-0.00160774116062,-0.00342198101146,-0.532752843433,0.846262437444
1505419080115900969,0,1505419080115683169,-1.28249884873,1.01552135255,0.526,-0.00172956187866,-0.00341755438271,-0.532915518087,0.846159783682
1505419080120592852,0,1505419080120353187,-1.28230773814,1.01605618579,0.528,-0.00194238276606,-0.00326291314586,-0.533071489196,0.846061680939
1505419080120635823,0,1505419080120335230,0.849411427975,0.0206727590412,-0.275905132294,-0.00397220579907,-0.712587356567,0.112388640642,0.692511498928
1505419080120642430,0,1505419080120343631,0.324459284544,0.51534807682,0.225791528821,-0.000966489256825,0.0446112342179,-0.0102153960615,0.998951733112
1505419080120646368,0,1505419080120349143,1.41342353821,0.0812820792198,-2.00580191612,0.409410178661,0.134056150913,0.898220181465,-0.0872511044145
1505419080127071483,0,1505419080126754059,-1.28205106582,1.01678110035,0.53,-0.00223831613308,-0.00315894698214,-0.533153544281,0.846009638961
1505419080130813520,0,1505419080130607067,0.849676847458,0.0198011621833,-0.275962918997,-0.00439910171553,-0.712015986443,0.111348681152,0.693264245987
1505419080130854966,0,1505419080130621203,0.325414270163,0.518559813499,0.225628480315,-0.00119511445519,0.0443060137331,-0.00999203883111,0.998967349529
1505419080130859101,0,1505419080130627734,1.41345620155,0.081239245832,-2.00584697723,0.409562528133,0.133739843965,0.898206353188,-0.087163746357
1505419080131931624,0,1505419080131611692,-1.28185909223,1.01732507481,0.532,-0.00235083077188,-0.00313953714571,-0.533330969386,0.845897567082
1505419080136134672,0,1505419080135900648,-1.28169215115,1.01780088745,0.534,-0.00275118970464,-0.00302114428418,-0.533413213141,0.845844931231
1505419080141135982,0,1505419080140973763,0.849613070488,0.0189114306122,-0.276010930538,-0.00308185373433,-0.712119936943,0.109568864107,0.693448066711
1505419080141157651,0,1505419080140986711,0.326324105263,0.521739244461,0.226139426231,-0.00180131744128,0.0443020164967,-0.00978104025126,0.998968660831
1505419080141167431,0,1505419080140994191,1.41336965561,0.0812959372997,-2.00575089455,0.409325003624,0.133951872587,0.898271679878,-0.087280318141
1505419080149558037,0,1505419080148448500,-1.28121533616,1.01918103404,0.536,-0.00312173143029,-0.00303488604572,-0.533546688913,0.845759407284
1505419080149563787,0,1505419080148864428,0.21,0.0,0.0,-0.499999999999,0.500000836553,-0.499999999999,0.499999163447
1505419080149568805,0,1505419080148864547,0.0,-0.02,0.0,0.707106189653,0.707107372717,-1.18306495402e-06,-1.18306297463e-06
1505419080150401666,0,1505419080150239415,0.849648416042,0.0186525192112,-0.275921314955,-0.0042493310757,-0.711908698082,0.10726839304,0.694018363953
1505419080150409590,0,1505419080150252426,0.327189177275,0.52494096756,0.225441008806,-0.00108060205821,0.0442060120404,-0.00912404246628,0.998980224133
1505419080150412896,0,1505419080150259486,1.41343462467,0.0812218412757,-2.00583600998,0.40944057703,0.133775815368,0.898249983788,-0.0872320756316
1505419080151283630,0,1505419080151037026,-1.28111968599,1.01946463873,0.534,-0.003456404209,-0.00304007164232,-0.533746556502,0.845631967618
1505419080153205436,0,1505419080152987924,-1.28105066632,1.0196777575,0.536,-0.00382127099719,-0.00307793262818,-0.53381358006,0.845587952824
1505419080155742928,0,1505419080155494607,-1.2809655508,1.01995046201,0.538,-0.00382125298007,-0.00330455928481,-0.534019552477,0.845457033495
1505419080160589097,0,1505419080160350871,-1.28080804768,1.0204776507,0.54,-0.00392516761795,-0.00332136802013,-0.534078742688,0.845419102092
1505419080160595964,0,1505419080160443779,0.849657714367,0.0179510563612,-0.27603828907,-0.00353833055124,-0.711788833141,0.105428420007,0.694427073002
1505419080160776222,0,1505419080160455032,0.328098893166,0.528228223324,0.225865036249,-0.00202930136584,0.0439900681376,-0.00940013676882,0.99898570776
1505419080160787534,0,1505419080160460904,1.413392663,0.0812546387315,-2.00582432747,0.409370571375,0.133975461125,0.898250997066,-0.0872433781624
1505419080165563212,0,1505419080165350434,-1.28065249974,1.0210162826,0.542,-0.0038297450221,-0.00346418253922,-0.534100244954,0.845405382543
1505419080170870908,0,1505419080170422005,-1.28050012223,1.0215587897,0.544,-0.00369653547939,-0.0033830085172,-0.53419611687,0.845345727854
1505419080170932560,0,1505419080170706941,0.849897861481,0.0175448860973,-0.276299744844,-0.00402947841212,-0.711626827717,0.103508152068,0.694879233837
1505419080170969234,0,1505419080170718882,0.328970730305,0.531403660774,0.225975260139,-0.00220768386498,0.044365812093,-0.00887592881918,0.998973488808
1505419080170976791,0,1505419080170740167,1.41338932514,0.0812694728374,-2.00577521324,0.409378349781,0.133933827281,0.898255050182,-0.0872292816639
1505419080177332517,0,1505419080177078022,-1.28030574791,1.02226567932,0.546,-0.00361017199452,-0.00323137199733,-0.534063599967,0.845430420605
1505419080180685366,0,1505419080180500185,-1.28020753094,1.02262543482,0.548,-0.00333062980905,-0.00318085555604,-0.534077953626,0.845422692216
1505419080181090422,0,1505419080180949569,0.849919319153,0.0169593952596,-0.27643814683,-0.00546720996499,-0.711134493351,0.10278250277,0.695480763912
1505419080181098949,0,1505419080180963300,0.329839169979,0.534670054913,0.225473254919,-0.00201069843024,0.0441850870848,-0.00844761263579,0.998985648155
1505419080181116850,0,1505419080181001684,1.41341161728,0.0812767222524,-2.0057926178,0.409445554018,0.1339058429,0.898229122162,-0.0872232466936
1505419080186457031,0,1505419080186250119,-1.28004298558,1.02322436549,0.547,-0.00328217132395,-0.00297419659103,-0.533997283926,0.845474589959
1505419080190478264,0,1505419080190322284,0.850234866142,0.0162617135793,-0.276598960161,-0.0060584358871,-0.710789203644,0.102390363812,0.695886671543
1505419080190516004,0,1505419080190335811,0.330594092607,0.537999689579,0.225913092494,-0.00259885122068,0.0441140644252,-0.00897433795035,0.998982846737
1505419080190519854,0,1505419080190342590,1.41336798668,0.0813141018152,-2.00578808784,0.409249395132,0.134129807353,0.898278355598,-0.087293125689
1505419080190946760,0,1505419080190669210,-1.27991684632,1.02367910431,0.549,-0.00317203882561,-0.00301289117089,-0.53393057369,0.845517003457
1505419080195788012,0,1505419080195585477,-1.27977696042,1.02417930738,0.551,-0.00311581180757,-0.00295531348346,-0.53406343408,0.845433501949
1505419080200778956,0,1505419080200613628,0.850676417351,0.0152897192165,-0.276771605015,-0.00762758404016,-0.710373103619,0.101647436619,0.696404755116
1505419080200791021,0,1505419080200624832,0.331514656544,0.541175067425,0.225478455424,-0.0013327866327,0.044422082603,-0.0082934005186,0.998977541924
1505419080200794836,0,1505419080200631447,1.41342461109,0.0812762230635,-2.00582265854,0.409419745207,0.13398052752,0.89823102951,-0.0872111022472
1505419080202223003,0,1505419080202012407,-1.27959411664,1.02482838734,0.553,-0.00310379925624,-0.00295256914028,-0.534070797703,0.845428904052
1505419080211070399,0,1505419080210841543,0.851076364517,0.0143350604922,-0.276870906353,-0.00852799229324,-0.710039675236,0.0993450209498,0.697066307068
1505419080211084503,0,1505419080210853611,0.332290381193,0.544497072697,0.2253818959,-0.00126820697915,0.0439457297325,-0.00881186500192,0.998994290829
1505419080211089908,0,1505419080210859216,1.41340327263,0.0812573954463,-2.00581669807,0.409416675568,0.133906185627,0.898236811161,-0.0872800126672
1505419080211793182,0,1505419080211554155,-1.27932501829,1.02578563963,0.555,-0.00307535019793,-0.00305286647023,-0.534254896408,0.845312325647
1505419080212578360,0,1505419080212320164,-1.27930361255,1.02586222439,0.557,-0.00308100208361,-0.00314200416803,-0.534409547799,0.845214215721
1505419080219608320,0,1505419080219394562,-1.27910668784,1.02656621988,0.559,-0.003082061934,-0.00330646663164,-0.53446067439,0.845181256124
1505419080221200050,0,1505419080221071550,0.851079940796,0.0137300128117,-0.27694657445,-0.00911997444928,-0.70963460207,0.0971437767148,0.697781264782
1505419080221210740,0,1505419080221080100,0.333023875952,0.547758579254,0.225424185395,-0.00111128750723,0.0437846295536,-0.00886087864637,0.999001145363
1505419080221215289,0,1505419080221085226,1.41337621212,0.081274703145,-2.00578451157,0.409343063831,0.134063735604,0.898251473904,-0.0872321799397
1505419080222087726,0,1505419080221887316,-1.2790381947,1.02681262927,0.561,-0.00297962732965,-0.00337103533657,-0.534666767313,0.845051007852
1505419080226036806,0,1505419080225853122,-1.27892975434,1.02720334579,0.56,-0.0028288185529,-0.00319796189119,-0.534667043895,0.845052023841
1505419080230995828,0,1505419080230707721,-1.2787978114,1.02767695147,0.562,-0.00270106651303,-0.0029792705352,-0.534719097902,0.845020304209
1505419080231015728,0,1505419080230333236,0.851334154606,0.0130854779854,-0.276967018843,-0.00929849594831,-0.709514379501,0.0953449234366,0.69814914465
1505419080231021269,0,1505419080230344554,0.333829492331,0.551087141037,0.225036591291,-0.000542041962035,0.043484158814,-0.00860207993537,0.999017000198
1505419080231024480,0,1505419080230350191,1.41338419914,0.081266514957,-2.00576114655,0.409416437149,0.133917853236,0.898243188858,-0.0871970355511
1505419080236419526,0,1505419080236179221,-1.27865135694,1.02820710506,0.564,-0.00255704781646,-0.00263655429151,-0.534830395483,0.844951453136
1505419080240785658,0,1505419080240605475,0.851336598396,0.0124789942056,-0.277044981718,-0.00970997940749,-0.709199666977,0.0931097045541,0.698764741421
1505419080240795264,0,1505419080240617342,0.334600865841,0.554443001747,0.225178211927,-0.00139683717862,0.0430223830044,-0.00932887662202,0.999029636383
1505419080240799863,0,1505419080240624428,1.41338396072,0.0813176631927,-2.00580501556,0.409366548061,0.133971944451,0.89825129509,-0.0872649252415
1505419080247719074,0,1505419080247425323,-1.27835336107,1.02928572048,0.566,-0.00252320497159,-0.00242053046792,-0.534749744608,0.845003245622
1505419080247723811,0,1505419080247449709,-1.27835272893,1.02928803412,0.568,-0.00240075808421,-0.00229131727593,-0.534889949669,0.844915219397
1505419080249052553,0,1505419080248854093,0.21,0.0,0.0,-0.499999999999,0.500000836553,-0.499999999999,0.499999163447
1505419080249067789,0,1505419080248854262,0.0,-0.02,0.0,0.707106189653,0.707107372717,-1.18306495402e-06,-1.18306297463e-06
1505419080250847619,0,1505419080250568671,-1.27827412651,1.02958154117,0.57,-0.00250632539936,-0.00213147038258,-0.534934649116,0.844887031704
1505419080251043935,0,1505419080250870909,0.850729346275,0.0115490909666,-0.27702999115,-0.00966539978981,-0.707555532455,0.0884442552924,0.701034367085
1505419080251052904,0,1505419080250882111,0.335307121277,0.557628810406,0.225085407495,-0.00150829181075,0.0431704968214,-0.00918199308217,0.999024450779
1505419080251083472,0,1505419080250888133,1.41335058212,0.081328228116,-2.00574636459,0.409338563681,0.13408203423,0.898244917393,-0.0872924253345
1505419080256212098,0,1505419080255964451,-1.2781429197,1.03008545982,0.572,-0.00259346774069,-0.00213818219444,-0.534993737132,0.844849337653
1505419080260250142,0,1505419080260077024,0.849146783352,0.0103528145701,-0.277131646872,-0.00532385334373,-0.706570625305,0.0829545930028,0.702743291855
1505419080260264940,0,1505419080260090151,0.336042255163,0.560955524445,0.224878832698,-0.00146393757313,0.0429679229856,-0.00952631235123,0.999029994011
1505419080260270826,0,1505419080260097684,1.41340863705,0.0812499970198,-2.00581288338,0.409395366907,0.134000346065,0.89824193716,-0.0871816277504
1505419080261430585,0,1505419080261257551,-1.27801960551,1.0305778558,0.574,-0.00268846888918,-0.00213960268307,-0.535244511189,0.844690184315
1505419080266204510,0,1505419080266039380,-1.27791170503,1.03102200814,0.572,-0.00279554339503,-0.00222662325776,-0.535303470457,0.844652248918
1505419080270630426,0,1505419080270379732,0.846819102764,0.00999411940575,-0.277114629745,4.68093003292e-06,-0.706420719624,0.073945209384,0.703918874264
1505419080270642744,0,1505419080270393174,0.336690247059,0.564289391041,0.224918425083,-0.00226980005391,0.0427154675126,-0.0100841866806,0.999033808708
1505419080270646268,0,1505419080270400131,1.41345083714,0.0812555477023,-2.00583148003,0.409458875656,0.133963689208,0.89822435379,-0.0871218144894
1505419080271303964,0,1505419080271135373,-1.27780028014,1.03149532013,0.574,-0.00260131826771,-0.00227707064667,-0.535538942848,0.844503456941
1505419080277699834,0,1505419080277465756,-1.27766527225,1.03208380484,0.576,-0.00251297094746,-0.00213651979612,-0.535715953843,0.844391814893
1505419080280789616,0,1505419080280633440,0.844377398491,0.00931723136455,-0.276649028063,0.00702673243359,-0.706686079502,0.0654235854745,0.704460918903
1505419080280801190,0,1505419080280645155,0.337490588427,0.567527890205,0.22475092113,-0.00207104650326,0.0425245054066,-0.00971030723304,0.999046087265
1505419080280805826,0,1505419080280651760,1.41337442398,0.0812726393342,-2.0057682991,0.409386098385,0.133879140019,0.898252606392,-0.0873021706939
1505419080281142418,0,1505419080280960682,-1.27759251778,1.03240837119,0.578,-0.00240578115937,-0.00185302665909,-0.535797353743,0.844341148015
1505419080286702573,0,1505419080286441575,-1.27748241019,1.03291576956,0.58,-0.00232187513173,-0.00140963858587,-0.536114619166,0.844140827665
1505419080291322899,0,1505419080291001419,-1.27739442798,1.03333573398,0.582,-0.00243750925557,-0.000891574544743,-0.536159260492,0.844112854441
1505419080291328519,0,1505419080291014652,0.84148812294,0.00936590693891,-0.275852769613,0.0142210004851,-0.706156611443,0.0545559078455,0.705807447433
1505419080291332316,0,1505419080291026580,0.338173151016,0.570827066898,0.224529206753,-0.00243591982871,0.0420285798609,-0.0103057818487,0.999060332775
1505419080291335777,0,1505419080291032453,1.41335809231,0.081330396235,-2.00579118729,0.409265756607,0.134079888463,0.898274123669,-0.0873364210129
1505419080296152353,0,1505419080295958508,-1.27730274551,1.03378943817,0.584,-0.00242664584839,-0.000401711647083,-0.536365476251,0.843982242647
1505419080300440932,0,1505419080300275804,0.837548077106,0.00952188950032,-0.275129467249,0.0265818592161,-0.704937040806,0.0429759658873,0.707467556
1505419080300457588,0,1505419080300285740,0.338660985231,0.574273824692,0.224246323109,-0.00316697312519,0.0418453291059,-0.010890471749,0.999059736729
1505419080300464558,0,1505419080300292431,1.41342067719,0.0812527835369,-2.00582504272,0.409382611513,0.133834466338,0.898265600204,-0.0872526392341
1505419080301260065,0,1505419080301049600,-1.27721229451,1.03425323343,0.586,-0.00251191855745,6.65399833503e-05,-0.536519876286,0.843883942369
1505419080310819664,0,1505419080310554431,0.833323836327,0.0101049672812,-0.274779707193,0.0357513204217,-0.703126788139,0.0279196389019,0.70961612463
1505419080310834726,0,1505419080310568098,0.339546769857,0.577352881432,0.224320873618,-0.00272471783683,0.0418978184462,-0.0107835652307,0.999059975147
1505419080310841327,0,1505419080310575097,1.41344201565,0.081230185926,-2.00582814217,0.409459233284,0.133826300502,0.898241400719,-0.0871556997299
1505419080312395536,0,1505419080312144240,-1.27702237843,1.03526279295,0.576,-0.00258301966866,0.000442680681178,-0.536526807669,0.843879207408
1505419080315176723,0,1505419080314762932,-1.27697921469,1.03550080542,0.578,-0.00255345792743,0.000652295061424,-0.536784178869,0.843715473178
1505419080316603544,0,1505419080316228833,-1.27695635277,1.03563444793,0.58,-0.00260298275273,0.000818344790474,-0.53680597136,0.843701312021
1505419080321071246,0,1505419080320907169,0.829215049744,0.00959108769894,-0.273896753788,0.0463634692132,-0.701859712601,0.0134553555399,0.710677444935
1505419080321084279,0,1505419080320920457,0.340158045292,0.580613970757,0.224128603935,-0.00320353335701,0.0417448841035,-0.0115117570385,0.999056816101
1505419080321117739,0,1505419080320926338,1.41332781315,0.081327393651,-2.00576305389,0.409185767174,0.134247228503,0.898282945156,-0.0873638242483
1505419080321394580,0,1505419080321046598,-1.27688462708,1.03607485021,0.582,-0.0024769826052,0.000821551006334,-0.53698262293,0.843589267524
1505419080328274145,0,1505419080327966377,-1.27678533679,1.03670824657,0.583,-0.00234769020067,0.000781075810895,-0.537115170943,0.843505288314
1505419080330265938,0,1505419080330102643,0.824614107609,0.00906112790108,-0.273154824972,0.0583719462156,-0.700207591057,-0.00200998806395,0.711546182632
1505419080330280050,0,1505419080330116266,0.340782135725,0.583714485168,0.223807051778,-0.00295586232096,0.0414708591998,-0.0115927513689,0.999068081379
1505419080330286328,0,1505419080330123233,1.41342198849,0.08121535182,-2.00586128235,0.409550815821,0.133844137192,0.898202598095,-0.087097927928
1505419080331459333,0,1505419080331203523,-1.27674043328,1.03700506034,0.585,-0.00220043839567,0.000801112881263,-0.537115099538,0.843505711977
1505419080338424942,0,1505419080338178875,-1.27664571994,1.03764254789,0.587,-0.00200359674897,0.000655481118938,-0.537255155729,0.843417129057
1505419080340509290,0,1505419080340337790,0.81971937418,0.00861241482198,-0.272625088692,0.0704673454165,-0.698405206203,-0.0177539344877,0.712003707886
1505419080340518683,0,1505419080340349889,0.341547787189,0.586891412735,0.223742216825,-0.00299996440299,0.0412503965199,-0.0117405876517,0.999075353146
1505419080340560099,0,1505419080340357117,1.41339743137,0.0812595039606,-2.00574851036,0.409386128187,0.13391661644,0.898264765739,-0.0871187970042
1505419080346348068,0,1505419080346150925,-1.2765400465,1.03836895053,0.589,-0.00185168282374,0.000682773225214,-0.537218281266,0.843440942429
1505419080347818357,0,1505419080347603619,-1.27652122804,1.03850064259,0.588,-0.00170509319041,0.000620572586466,-0.53726987037,0.843408438385
1505419080349015419,0,1505419080348855102,0.21,0.0,0.0,-0.499999999999,0.500000836553,-0.499999999999,0.499999163447
1505419080349025027,0,1505419080348855255,0.0,-0.02,0.0,0.707106189653,0.707107372717,-1.18306495402e-06,-1.18306297463e-06
1505419080350793369,0,1505419080350623898,0.81456387043,0.00883312057704,-0.271835833788,0.082663975656,-0.695576667786,-0.0332944765687,0.712903380394
1505419080350804639,0,1505419080350636996,0.342046141624,0.590096533298,0.223418667912,-0.00300246360712,0.041273035109,-0.0122697148472,0.999068081379
1505419080350810968,0,1505419080350644526,1.4133477211,0.0813188254833,-2.0057592392,0.409328013659,0.134037256241,0.89825886488,-0.0872676447034
1505419080352773644,0,1505419080352562924,-1.27645845835,1.03894738432,0.59,-0.00152497523498,0.000692196825653,-0.537321264073,0.843375986431
1505419080356814661,0,1505419080356560494,-1.27640876157,1.03930526849,0.591,-0.00142247744778,0.000885558603333,-0.537313598588,0.84338086836
1505419080361225100,0,1505419080361085074,0.809608578682,0.00918912421912,-0.270874887705,0.0899977982044,-0.693269908428,-0.0489628016949,0.713358044624
1505419080361235914,0,1505419080361099869,0.342805176973,0.59332126379,0.223307862878,-0.00240501132794,0.0410406291485,-0.01213189587,0.999080896378
1505419080361239647,0,1505419080361106495,1.41343891621,0.0812480300665,-2.00581121445,0.409499973059,0.133789032698,0.898235082626,-0.0870861113071
1505419080361803226,0,1505419080361566650,-1.27634838194,1.03974902562,0.593,-0.00135997592142,0.00103234076093,-0.53746053419,0.843287174648
1505419080366614962,0,1505419080366400937,-1.27629189893,1.04017422043,0.595,-0.00129401555533,0.00124937484077,-0.537607289855,0.843193433609
1505419080370559807,0,1505419080370382216,0.804874718189,0.0092266490683,-0.2701356709,0.092262737453,-0.691885530949,-0.0577807873487,0.713753044605
1505419080370571353,0,1505419080370396245,0.343432843685,0.596442878246,0.222933739424,-0.00233794935048,0.0406794920564,-0.0125900693238,0.999090135098
1505419080370584704,0,1505419080370402855,1.41337299347,0.0812541469932,-2.005828619,0.409383952618,0.134022474289,0.898231327534,-0.0873111188412
1505419080371882531,0,1505419080371651010,-1.27623345821,1.0406329352,0.596,-0.00134322588264,0.00130190474752,-0.537783757124,0.843080738341
1505419080377962836,0,1505419080377742037,-1.27616920361,1.04116297934,0.598,-0.00129190632432,0.00130096232714,-0.538078026417,0.842893039456
1505419080380746223,0,1505419080380630104,0.800247728825,0.00977852009237,-0.269916981459,0.0899340733886,-0.691515088081,-0.0572266280651,0.714453518391
1505419080380754511,0,1505419080380649616,0.343995928764,0.599595367908,0.222440853715,-0.00209375983104,0.0401084497571,-0.0128410747275,0.999110579491
1505419080380758211,0,1505419080380657005,1.41339302063,0.0812305137515,-2.00583648682,0.409369856119,0.134009838104,0.89824616909,-0.0872441828251
1505419080381478751,0,1505419080381260030,-1.27613337928,1.04146945289,0.6,-0.00123077935763,0.00128304057178,-0.538239889559,0.842789807886
1505419080387317715,0,1505419080386994725,-1.27607740964,1.04196947336,0.599,-0.00114424585783,0.00120756934248,-0.538460682693,0.842648993159
1505419080391039831,0,1505419080390893225,0.79555362463,0.00980539433658,-0.270336657763,0.0844538584352,-0.692342460155,-0.0478142090142,0.715012729168
1505419080391077071,0,1505419080390926315,0.344667941332,0.602684438229,0.222558364272,-0.00204381579533,0.0398664101958,-0.0127915088087,0.999121010303
1505419080391088694,0,1505419080390935160,1.41338372231,0.0813210606575,-2.00576663017,0.409418642521,0.133947610855,0.898245036602,-0.0871222913265
1505419080391584035,0,1505419080391276795,-1.27603649509,1.04234377746,0.601,-0.000899052723691,0.00118589488247,-0.538651949057,0.842527069674
1505419080399214679,0,1505419080398992823,-1.27596538369,1.04301929373,0.603,-0.000724311450524,0.00116751238291,-0.538718193521,0.842484908029
1505419080400302434,0,1505419080400128705,0.790838599205,0.00897370744497,-0.271134287119,0.0770798176527,-0.693635165691,-0.0369048081338,0.715239107609
1505419080400313202,0,1505419080400139068,0.345258772373,0.605836510658,0.222032025456,-0.00199697795324,0.0395537093282,-0.0128981154412,0.999132156372
1505419080400404462,0,1505419080400145925,1.41333520412,0.0813211202621,-2.00578927994,0.409280538559,0.134092345834,0.898256659508,-0.0874280631542
1505419080403603549,0,1505419080403204984,-1.27592835737,1.04338861169,0.604,-0.00045440358709,0.00111951724763,-0.538931541056,0.842348701105
1505419080410551987,0,1505419080410363153,0.785500764847,0.00778599549085,-0.272253811359,0.0703202039003,-0.695262432098,-0.0246241968125,0.714883804321
1505419080410568747,0,1505419080410375100,0.345866620541,0.608930885792,0.221738934517,-0.00198322627693,0.0391765087843,-0.0128316748887,0.999147951603
1505419080410573672,0,1505419080410380967,1.41348552704,0.0811836346984,-2.00588965416,0.409599840641,0.133849576116,0.898181438446,-0.0870770514011
1505419080411364357,0,1505419080411076335,-1.27586030705,1.04407741685,0.606,-0.000209462892323,0.00109750744871,-0.538953705387,0.842334645525
1505419080412078559,0,1505419080411864562,-1.27585381007,1.04414612132,0.608,-7.02269273935e-05,0.00103961534471,-0.539086143945,0.842249988824
1505419080416854929,0,1505419080416572625,-1.27581571094,1.04455355652,0.609,0.000107816167025,0.000977553899923,-0.539233281297,0.84215586509
1505419080420718067,0,1505419080420600594,0.779415786266,0.0060108024627,-0.272879987955,0.0609593950212,-0.696301102638,-0.0154060591012,0.714990437031
1505419080420730530,0,1505419080420612662,0.346600681543,0.612005412579,0.221610635519,-0.00162158510648,0.0390804521739,-0.0127684129402,0.999153196812
1505419080420740983,0,1505419080420634433,1.41334104538,0.0813218355179,-2.0057926178,0.409241974354,0.134107932448,0.898276150227,-0.0873844102025
1505419080421763835,0,1505419080421466306,-1.275777237,1.04497388703,0.611,0.00014721386156,0.000941969232242,-0.539240687867,0.842151157199
1505419080426848869,0,1505419080426573665,-1.27573889857,1.04540954302,0.611,0.000245050920801,0.000900134256483,-0.53946122732,0.842009925076
1505419080431068493,0,1505419080430895994,0.773229241371,0.0050070527941,-0.273519337177,0.0535587221384,-0.696875691414,-0.00932233594358,0.715128540993
1505419080431081734,0,1505419080430909796,0.347093611956,0.615094721317,0.220924675465,-0.000965437444393,0.038933429867,-0.0128733571619,0.999158382416
1505419080431086579,0,1505419080430916920,1.4133450985,0.0813465639949,-2.00580310822,0.409260690212,0.134215682745,0.898245871067,-0.0874429941177
1505419080431939968,0,1505419080431701334,-1.27570114472,1.04584439399,0.613,0.000347356618008,0.000865682735622,-0.539468649923,0.842005169632
1505419080437809995,0,1505419080437586978,-1.27565929571,1.04634110315,0.614,0.000436219065553,0.000777665852981,-0.53959367361,0.841925099013
1505419080441191095,0,1505419080441092847,0.76709407568,0.00441487319767,-0.274046242237,0.0464126169682,-0.697310388088,-0.00472342595458,0.715249478817
1505419080441202183,0,1505419080441105324,0.347795009613,0.618179857731,0.220866173506,-0.000485454016598,0.0388055145741,-0.0127273844555,0.999165594578
1505419080441210225,0,1505419080441127314,1.41336476803,0.0812784805894,-2.00578761101,0.409315854311,0.13408434391,0.898248851299,-0.0873550996184
1505419080445296328,0,1505419080445089955,-1.27560718265,1.04697130774,0.616,0.000591207639708,0.000647202247716,-0.539762802259,0.841816695546
1505419080448980354,0,1505419080448853462,0.21,0.0,0.0,-0.499999999999,0.500000836553,-0.499999999999,0.499999163447
1505419080448992388,0,1505419080448853537,0.0,-0.02,0.0,0.707106189653,0.707107372717,-1.18306495402e-06,-1.18306297463e-06
1505419080450419239,0,1505419080450310189,0.760704398155,0.00427646609023,-0.274805784225,0.0422620773315,-0.697776257992,-0.000362262886483,0.71506780386
1505419080450423984,0,1505419080450321291,0.348426997662,0.62117934227,0.220462739468,-0.000226228788961,0.0384585671127,-0.0126786958426,0.999179720879
1505419080450444931,0,1505419080450343538,1.41340625286,0.0812869742513,-2.00581383705,0.409347474575,0.134025707841,0.89825719595,-0.0872111544013
1505419080450626317,0,1505419080450135452,-1.27557185273,1.04739386245,0.618,0.000791649232119,0.000539398779979,-0.539792317115,0.841797681586
1505419080452446441,0,1505419080452183593,-1.27555750222,1.04756528367,0.619,0.00100214747111,0.000414612580128,-0.539990762046,0.841670244633
1505419080456861719,0,1505419080456593510,-1.27552529701,1.04793438493,0.621,0.00135666181348,0.000353028733591,-0.540012943932,0.841655544285
1505419080460667445,0,1505419080460559255,0.754354119301,0.00437570782378,-0.275305479765,0.0397094115615,-0.698162376881,0.00390248559415,0.714826703072
1505419080460678087,0,1505419080460571835,0.348946720362,0.624343574047,0.219918236136,0.00014263423509,0.0379642546177,-0.01275065355,0.999197781086
1505419080460701209,0,1505419080460598689,1.41336226463,0.0813266634941,-2.00580191612,0.409288138151,0.134104967117,0.89825129509,-0.0874284952879
1505419080462177179,0,1505419080461988433,-1.27548486327,1.04838478824,0.622,0.00162415389383,0.000284974490506,-0.540079158124,0.841612609146
1505419080467424635,0,1505419080467056135,-1.27544633652,1.04880612574,0.622,0.00184079475318,0.000218237485524,-0.540226123962,0.84151785414
1505419080471035609,0,1505419080470841986,0.747895181179,0.00503595964983,-0.27570438385,0.0380453765392,-0.699334800243,0.0075280610472,0.713741362095
1505419080471045033,0,1505419080470854924,0.349670767784,0.627411723137,0.219954073429,0.00025160307996,0.0377553589642,-0.0126934163272,0.999206364155
1505419080471055316,0,1505419080470861137,1.4133630991,0.0812735185027,-2.00577139854,0.409364312887,0.133972376585,0.898251116276,-0.0872763469815
1505419080478634052,0,1505419080478350387,-1.27535787531,1.04973834777,0.624,0.00199184164452,0.000162701390392,-0.540248206378,0.841503346161
1505419080478646715,0,1505419080478389516,-1.2753575659,1.04974155247,0.625,0.0019788065453,7.7198906108e-05,-0.540483125272,0.841352524012
1505419080481247445,0,1505419080481113608,0.741306841373,0.00533892540261,-0.276161551476,0.0370052307844,-0.700145184994,0.00836053490639,0.712991893291
1505419080481255890,0,1505419080481124533,0.350198954344,0.630473792553,0.219295069575,0.000683147984091,0.0376037061214,-0.0128494361416,0.999209880829
1505419080481259514,0,1505419080481131050,1.41343808174,0.0812428444624,-2.00584316254,0.409398347139,0.133948385715,0.898242950439,-0.0872382894158
1505419080482056653,0,1505419080481829811,-1.27532911286,1.05002148769,0.627,0.00200975539297,0.000108754858812,-0.540666700326,0.841234490624
1505419080487532308,0,1505419080487255235,-1.27528311139,1.05045939878,0.629,0.00187869290327,0.000130434816216,-0.540813464054,0.841140446416
1505419080490485229,0,1505419080490325897,0.735024273396,0.00534271076322,-0.276629447937,0.0359434336424,-0.700740396976,0.00857857242227,0.712458610535
1505419080490495711,0,1505419080490336793,0.350782811642,0.633537113667,0.218990311027,0.00109704467468,0.0371682681143,-0.01297889743,0.999224126339
1505419080490499944,0,1505419080490342337,1.41337025166,0.0812692716718,-2.00576376915,0.409365594387,0.133824184537,0.898269593716,-0.0873075500131
1505419080492074353,0,1505419080491835251,-1.27524396804,1.05082725227,0.63,0.00178755813886,0.000229870985843,-0.541151073154,0.840923461332
1505419080497127848,0,1505419080496952536,-1.2751997977,1.05123535661,0.632,0.00164394680609,0.000280612033396,-0.541246414867,0.840862377021
1505419080500798487,0,1505419080500604108,0.72864562273,0.00485466513783,-0.277021825314,0.0352837070823,-0.701960682869,0.00873715337366,0.711287498474
1505419080500807313,0,1505419080500622616,0.351416110992,0.636551737785,0.21880877018,0.00119898747653,0.0367682166398,-0.0130723658949,0.999237596989
1505419080500815098,0,1505419080500631706,1.41341030598,0.0812506005168,-2.00581169128,0.409387588501,0.133885607123,0.898258924484,-0.0872202590108
1505419080503556445,0,1505419080503364357,-1.27514515325,1.05174441279,0.633,0.00138973588925,0.000288212508917,-0.541495769683,0.840702276067
1505419080511138248,0,1505419080510969694,0.72285091877,0.0043369634077,-0.277299076319,0.0356034301221,-0.70282626152,0.00895000994205,0.710413634777
1505419080511146856,0,1505419080510981308,0.351927429438,0.639657080173,0.218177333474,0.00122449186165,0.03633877635,-0.0130240703002,0.999253869057
1505419080511152116,0,1505419080511036049,1.41344237328,0.0812319889665,-2.00583100319,0.409487724304,0.133844390512,0.898218631744,-0.0872282534838
1505419080511236695,0,1505419080510759837,-1.27508377382,1.05232945504,0.633,0.00125613418238,0.00032212653098,-0.541686453383,0.840579624178
1505419080512857095,0,1505419080512634527,-1.27506817267,1.05247734372,0.635,0.00106166805525,0.00037476544781,-0.541693712044,0.840575192796
1505419080517110868,0,1505419080516895902,-1.27503372625,1.05281329804,0.636,0.0010099650483,0.000439007739958,-0.541950395401,0.840409754922
1505419080520510234,0,1505419080520307833,0.717486739159,0.00431897118688,-0.277406215668,0.0354194752872,-0.703713655472,0.00827765744179,0.709552049637
1505419080520529560,0,1505419080520324739,0.352615207434,0.642732560635,0.218224003911,0.000585174711887,0.0360078029335,-0.0131451934576,0.999264895916
1505419080520539346,0,1505419080520335755,1.41336941719,0.0813206657767,-2.00577497482,0.409318655729,0.134008258581,0.898262441158,-0.0873189121485
1505419080522129182,0,1505419080521925499,-1.2749920932,1.0532094407,0.638,0.00102838549133,0.000499840203118,-0.541921050612,0.840428621292
1505419080527280365,0,1505419080526980984,-1.2749503864,1.05360738859,0.64,0.00107930874405,0.000498055545346,-0.542031079066,0.840357600287
1505419080530924847,0,1505419080530697608,0.71284031868,0.00438800035045,-0.277686864138,0.035978090018,-0.70426517725,0.00827650539577,0.708976447582
1505419080530939906,0,1505419080530711096,0.353172212839,0.645753502846,0.21768078208,0.000509996665642,0.0360280424356,-0.0131293768063,0.999264419079
1505419080530951870,0,1505419080530717611,1.41335320473,0.0813009738922,-2.00582051277,0.409308552742,0.134118169546,0.898252546787,-0.087299220264
1505419080533847266,0,1505419080533617803,-1.27489434246,1.05412934716,0.641,0.00120216634325,0.000543276824953,-0.542177781324,0.84026276431
1505419080537574588,0,1505419080537351696,-1.27486177243,1.05442255014,0.643,0.001185144965,0.000710043791523,-0.542177705347,0.84026271314
1505419080541170708,0,1505419080540995994,0.708671808243,0.00463148811832,-0.277668297291,0.0360304489732,-0.704972863197,0.0080781141296,0.708272457123
1505419080541185764,0,1505419080541009365,0.353748500347,0.648670494556,0.217322349548,0.000207243792829,0.035632930696,-0.0131373349577,0.99927854538
1505419080541189716,0,1505419080541016131,1.41338217258,0.081257969141,-2.0057888031,0.409335434437,0.134040936828,0.898257374763,-0.0872419327497
1505419080544294404,0,1505419080543976584,-1.27480475118,1.05494123683,0.644,0.00112710284948,0.000892662970369,-0.542529476243,0.840035535081
1505419080547535819,0,1505419080547173305,-1.27477581867,1.05519043652,0.645,0.000934460367235,0.0011728683526,-0.542705008779,0.83992203484
1505419080549066909,0,1505419080548874300,0.21,0.0,0.0,-0.499999999999,0.500000836553,-0.499999999999,0.499999163447
1505419080549081480,0,1505419080548874447,0.0,-0.02,0.0,0.707106189653,0.707107372717,-1.18306495402e-06,-1.18306297463e-06
1505419080550432275,0,1505419080550285662,0.704714000225,0.00497156521305,-0.277785897255,0.0377259775996,-0.705486536026,0.00877207145095,0.707664191723
1505419080550448084,0,1505419080550297517,0.354348510504,0.651763558388,0.217339172959,-8.43470406835e-05,0.0353932157159,-0.0131517229602,0.999286830425
1505419080550459240,0,1505419080550304348,1.41343593597,0.0812142789364,-2.00585794449,0.409470081329,0.133784383535,0.898243606091,-0.0871454700828
1505419080552333093,0,1505419080552116552,-1.27473097494,1.055573673,0.646,0.000598219846079,0.00135905418395,-0.542997699763,0.839732870118
1505419080557268845,0,1505419080557046967,-1.27468523325,1.05595498824,0.648,0.000281651410408,0.00154329185133,-0.543370864735,0.839491299705
1505419080560665990,0,1505419080560509433,0.701453030109,0.00515767233446,-0.277826249599,0.038446187973,-0.705883681774,0.00786743778735,0.707239985466
1505419080560676768,0,1505419080560521637,0.354878604412,0.654737651348,0.216476529837,0.000330895534717,0.0350304767489,-0.0130893737078,0.999300479889
1505419080560685446,0,1505419080560528528,1.41336882114,0.0812956392765,-2.00579166412,0.409300833941,0.134003162384,0.898275852203,-0.0872727558017
1505419080562683876,0,1505419080562469429,-1.27463346743,1.05637378744,0.649,-5.95672075747e-05,0.00172263056508,-0.54341424306,0.839462917248
1505419080567684006,0,1505419080567402827,-1.27458643107,1.05675547675,0.651,-0.000255949793461,0.00178782717486,-0.543677676238,0.839292155643
1505419080570957630,0,1505419080570753215,0.698643147945,0.00532563915476,-0.277753949165,0.0390844531357,-0.706066668034,0.00713835284114,0.707029938698
1505419080570972853,0,1505419080570767203,0.355505734682,0.657772123814,0.216512516141,-0.000324743421515,0.0343534350395,-0.0133761130273,0.999320149422
1505419080570981774,0,1505419080570772997,1.413402915,0.0812962949276,-2.00578045845,0.409440428019,0.133959487081,0.898218691349,-0.0872730463743
1505419080577761323,0,1505419080577499331,-1.27448856719,1.05753835666,0.652,-0.000330848333986,0.00178443492732,-0.543721587978,0.839263689849
1505419080579015078,0,1505419080578820178,-1.27447606232,1.05764112702,0.654,-0.000322372881367,0.00168528849589,-0.543677884301,0.839292210139
1505419080581131176,0,1505419080581038309,0.696662962437,0.00500945653766,-0.277657985687,0.0399104654789,-0.706639707088,0.00610731448978,0.706420660019
1505419080581141797,0,1505419080581050414,0.356124520302,0.660589993,0.215989425778,-0.000395857525291,0.0340922921896,-0.0131737394258,0.999331772327
1505419080581146770,0,1505419080581088656,1.41341948509,0.0812454596162,-2.00581264496,0.409458339214,0.133858188987,0.898234128952,-0.0871861577034
1505419080583709541,0,1505419080583515847,-1.27443379488,1.05800730455,0.655,-0.00020579244858,0.00149564229864,-0.543854122267,0.839178416308
1505419080587920215,0,1505419080587573966,-1.27439899523,1.0583240327,0.656,-0.000122959710063,0.00143134109498,-0.54367851872,0.839292323583
1505419080590462787,0,1505419080590345515,0.694972813129,0.00511619029567,-0.277433216572,0.0417852476239,-0.706911504269,0.00377834541723,0.706056535244
1505419080590490382,0,1505419080590356810,0.356665313244,0.663548529148,0.215591013432,-0.000701777404174,0.0338426716626,-0.0131016084924,0.999341070652
1505419080590494182,0,1505419080590362358,1.41338002682,0.0812709853053,-2.00577831268,0.409401446581,0.133912712336,0.89824616909,-0.0872445628047
1505419080593258636,0,1505419080592974761,-1.2743565249,1.05874496115,0.658,-0.000117109272583,0.0013757656747,-0.543847071565,0.839183207831
1505419080599354779,0,1505419080598995586,-1.2743041026,1.05938511959,0.659,-0.000114365384267,0.00136371044979,-0.543949616353,0.839116763081
1505419080600802622,0,1505419080600652440,0.694100081921,0.00527928350493,-0.27720618248,0.0437310785055,-0.706978797913,0.00184284348506,0.705878913403
1505419080600813223,0,1505419080600666072,0.357285231352,0.666540920734,0.215675354004,-0.00148408079986,0.0337290652096,-0.0131625439972,0.999343216419
1505419080600817684,0,1505419080600673198,1.41341638565,0.0812568366528,-2.00582742691,0.409465044737,0.134006589651,0.898196876049,-0.0873101875186
1505419080602526681,0,1505419080602192024,-1.27427358719,1.0598064131,0.66,-0.000290784622838,0.00154058373358,-0.544022412463,0.839069220496
1505419080611131420,0,1505419080610925788,0.694141924381,0.00521425018087,-0.276809632778,0.0469365790486,-0.706550598145,-0.00181779672857,0.706101894379
1505419080611145762,0,1505419080610939531,0.35791271925,0.669322907925,0.214797884226,-0.00112530379556,0.0334885343909,-0.0128242736682,0.999356210232
1505419080611150050,0,1505419080610945955,1.41339612007,0.0812600329518,-2.0058054924,0.409442514181,0.133905082941,0.898229718208,-0.087233915925
1505419080612293611,0,1505419080612067458,-1.27417523688,1.06133299498,0.662,-0.000416708841309,0.00160208834453,-0.544402922123,0.838822220766
1505419080613168651,0,1505419080612996790,-1.27417792498,1.06149071208,0.663,-0.000647521598412,0.00188736094738,-0.54450458513,0.838755491998
1505419080617549921,0,1505419080617362173,-1.27424363858,1.06229048333,0.665,-0.00100016446559,0.00209647076948,-0.544855094993,0.838527000127
1505419080620344142,0,1505419080620161462,0.69452726841,0.00572271179408,-0.276380300522,0.0502611510456,-0.706318795681,-0.00467771897092,0.706091761589
1505419080620359611,0,1505419080620179511,0.358468830585,0.672295749187,0.214821189642,-0.0017281860346,0.0326791107655,-0.0132752470672,0.999376296997
1505419080620365356,0,1505419080620190492,1.41339886189,0.0813045948744,-2.00579786301,0.409394174814,0.134087815881,0.898231685162,-0.0871594250202
1505419080623078183,0,1505419080622884246,-1.27438629994,1.06336956389,0.666,-0.0011391338313,0.00225014287626,-0.545154515803,0.838331791793
1505419080628214167,0,1505419080627992693,-1.27462737615,1.06440096223,0.667,-0.0013800938432,0.00240740101449,-0.545314783236,0.838226751509
1505419080630941471,0,1505419080630439189,0.695005953312,0.00616416567937,-0.27584451437,0.0539703294635,-0.706112504005,-0.00759502314031,0.705999016762
1505419080630953707,0,1505419080630451468,0.359039366245,0.675140023232,0.214328169823,-0.00166485295631,0.0321541205049,-0.0131672751158,0.999394834042
1505419080630958332,0,1505419080630458098,1.41344058514,0.0812478587031,-2.0058016777,0.409477770329,0.133806094527,0.898237645626,-0.0871378481388
1505419080634999075,0,1505419080634722055,-1.27507784614,1.06579932299,0.669,-0.00131950183405,0.00227553176858,-0.545688286711,0.837984113582
1505419080640813923,0,1505419080640668013,0.695504724979,0.00650309491903,-0.27530169487,0.0581765398383,-0.706045866013,-0.0113044744357,0.705681800842
1505419080640824930,0,1505419080640678165,0.35963305831,0.67792224884,0.213670104742,-0.00147940509487,0.0315633416176,-0.0130939017981,0.999414861202
1505419080640828641,0,1505419080640683421,1.41341125965,0.0812853574753,-2.00579285622,0.409474998713,0.133835434914,0.898228287697,-0.0872020497918
1505419080646354433,0,1505419080646136012,-1.27603788912,1.06823392411,0.67,-0.00120899655782,0.00217290276684,-0.545871490126,0.837865223702
1505419080649656969,0,1505419080648543597,-1.27627886788,1.06875954152,0.672,-0.00107033319479,0.00193750253939,-0.546142784699,0.837689178151
1505419080649660852,0,1505419080648851312,0.21,0.0,0.0,-0.499999999999,0.500000836553,-0.499999999999,0.499999163447
1505419080649664376,0,1505419080648851478,0.0,-0.02,0.0,0.707106189653,0.707107372717,-1.18306495402e-06,-1.18306297463e-06
1505419080649748324,0,1505419080649593243,-1.2763986743,1.06899314886,0.673,-0.000701600739606,0.00168740818701,-0.546479835011,0.83747026833
1505419080651142592,0,1505419080650958997,0.696105837822,0.00665059685707,-0.27481096983,0.062775798142,-0.705621004105,-0.0160111095756,0.705621600151
1505419080651152528,0,1505419080650972422,0.360139369965,0.680730462074,0.21367430687,-0.00171377579682,0.0311086047441,-0.0135493315756,0.999422729015
1505419080651156065,0,1505419080650978799,1.41341459751,0.0812757909298,-2.00581622124,0.409387499094,0.134020447731,0.898238778114,-0.0872208327055
1505419080653705961,0,1505419080653468177,-1.27687490885,1.06984865855,0.674,-0.000550414404964,0.00159942421082,-0.546611649303,0.837384525611
1505419080657634795,0,1505419080657438292,-1.2773832737,1.07070272147,0.676,-0.000357702552654,0.00149490268258,-0.546882310118,0.837208084167
1505419080660263674,0,1505419080660141198,0.69653570652,0.00690576154739,-0.274238824844,0.0678010135889,-0.705062448978,-0.0217262860388,0.70556217432
1505419080660276715,0,1505419080660153819,0.360754400492,0.683439970016,0.212749272585,-0.000938989280257,0.031022593379,-0.0129521284252,0.999434292316
1505419080660293220,0,1505419080660160628,1.41339051723,0.0812626481056,-2.00580763817,0.409395009279,0.133829638362,0.89824962616,-0.0873671546578
1505419080663363728,0,1505419080663175147,-1.27814203789,1.0719078629,0.677,-0.000372630305526,0.00156743847036,-0.547028260889,0.837112588648
1505419080667821000,0,1505419080667547326,-1.27873665471,1.07280540424,0.678,-0.000499627354246,0.00172368374409,-0.54717393757,0.837017001817
1505419080670565101,0,1505419080670392917,0.697046518326,0.0073912278749,-0.273562550545,0.0734364315867,-0.704605877399,-0.0271939113736,0.705264568329
1505419080670616873,0,1505419080670407083,0.361331105232,0.686281502247,0.212802663445,-0.00135779217817,0.0307166520506,-0.0132998293266,0.999438762665
1505419080670626837,0,1505419080670414069,1.41334331036,0.0813020169735,-2.0057592392,0.409176379442,0.134119614959,0.898316383362,-0.0872605890036
1505419080678306165,0,1505419080677999034,-1.2801912607,1.07490536394,0.679,-0.000473284479363,0.00181118431031,-0.547407450878,0.836864133738
1505419080678310643,0,1505419080678040036,-1.28019707551,1.07491344577,0.681,-0.000522081993586,0.00189556531761,-0.547560560509,0.83676374613
1505419080680781494,0,1505419080680619763,0.697403132915,0.00809720531106,-0.273014605045,0.0775835514069,-0.704172849655,-0.0333917327225,0.70498675108
1505419080680795696,0,1505419080680631071,0.361887156963,0.689023733139,0.212319090962,-0.00110706302803,0.0304194428027,-0.0132710551843,0.999448478222
1505419080680811744,0,1505419080680637887,1.41341662407,0.0812284871936,-2.005818367,0.409424006939,0.133897215128,0.898244082928,-0.0871850326657
1505419080682783622,0,1505419080682579586,-1.28086838195,1.07582317552,0.682,-0.000424017664405,0.00178998435897,-0.547721520389,0.836658683256
