%time,field.linear.x,field.linear.y,field.linear.z,field.angular.x,field.angular.y,field.angular.z
1505419079938475793,0.00549358867271,0.00830178593072,0.239966493845,0.0,0.0,-0.0419665380127
1505419079988480433,0.00376871888411,0.00965960018775,0.22684494853,0.0,0.0,-0.0420048743357
1505419080038524880,0.00239575847359,0.0132348782154,0.212450188398,0.0,0.0,-0.0417360469982
1505419080088484229,0.00180132233796,0.010367295164,0.197188568115,0.0,0.0,-0.041167046984
1505419080138562413,0.000887274627272,0.00866367666697,0.181440186501,0.0,0.0,-0.0402865696696
1505419080188451941,0.00138782291008,0.00859297883448,0.165329945087,0.0,0.0,-0.0401701762295
1505419080238568614,0.00230119226955,0.00666653471194,0.148912858963,0.0,0.0,-0.0395436773101
1505419080288568460,0.00281227730759,0.00732812563245,0.132472109795,0.0,0.0,-0.0386574668098
1505419080338543281,0.00332264809787,0.00310897244069,0.116285514832,0.0,0.0,-0.0376879788252
1505419080388478841,0.00233600209755,0.000294119388394,0.100404632092,0.0,0.0,-0.0364565795863
1505419080438591790,0.00175969367783,-0.00105097681287,0.0849052786827,0.0,0.0,-0.0354004905748
1505419080488534182,0.000493633827784,-0.00221618943658,0.0695262074471,0.0,0.0,-0.03420966824
1505419080538481239,0.000128818068361,-0.00269334883203,0.0542464971542,0.0,0.0,-0.0327743940748
1505419080588604922,-0.000873694128976,-0.00362844157846,0.039410007,0.0,0.0,-0.0310023355021
1505419080638571425,-0.00175456668244,-0.00404315692767,0.0248599767685,0.0,0.0,-0.0292237251942
1505419080688495518,-0.00253526992319,-0.00660786704185,0.010976266861,0.0,0.0,-0.0276522601305
1505419080738726502,-0.00407870871978,-0.00843098559086,-0.00203113555908,0.0,0.0,-0.0259577817314
1505419080788528576,-0.00427917680331,-0.0084026553028,-0.0142800688744,0.0,0.0,-0.0238705745165
1505419080838581878,-0.00512891277676,-0.00866112491094,-0.0253676652908,0.0,0.0,-0.022579592866
1505419080888504608,-0.00603587366596,-0.0107702156952,-0.0352381944656,0.0,0.0,-0.0205646827717
1505419080938499222,-0.00764515977825,-0.0102040984075,-0.0438318133354,0.0,0.0,-0.0192043470322
1505419080988471484,-0.00842168933077,-0.011851827676,-0.0512509822845,0.0,0.0,-0.0178533645875
1505419081038478435,-0.00993874341422,-0.0106899323939,-0.0575489878654,0.0,0.0,-0.0165042564944
1505419081088621041,-0.010305654824,-0.0107809757456,-0.062607395649,0.0,0.0,-0.015522906579
1505419081138483549,-0.0107556345302,-0.0101122577805,-0.0666868567467,0.0,0.0,-0.0141682392654
1505419081188653815,-0.00982383038088,-0.0087103597082,-0.0698273062706,0.0,0.0,-0.0132802377479
1505419081238574358,-0.0089781416829,-0.00884559395163,-0.0720038294792,0.0,0.0,-0.0121433614802
1505419081288962185,-0.008159834355,-0.00810263888019,-0.0733345627785,0.0,0.0,-0.0117943625316
1505419081338577411,-0.00590785735563,-0.0117168320527,-0.0738671302795,0.0,0.0,-0.0110451020243
1505419081388609813,-0.00840421535581,-0.00406554356451,-0.0737436890602,0.0,0.0,-0.0104493088963
1505419081438470012,-0.00538440267274,-0.0071462409783,-0.0729330062866,0.0,0.0,-0.00946184549171
1505419081488615424,-0.0035624894122,-0.0114494999803,-0.0717657089233,0.0,0.0,-0.00961785809315
1505419081538517265,-0.00253090712474,-0.00227188443993,-0.0695987224579,0.0,0.0,-0.0087967279494
1505419081588485267,0.000313305040653,-0.00564553393735,-0.0674902677536,0.0,0.0,-0.00833965206295
1505419081638587068,0.00224468875223,-0.00639643655379,-0.0650472521782,0.0,0.0,-0.0081856309717
1505419081688500765,0.00368685159146,-0.00529696170383,-0.0621865868568,0.0,0.0,-0.00806993906209
1505419081738479302,0.00544664218284,-0.00562864094353,-0.0589043974876,0.0,0.0,-0.00762657348588
1505419081789097737,0.00566227241277,-0.00387194840117,-0.0560441493988,0.0,0.0,-0.00796836916612
1505419081838490983,0.00887570770279,-0.00413497233892,-0.0516361474991,0.0,0.0,-0.00718188993706
1505419081888615173,0.00914580792108,-0.00321849404155,-0.0478041052818,0.0,0.0,-0.00706944685359
1505419081938429189,0.00960894034926,-0.00374081139283,-0.043992626667,0.0,0.0,-0.0069580341042
1505419081988425813,0.00932136014126,-0.00388563650397,-0.0400072813034,0.0,0.0,-0.00715188487049
1505419082038453926,0.0103087911233,-0.0037391019393,-0.0361973524094,0.0,0.0,-0.0066011914494
1505419082088418769,0.00957743598177,-0.00390234526085,-0.0322587370872,0.0,0.0,-0.006794594453
1505419082138423179,0.0101308505056,-0.00605505886696,-0.0282600402832,0.0,0.0,-0.00685011056609
1505419082188425844,0.0105693513943,-0.00752374658155,-0.0242069244385,0.0,0.0,-0.00698124045759
1505419082238624475,0.0115825341954,-0.00731812781544,-0.0204157710075,0.0,0.0,-0.00699434189542
1505419082288466881,0.0,0.1,-0.0168726325035,0.0,0.0,-0.00667194879
1505419082338458492,0.0,0.1,-0.0136563062668,0.0,0.0,-0.00661323455259
1505419082388563795,0.0,0.1,-0.0107366323471,0.0,0.0,-0.0064198987816
1505419082438426978,0.0,0.1,-0.0082234621048,0.0,0.0,-0.0063885543834
1505419082489224116,0.0,0.1,-0.00624452829361,0.0,0.0,-0.00658971187685
1505419082538524368,0.0,0.1,-0.00440065860748,0.0,0.0,-0.00649802638535
1505419082588551868,0.0,0.1,-0.00284992456436,0.0,0.0,-0.00662617470428
1505419082638646424,0.0,0.1,-0.00159518718719,0.0,0.0,-0.00668784360249
1505419082688450188,0.0,0.1,-0.000520217418671,0.0,0.0,-0.00631571990211
1505419082738495119,0.0,0.1,0.000532817840576,0.0,0.0,-0.00645904920362
1505419082788687075,0.0,0.1,0.00178940296173,0.0,0.0,-0.00659624426176
1505419082838445300,0.0,0.1,0.00356687307358,0.0,0.0,-0.00613618554819
1505419082888580495,0.0,0.1,0.00513834953308,0.0,0.0,-0.00579085885362
1505419082938437522,0.0,0.1,0.00686551332474,0.0,0.0,-0.00536091544604
1505419082988594088,0.0,0.1,0.00866885185242,0.0,0.0,-0.00482129418367
1505419083038504549,0.0,0.1,0.0103822469711,0.0,0.0,-0.00461797452006
1505419083088459323,0.0,0.1,0.0121640086174,0.0,0.0,-0.00495392134966
1505419083138574267,0.0,0.1,0.0141356706619,0.0,0.0,-0.00413014199512
1505419083188549064,0.0,0.1,0.0158951401711,0.0,0.0,-0.00334328890507
1505419083238605471,0.0,0.1,0.0177713155746,0.0,0.0,-0.00339547914893
1505419083288504510,0.0,0.1,0.019397687912,0.0,0.0,-0.00302284735485
1505419083338520748,0.0,0.1,0.020372402668,0.0,0.0,-0.00221076931975
1505419083388495933,0.0,0.1,0.020528447628,0.0,0.0,-0.00118085240389
1505419083438727134,0.0,0.1,0.0194682002068,0.0,0.0,-4.98828148472e-05
1505419083488499072,0.0,0.1,0.0172964453697,0.0,0.0,0.000321072108766
1505419083538491728,0.0,0.1,0.0144075870514,0.0,0.0,0.00159077329599
1505419083589559562,0.0,0.1,0.0104586601257,0.0,0.0,0.00254052381551
1505419083638598854,0.0,0.1,0.0056206703186,0.0,0.0,0.00334206466828
1505419083688564067,0.0,0.1,0.000356566905975,0.0,0.0,0.00455723749156
1505419083738479494,0.0,0.1,-0.0047147154808,0.0,0.0,0.0056666234369
1505419083788504035,0.0,0.1,-0.00989787578583,0.0,0.0,0.0072937639744
1505419083838439232,0.0,0.1,-0.0153285741806,0.0,0.0,0.00848675837734
1505419083888683934,0.0,0.1,-0.0198206186295,0.0,0.0,0.00939032442477
1505419083938612324,0.0339280233485,-0.52235411679,-0.0260239124298,0.0,0.0,0.0110362764935
1505419083988536781,0.0262238078848,-0.421084343959,-0.0302315831184,0.0,0.0,0.0119213120703
1505419084038539797,0.0266873688939,-0.458480187931,-0.0335666418076,0.0,0.0,0.0131848012908
1505419084088519581,0.0242423716518,-0.475160610402,-0.0357773780823,0.0,0.0,0.0134339834481
1505419084138573002,0.0229080546079,-0.496210532134,-0.0369859814644,0.0,0.0,0.0140611194166
1505419084188624138,0.0201322456976,-0.504530512279,-0.0371782660484,0.0,0.0,0.0139921800175
1505419084238431410,0.0160220062782,-0.492375113147,-0.0358121871948,0.0,0.0,0.0136764731975
1505419084289096971,0.0110427181673,-0.471024198056,-0.032359290123,0.0,0.0,0.0135047004742
1505419084338463450,0.00682799898258,-0.45271559093,-0.0268686890602,0.0,0.0,0.0138194581351
1505419084388527082,0.00155310582825,-0.433183925721,-0.0197023630142,0.0,0.0,0.0139351409146
1505419084438402805,-0.00277805678898,-0.418559875523,-0.0116735577583,0.0,0.0,0.0148807076452
1505419084488574546,-0.00721760191142,-0.391361712428,-0.00309793949127,0.0,0.0,0.0156810461636
1505419084538504857,-0.011276323512,-0.366254945204,0.00530458688736,0.0,0.0,0.0174063030968
1505419084588530365,-0.0137265596902,-0.325874204947,0.0134127855301,0.0,0.0,0.018043594224
1505419084638454757,-0.0167505517706,-0.291055632416,0.0207356929779,0.0,0.0,0.0184844247592
1505419084688462282,-0.0192128862203,-0.251121824235,0.0271425962448,0.0,0.0,0.0193965844053
1505419084738488980,-0.0214721210247,-0.202301321304,0.0330655097961,0.0,0.0,0.0201390396265
1505419084788789130,-0.0232259300293,-0.158321829659,0.0386043310165,0.0,0.0,0.0217379224806
1505419084838584085,-0.000738522304107,-0.277164708648,0.0407005667686,0.0,0.0,0.0226130973924
1505419084888507038,-0.034979980273,0.0324043905676,0.0480254411697,0.0,0.0,0.0253741576855
1505419084939218482,-0.0209208105663,-0.046538146063,0.0516402244568,0.0,0.0,0.0266045150313
1505419084988461057,-0.0127157940605,0.00609755771132,0.0548942804337,0.0,0.0,0.0267820616399
1505419085038556509,-0.00467141617297,0.0376700682987,0.0573719859123,0.0,0.0,0.02825374998
1505419085088583633,0.00637053915143,-0.127834561769,0.058206808567,0.0,0.0,0.0282410395405
1505419085138564492,0.0118209208873,0.260583744946,0.0606001138687,0.0,0.0,0.029097155487
1505419085188426005,0.0261303696294,0.128230043543,0.0616179823875,0.0,0.0,0.0292906714665
1505419085238592185,0.0359422570005,0.138088533819,0.0621327280998,0.0,0.0,0.0291186690396
1505419085288507838,0.0460535607389,0.154887108882,0.0622182011604,0.0,0.0,0.0285402639021
1505419085338437215,0.0543657521397,0.172505177381,0.0620437979698,0.0,0.0,0.0280300416593
1505419085388501134,0.064494042925,0.189552301108,0.0613986968994,0.0,0.0,0.0274076508475
1505419085438568023,0.0705842705446,0.195373662104,0.0605363368988,0.0,0.0,0.0266184254958
1505419085488430414,0.075781256624,0.200742631508,0.0595622181892,0.0,0.0,0.0250225243773
1505419085538501839,0.0808544610722,0.205818847926,0.0585004806519,0.0,0.0,0.0241338954626
1505419085589157898,0.0836098777183,0.205614690312,0.0577494621277,0.0,0.0,0.0229567754186
1505419085638528687,0.0862957475701,0.200065126776,0.0576962351799,0.0,0.0,0.0219520218403
1505419085688538464,0.0884459496344,0.192734243026,0.0585686087608,0.0,0.0,0.0211719035907
1505419085738509671,0.0885039904606,0.187499555101,0.0603516817093,0.0,0.0,0.020351028433
1505419085788515293,0.0892276291032,0.184631274439,0.0626086115837,0.0,0.0,0.0191184825499
1505419085838576095,0.0879581734118,0.178307952031,0.0648890852928,0.0,0.0,0.0183541426708
1505419085888626434,0.0854745054479,0.167598757241,0.0669502735138,0.0,0.0,0.0173366210854
1505419085938546364,0.0818447359941,0.156410548932,0.0684940934181,0.0,0.0,0.0162841255876
1505419085988594465,0.0738146747326,0.144446804855,0.0696269392967,0.0,0.0,0.0150863689186
1505419086038460547,0.0690706535743,0.135932799244,0.0698393106461,0.0,0.0,0.0135369176938
1505419086088616507,0.0610512810042,0.119858603757,0.0691676259041,0.0,0.0,0.0127760170067
1505419086138477175,0.0523083933124,0.103660702657,0.0676202297211,0.0,0.0,0.0113286927489
1505419086188562285,0.043653326327,0.088688577834,0.0654618263245,0.0,0.0,0.0103005861424
1505419086238502660,0.035553692558,0.0756383855916,0.0627784848213,0.0,0.0,0.00913096049047
1505419086288683815,0.0266117737643,0.0575551038904,0.0597251772881,0.0,0.0,0.00835401435442
1505419086338545972,0.0,0.1,0.0563874959946,0.0,0.0,0.00747012386547
1505419086388505969,0.0,0.1,0.0527143001556,0.0,0.0,0.00675522819222
1505419086438601113,0.0,0.1,0.0499428033829,0.0,0.0,0.00629321647141
1505419086488542920,0.0,0.1,0.0457741737366,0.0,0.0,0.00512267900555
1505419086538582304,0.0,0.1,0.042549264431,0.0,0.0,0.00432366825375
1505419086589129780,0.0,0.1,0.0401607871056,0.0,0.0,0.00372189673338
1505419086638735736,0.0,0.1,0.0360925912857,0.0,0.0,0.00278533906454
1505419086688605932,0.0,0.1,0.033376288414,0.0,0.0,0.00251868314164
1505419086738514439,0.0,0.1,0.0311117887497,0.0,0.0,0.00177904054726
1505419086789293877,0.0,0.1,0.0278858661652,0.0,0.0,0.00123249963294
1505419086838581841,0.0,0.1,0.0256902098656,0.0,0.0,0.00124225388419
1505419086888520525,0.0,0.1,0.0242377638817,0.0,0.0,0.00106869171621
1505419086938503727,0.0,0.1,0.0224662542343,0.0,0.0,0.000970196149368
1505419086988502785,0.0,0.1,0.0215180635452,0.0,0.0,0.00160241576827
1505419087038532923,0.0,0.1,0.0202176094055,0.0,0.0,0.00194307294006
1505419087088440360,0.0,0.1,0.0189455270767,0.0,0.0,0.00212443291155
1505419087138531963,0.0,0.1,0.0177952766418,0.0,0.0,0.00320734582592
1505419087188482138,0.0,0.1,0.0166571855545,0.0,0.0,0.00388624589517
1505419087238409399,0.0,0.1,0.015197467804,0.0,0.0,0.0045068348384
1505419087288497259,0.0,0.1,0.0130713105202,0.0,0.0,0.00550608117339
1505419087338526206,0.0,0.1,0.0105534315109,0.0,0.0,0.0071617144429
1505419087388453183,0.0,0.1,0.00784177780151,0.0,0.0,0.00886228752368
1505419087438437881,0.0,0.1,0.00466973781586,0.0,0.0,0.0107999128813
1505419087488553486,0.0,0.1,0.000906240940094,0.0,0.0,0.0128856695098
1505419087538601918,0.0,0.1,-0.00321029424667,0.0,0.0,0.0152011962365
1505419087588480765,0.0,0.1,-0.00803415775299,0.0,0.0,0.0178918455488
1505419087638494571,0.0,0.1,-0.0136777639389,0.0,0.0,0.0203460956435
1505419087688466052,0.0,0.1,-0.0205444574356,0.0,0.0,0.0232703468776
1505419087738487529,0.0,0.1,-0.0287030816078,0.0,0.0,0.0263187171077
1505419087788473279,0.0,0.1,-0.0378042936325,0.0,0.0,0.0289841298887
1505419087838484616,0.0,0.1,-0.0472450733185,0.0,0.0,0.0313561545488
1505419087889063559,0.0,0.1,-0.0569241523743,0.0,0.0,0.0342128989462
1505419087938529486,0.0,0.1,-0.0641980051994,0.0,0.0,0.0364585340316
1505419087988470911,0.0,0.1,-0.0745616436005,0.0,0.0,0.0390134360806
1505419088038414445,0.0,0.1,-0.0818501591682,0.0,0.0,0.0407665488173
1505419088089277982,0.0,0.1,-0.0876590490341,0.0,0.0,0.0426645891361
1505419088138559612,0.0,0.1,-0.0916308641434,0.0,0.0,0.0445152699587
1505419088188512907,0.0,0.1,-0.0926853895187,0.0,0.0,0.0457505428264
1505419088238624073,0.0,0.1,-0.0907098531723,0.0,0.0,0.0467705642116
1505419088288531885,0.0,0.1,-0.0868434786797,0.0,0.0,0.0474175969545
1505419088338443514,0.0,0.1,-0.0771324515343,0.0,0.0,0.0485332793395
1505419088388441885,0.0,0.1,-0.0681421637535,0.0,0.0,0.0485671650608
1505419088438595799,0.0,0.1,-0.051201748848,0.0,0.0,0.0492049204194
1505419088488688852,0.0,0.1,-0.0348967790604,0.0,0.0,0.049204730613
1505419088538500698,0.0,0.1,-0.0210574746132,0.0,0.0,0.0496892788764
1505419088588443767,0.0,0.1,0.000184488296509,0.0,0.0,0.0495360359072
1505419088638498694,0.0,0.1,0.0173961639404,0.0,0.0,0.0490576412202
1505419088688583780,0.0,0.1,0.0304871320724,0.0,0.0,0.0485463102693
1505419088738458165,0.0,0.1,0.0485550284386,0.0,0.0,0.0477656037072
1505419088788592805,-0.137510325655,-1.23615332777,0.0593692183495,0.0,0.0,0.0473243381779
1505419088838462069,-0.0448489092651,-0.782178671044,0.072619509697,0.0,0.0,0.0470079235287
1505419088888548630,-0.11030435058,-1.10947747512,0.0818794488907,0.0,0.0,0.0451423268352
1505419088938603086,-0.0767092024795,-0.938510531921,0.0882988095284,0.0,0.0,0.0443927454436
1505419088989075245,-0.0847793246046,-0.925353903272,0.0959868550301,0.0,0.0,0.0418998490105
1505419089038530957,-0.139607366144,-1.15476513234,0.100336503983,0.0,0.0,0.0416346184538
1505419089088766887,-0.0951920242691,-1.00682663405,0.10292596817,0.0,0.0,0.0405066127377
1505419089138585955,-0.0788780924679,-0.974118443618,0.103783202171,0.0,0.0,0.0399428162649
1505419089188491810,-0.0598502632286,-0.891610079162,0.103576254845,0.0,0.0,0.0387012896342
1505419089238447935,-0.0456485135586,-0.842958212212,0.10235966444,0.0,0.0,0.0375695875581
1505419089288632345,-0.0260857362523,-0.806742445097,0.0999286293983,0.0,0.0,0.0366979981017
1505419089338819225,-0.0111783551131,-0.737564720821,0.096795809269,0.0,0.0,0.0347441112959
1505419089388654377,0.00194015026784,-0.69216895527,0.0928486704826,0.0,0.0,0.0318946082245
1505419089438525083,0.0130858985917,-0.632577315253,0.0885484337807,0.0,0.0,0.0293446693622
1505419089488502591,0.0234415083969,-0.579709384573,0.0839792609215,0.0,0.0,0.026601373663
1505419089538559407,0.0143497628535,-0.530526495209,0.0803340196609,0.0,0.0,0.0246166445027
1505419089589066571,0.0575800772326,-0.492683805992,0.0751381039619,0.0,0.0,0.0211653671714
1505419089638483219,0.0420014748641,-0.416615814729,0.0708345890045,0.0,0.0,0.0185686077589
1505419089688722911,0.0280947610458,-0.406641837769,0.0675826191902,0.0,0.0,0.0157942577983
1505419089738579616,0.0721686130488,-0.318536999629,0.062545132637,0.0,0.0,0.0130784262896
1505419089788781407,0.0480573450837,-0.269912166166,0.0586369752884,0.0,0.0,0.0110538874549
1505419089838488973,0.0351194282467,-0.284462392694,0.0556366562843,0.0,0.0,0.0101813516454
1505419089888499114,0.0713999840101,-0.138410465336,0.0508414626122,0.0,0.0,0.00874289758027
1505419089938627287,0.0491440284925,-0.12964121453,0.046705198288,0.0,0.0,0.00756206587789
1505419089988493775,0.0346663582247,-0.158595290133,0.0435170054436,0.0,0.0,0.00713104715813
1505419090038489345,0.0658283005147,0.0393921300969,0.038947892189,0.0,0.0,0.00709760143147
1505419090088548989,0.0465612611038,0.00798158610648,0.0352261185646,0.0,0.0,0.00684208821439
1505419090138586569,0.0480558579828,0.0482400664162,0.0317263126373,0.0,0.0,0.00685285784327
1505419090188477230,0.0481381661305,0.0875707586932,0.0283111453056,0.0,0.0,0.00685257487458
1505419090238511623,0.0464552099421,0.123938863469,0.0248328566551,0.0,0.0,0.00675578311193
1505419090288617160,0.0441946406318,0.148674688878,0.0215240836143,0.0,0.0,0.00660165719485
1505419090338481051,0.0433673850801,0.172333545954,0.0183730244637,0.0,0.0,0.00686405086273
1505419090388471849,0.0434156271547,0.195544507407,0.0154188990593,0.0,0.0,0.00652826259911
1505419090438474031,0.0437132589205,0.206809994309,0.0127671480179,0.0,0.0,0.00593148117283
1505419090488486635,0.0448806949323,0.21906507519,0.0102605342865,0.0,0.0,0.00469348101937
1505419090538539871,0.0440589782777,0.227378918488,0.0081282377243,0.0,0.0,0.00313533463225
1505419090588524254,0.045770888934,0.236093974525,0.00612832307816,0.0,0.0,0.00173059540763
1505419090638591644,0.0455308777797,0.234921441525,0.00440753698349,0.0,0.0,0.000605735661372
1505419090688584188,0.0449098770303,0.233802194262,0.00316030979156,0.0,0.0,-0.0004626963552
1505419090738483820,0.0430858378804,0.22815532688,0.00269759893417,0.0,0.0,-0.00119755552287
1505419090788438590,0.0400733440012,0.219509950857,0.00324697494507,0.0,0.0,-0.00207859813594
1505419090838530733,0.0352283797462,0.163765887487,0.00424529314041,0.0,0.0,-0.00264362655517
1505419090888719370,0.0362947611663,0.199101377889,0.00656307935715,0.0,0.0,-0.00320705830074
1505419090938531861,0.0342984718498,0.216450877499,0.0109901547432,0.0,0.0,-0.00434314865752
1505419090988528783,0.0322489963205,0.180461403909,0.0151660561562,0.0,0.0,-0.004755164212
1505419091038564893,0.0291788274909,0.132715866858,0.0187351822853,0.0,0.0,-0.00578628523927
1505419091088654964,0.0271588654516,0.148550306372,0.0226630091667,0.0,0.0,-0.00687055419949
1505419091138519370,0.0256736790431,0.154760420441,0.0263642191887,0.0,0.0,-0.00738791277792
1505419091188722738,0.0238711487274,0.119104618448,0.0286127448082,0.0,0.0,-0.00787146322675
1505419091238484909,0.019483018737,0.0929006012353,0.030185174942,0.0,0.0,-0.00820764138091
1505419091288490169,0.0152353122178,0.0721994103439,0.0311842679977,0.0,0.0,-0.00861549046396
1505419091338498116,0.0128042177249,0.0569764283605,0.0314402699471,0.0,0.0,-0.00955145721484
1505419091388647254,0.0133205740925,0.0406633038763,0.0311752080917,0.0,0.0,-0.00996288867266
1505419091438537050,0.00744250163194,0.0183956882964,0.0300229907036,0.0,0.0,-0.010554615087
1505419091488916462,0.00895396655398,0.00278381003343,0.02845890522,0.0,0.0,-0.0112454231269
1505419091538498770,0.00824719987666,-0.0100291080728,0.0262668848038,0.0,0.0,-0.011437963788
1505419091588591365,0.00751263685761,-0.0206025802276,0.0235208392143,0.0,0.0,-0.01192424384
1505419091638539970,0.0057897414498,-0.0322645484574,0.0207756280899,0.0,0.0,-0.0120806448284
1505419091688511516,0.00463417064325,-0.0445487711279,0.0177869915962,0.0,0.0,-0.0113887614947
1505419091738556949,0.00395256954314,-0.0512754310337,0.0146076798439,0.0,0.0,-0.0119922335098
1505419091789197847,0.00336033993918,-0.0592623940875,0.0112660646439,0.0,0.0,-0.0119552112251
1505419091838533800,0.00241909122098,-0.062923783934,0.00807387828827,0.0,0.0,-0.0122470953103
1505419091888504008,0.00215316402617,-0.0651108057004,0.00496776103973,0.0,0.0,-0.0123115505027
1505419091938509960,0.00194977331627,-0.0666113329462,0.00211466550827,0.0,0.0,-0.012002418087
1505419091988937715,0.00221356015988,-0.0667038601918,-0.000597643852234,0.0,0.0,-0.0121626019466
1505419092038572457,0.00247634006324,-0.0652780940927,-0.00298928022385,0.0,0.0,-0.0120474435455
1505419092088504897,0.00190674574653,-0.0623915684922,-0.00485359430313,0.0,0.0,-0.011715509984
1505419092138655180,0.0,0.1,-0.00639479160309,0.0,0.0,-0.0117336707832
1505419092188830128,0.0,0.1,-0.00769560337067,0.0,0.0,-0.0114133555096
1505419092238518520,0.0,0.1,-0.00855277776718,0.0,0.0,-0.0113716478448
1505419092288522252,0.0,0.1,-0.00886868238449,0.0,0.0,-0.0106334748897
1505419092338509763,0.0,0.1,-0.00867276191711,0.0,0.0,-0.00992086795198
1505419092388446550,0.0,0.1,-0.00803451538086,0.0,0.0,-0.00979421352627
1505419092438539078,0.0,0.1,-0.00701849460602,0.0,0.0,-0.0093435275177
1505419092488682976,0.0,0.1,-0.0057541012764,0.0,0.0,-0.00908393843866
1505419092538497857,0.0,0.1,-0.00394229888916,0.0,0.0,-0.00860064515922
1505419092588511932,0.0,0.1,-0.00152997970581,0.0,0.0,-0.00902174945363
1505419092638449291,0.0,0.1,0.0001988530159,0.0,0.0,-0.00874517010948
1505419092688609229,0.0,0.1,0.00308723449707,0.0,0.0,-0.00948568893368
1505419092738543149,0.0,0.1,0.00546826124191,0.0,0.0,-0.00957895900423
1505419092788503323,0.0,0.1,0.00730718374252,0.0,0.0,-0.010084707421
1505419092838482898,0.0,0.1,0.0103212118149,0.0,0.0,-0.0105205714648
1505419092888584846,0.0,0.1,0.0124815225601,0.0,0.0,-0.0109254680236
1505419092938643187,0.0,0.1,0.0141016364098,0.0,0.0,-0.0110814267733
1505419092988436661,0.0,0.1,0.0160457015038,0.0,0.0,-0.0114403515305
1505419093038548837,0.0,0.1,0.0175493478775,0.0,0.0,-0.0115728654355
1505419093088506518,0.0,0.1,0.0183491230011,0.0,0.0,-0.0120503681481
1505419093138909819,0.0,0.1,0.0184554576874,0.0,0.0,-0.0128177908112
1505419093188720578,0.0,0.1,0.0181215524673,0.0,0.0,-0.0133151742341
1505419093238422565,0.0,0.1,0.0165591359138,0.0,0.0,-0.0144549034842
1505419093289087173,0.0,0.1,0.013577234745,0.0,0.0,-0.0148550146439
1505419093338592358,0.0,0.1,0.010723721981,0.0,0.0,-0.015465641582
1505419093388483072,0.0,0.1,0.00544364452362,0.0,0.0,-0.0164899427584
1505419093438538118,0.0,0.1,-0.000603008270264,0.0,0.0,-0.0161237443529
1505419093488722721,0.0,0.1,-0.00638424158096,0.0,0.0,-0.0165647955156
1505419093538597020,0.0,0.1,-0.0160666584969,0.0,0.0,-0.0157846899131
1505419093588556810,0.0,0.1,-0.0250284552574,0.0,0.0,-0.0153624577921
1505419093638626846,0.0,0.1,-0.0324646711349,0.0,0.0,-0.0147335131075
1505419093688470481,0.0,0.1,-0.044095146656,0.0,0.0,-0.0140019403365
1505419093738492985,0.0,0.1,-0.0539150714874,0.0,0.0,-0.0137427290878
1505419093788636519,0.0,0.1,-0.0635943889618,0.0,0.0,-0.0135145290483
1505419093838500891,0.0,0.1,-0.0726523280144,0.0,0.0,-0.0123151328455
1505419093888416678,0.0,0.1,-0.080343413353,0.0,0.0,-0.0122248141045
1505419093938560088,0.0,0.1,-0.0856966853142,0.0,0.0,-0.0116583675078
1505419093988482873,0.0,0.1,-0.088203895092,0.0,0.0,-0.0116576362002
1505419094038602877,0.0,0.1,-0.0876206040382,0.0,0.0,-0.011638794194
1505419094088608054,0.0,0.1,-0.0842907309532,0.0,0.0,-0.0114732648868
1505419094138559861,0.0,0.1,-0.0785645723343,0.0,0.0,-0.0104324388091
1505419094188563119,0.0,0.1,-0.07221596241,0.0,0.0,-0.0103685683555
1505419094238574652,0.0,0.1,-0.0599552869797,0.0,0.0,-0.00935127028508
1505419094288474267,0.0,0.1,-0.0475215792656,0.0,0.0,-0.00847752218238
1505419094338633264,0.0,0.1,-0.0365952134132,0.0,0.0,-0.0072137907282
1505419094388492283,0.0,0.1,-0.0189840078354,0.0,0.0,-0.00576875388185
1505419094438620544,0.0,0.1,-0.00448476076126,0.0,0.0,-0.00496490572343
1505419094488604700,0.0,0.1,0.00965858697891,0.0,0.0,-0.00332280689772
1505419094538427133,0.0,0.1,0.0227350711823,0.0,0.0,-0.00284587682673
1505419094588514231,0.0,0.1,0.034345638752,0.0,0.0,-0.00141074709131
1505419094638561274,0.0,0.1,0.0440597653389,0.0,0.0,-0.000517951367008
1505419094688482212,0.0,0.1,0.0520057797432,0.0,0.0,0.0017910003728
1505419094738550226,0.257344149667,-0.708930723407,0.058390390873,0.0,0.0,0.00339010242265
1505419094789152015,0.27743300325,-0.738134457705,0.062882733345,0.0,0.0,0.00472707143632
1505419094838483518,0.285488394943,-0.745106508499,0.0657163977623,0.0,0.0,0.00674112162825
1505419094888536308,0.303980153882,-0.774281529075,0.0668258786201,0.0,0.0,0.00775111467304
1505419094938603385,0.270753439915,-0.725462426307,0.0666219711304,0.0,0.0,0.00794396079706
1505419094988600017,0.3795119927,-0.89786410066,0.0640539646149,0.0,0.0,0.00725397570399
1505419095038556419,0.284087197856,-0.780341025767,0.0600751161575,0.0,0.0,0.00562469991149
1505419095088553369,0.209712614817,-0.656716444242,0.0562539815903,0.0,0.0,0.00407728412046
1505419095138479530,0.250054248826,-0.816835997026,0.0494695425034,0.0,0.0,0.00138179187999
1505419095188833385,0.140408041431,-0.602784698512,0.0435716629028,0.0,0.0,-0.000641414396942
1505419095238617533,0.109867272179,-0.584381568164,0.0379187583923,0.0,0.0,-0.00140412795742
1505419095288496404,0.0758458397223,-0.549137533643,0.0325065374374,0.0,0.0,-0.00138855391618
1505419095338567774,0.0434054519955,-0.51410099627,0.0274068832397,0.0,0.0,-0.00146311837122
1505419095388556055,0.01400116971,-0.477844119176,0.0227743506432,0.0,0.0,-0.00051655634572
1505419095438540697,0.0180646570039,-0.447526320656,0.019447517395,0.0,0.0,0.000805237112913
1505419095488498387,-0.032068768469,-0.419897241609,0.0164383172989,0.0,0.0,0.00114211487339
1505419095538489142,-0.0859886356929,-0.351050906715,0.0141915798187,0.0,0.0,0.00317854708458
1505419095588481900,-0.0713766769663,-0.319660605105,0.0138680458069,0.0,0.0,0.00463947959807
1505419095638652031,-0.0895997175121,-0.297079637561,0.0144728541374,0.0,0.0,0.0061957594481
1505419095688576688,-0.102363240239,-0.257796211717,0.0162433505058,0.0,0.0,0.0079378537344
1505419095738620649,-0.112641849017,-0.225919641503,0.0188555240631,0.0,0.0,0.0102723589198
1505419095788576897,-0.0875383182099,-0.246975858483,0.0214812874794,0.0,0.0,0.0107337922605
1505419095838515629,-0.150907085391,-0.0952336322399,0.0256278038025,0.0,0.0,0.0119986761269
1505419095888539661,-0.130231123219,-0.113718250196,0.0291698098183,0.0,0.0,0.0118287580712
1505419095938585517,-0.0971678815886,-0.14067689081,0.0321095108986,0.0,0.0,0.0115179507919
1505419095988495711,-0.14302362869,0.0353981521854,0.0363773822784,0.0,0.0,0.0108896796917
1505419096038513397,-0.12110439046,0.012231673583,0.0394663333893,0.0,0.0,0.010213534784
1505419096088533116,-0.10913583233,0.0535030569123,0.0420469760895,0.0,0.0,0.00886724741731
1505419096138529449,-0.0994858927284,0.0888541698461,0.0439335227013,0.0,0.0,0.00770561169275
1505419096188562052,-0.0728305618054,0.0391131805755,0.0452607989311,0.0,0.0,0.00699309915292
1505419096238589323,-0.0865005352326,0.224978066549,0.047034573555,0.0,0.0,0.00492435392493
1505419096288515107,-0.0630121004719,0.181887134755,0.0478541374207,0.0,0.0,0.00354422792214
1505419096338537750,-0.0457107896443,0.116711550807,0.0480799198151,0.0,0.0,0.0026197012532
1505419096388853261,-0.042095712077,0.314985893893,0.0469724655151,0.0,0.0,0.000797236865732
1505419096438615057,-0.0245485611612,0.235535501532,0.0450753092766,0.0,0.0,0.000347504673707
1505419096488511276,-0.0111894350146,0.250829201378,0.0420874476433,0.0,0.0,-0.00049523291187
1505419096538619888,0.000630651504912,0.248895382702,0.0383424282074,0.0,0.0,-0.00104610061194
1505419096589290122,0.00415394007227,0.175186415432,0.0349861502647,0.0,0.0,-0.00174807160473
1505419096638579761,0.0360353038501,0.321927154766,0.0301088213921,0.0,0.0,-0.00251778867968
1505419096688787896,0.0340218418638,0.220969537943,0.0263683319092,0.0,0.0,-0.00275757091934
1505419096738713828,0.0306539115164,0.16418792189,0.0237941861153,0.0,0.0,-0.00315292702458
1505419096788507822,0.0697563804501,0.269067489802,0.0204190135002,0.0,0.0,-0.00348103418933
1505419096838508307,0.0603178380415,0.191604755575,0.0180068731308,0.0,0.0,-0.0033250378794
1505419096888514460,0.0538719083641,0.142243176419,0.0161646127701,0.0,0.0,-0.002672933961
1505419096938524324,0.0783306923589,0.173857120641,0.0138221502304,0.0,0.0,-0.00174999272552
1505419096988405173,0.101177359483,0.179243825537,0.0107367753983,0.0,0.0,-0.000924933912948
1505419097038653228,0.0702055673092,0.104324012703,0.00844038724899,0.0,0.0,-0.000293163766788
1505419097088506179,0.111050707908,0.131686988344,0.00452245473862,0.0,0.0,0.00104111222527
1505419097138532463,0.0891021286192,0.0851448757395,0.000774991512299,0.0,0.0,0.00153131025148
1505419097188492924,0.0905723480882,0.0665833877109,-0.00328384637833,0.0,0.0,0.0020399673337
1505419097238499992,0.0876065457839,0.0493746999793,-0.00758545398712,0.0,0.0,0.00307916003138
1505419097288539836,0.0830915652299,0.0311718711266,-0.0118436098099,0.0,0.0,0.00373311364699
1505419097338559343,0.0687235931823,0.0185758619214,-0.0151097655296,0.0,0.0,0.00371216202928
1505419097388576927,0.0854226336793,-0.00889907462595,-0.019596683979,0.0,0.0,0.00405616031657
1505419097438599267,0.0635913374627,-0.0135374607326,-0.022799539566,0.0,0.0,0.0045313606393
1505419097488509014,0.0593675482955,-0.02551090485,-0.0255524992943,0.0,0.0,0.00425552732857
1505419097538743579,0.0517096031317,-0.0350136010635,-0.0275667786598,0.0,0.0,0.00415391968167
1505419097588654304,0.0441279284533,-0.0287444432628,-0.0286174297333,0.0,0.0,0.00379368229574
1505419097638603229,0.0386842566404,-0.0602887746513,-0.0297149896622,0.0,0.0,0.00357158194683
1505419097688787151,0.0305544562264,-0.0479005454346,-0.029907810688,0.0,0.0,0.00341028685889
1505419097738528236,0.0286940277259,-0.0326672682176,-0.0297721505165,0.0,0.0,0.0020983322155
1505419097788537898,0.012145733168,-0.0597651971868,-0.028725373745,0.0,0.0,0.00078997878367
1505419097838710009,0.0104371871926,-0.0453187081399,-0.0276719212532,0.0,0.0,-0.000221027739429
1505419097888588470,0.00369267283702,-0.0429916371109,-0.0262983322144,0.0,0.0,-0.0017489950287
1505419097938500809,-0.00294363524232,-0.0410999840129,-0.024823653698,0.0,0.0,-0.00313144346727
1505419097988571841,-0.0102826368027,-0.0376095209088,-0.0231037020683,0.0,0.0,-0.00462140312129
1505419098038577149,-0.00749222849015,-0.0287321995196,-0.0215716838837,0.0,0.0,-0.00578552077371
1505419098088480147,-0.0311316883659,-0.0347088335155,-0.0191977500916,0.0,0.0,-0.00731401346268
1505419098138589908,-0.0182534157188,-0.0256539318809,-0.0176504731178,0.0,0.0,-0.00767455185326
1505419098188474673,-0.0421649685442,-0.0238141462075,-0.0153092026711,0.0,0.0,-0.00841054821998
1505419098238589376,-0.0385169862133,-0.0182444511717,-0.0132366299629,0.0,0.0,-0.00913013789958
1505419098288504711,-0.0305964667124,-0.00707070841971,-0.011486697197,0.0,0.0,-0.0103954915272
1505419098338603406,-0.053512455096,-0.00755233152606,-0.00851880311966,0.0,0.0,-0.0109977365551
1505419098388533096,-0.0478653642013,0.00206854059913,-0.00564162731171,0.0,0.0,-0.0119134825129
1505419098438478450,-0.0395772531716,0.00111659753637,-0.00317798852921,0.0,0.0,-0.012458983148
1505419098488660172,-0.0549834048525,0.0171021817676,0.000304889678955,0.0,0.0,-0.0133973098917
1505419098538602690,0.0,0.1,0.00315434932709,0.0,0.0,-0.0146296383633
1505419098588576207,0.0,0.1,0.00546945333481,0.0,0.0,-0.0153490815606
1505419098638564584,0.0,0.1,0.00856168270111,0.0,0.0,-0.0167393786391
1505419098688525668,0.0,0.1,0.0105453252792,0.0,0.0,-0.0173660267107
1505419098738575276,0.0,0.1,0.0133829832077,0.0,0.0,-0.018602662357
1505419098788511965,0.0,0.1,0.0157168030739,0.0,0.0,-0.0195936198214
1505419098838861323,0.0,0.1,0.0176395893097,0.0,0.0,-0.0199941668165
1505419098888534673,0.0,0.1,0.0206911683083,0.0,0.0,-0.0214923635431
1505419098938475284,0.0,0.1,0.0231573104858,0.0,0.0,-0.0225114154195
1505419098988509388,0.0,0.1,0.0250584602356,0.0,0.0,-0.0227089663911
1505419099038489836,0.0,0.1,0.0278577923775,0.0,0.0,-0.0241566905171
1505419099089214437,0.0,0.1,0.0296496272087,0.0,0.0,-0.025288740007
1505419099138572135,0.0,0.1,0.0306512832642,0.0,0.0,-0.0258414898699
1505419099188432992,0.0,0.1,0.0320034146309,0.0,0.0,-0.0271791007237
1505419099238497507,0.0,0.1,0.0328509926796,0.0,0.0,-0.0278357768188
1505419099288495108,0.0,0.1,0.033339035511,0.0,0.0,-0.0290268580592
1505419099338534316,0.0,0.1,0.0335953354836,0.0,0.0,-0.029312892612
1505419099388480697,0.0,0.1,0.0334352374077,0.0,0.0,-0.0300913855772
1505419099438521354,0.0,0.1,0.033113193512,0.0,0.0,-0.0309476793587
1505419099488433141,0.0,0.1,0.031956744194,0.0,0.0,-0.0311421640986
1505419099538526759,0.0,0.1,0.0303063511848,0.0,0.0,-0.0315171593839
1505419099588501937,0.0,0.1,0.0282698988914,0.0,0.0,-0.0319392250868
1505419099638486643,0.0,0.1,0.0245416879654,0.0,0.0,-0.0314673482323
1505419099688588484,0.0,0.1,0.0204587101936,0.0,0.0,-0.0314097313735
1505419099738544028,0.0,0.1,0.0166541457176,0.0,0.0,-0.0312718928093
1505419099788471241,0.0,0.1,0.0100214600563,0.0,0.0,-0.030692971888
1505419099838534987,0.0,0.1,0.00295723676682,0.0,0.0,-0.0309779722774
1505419099888470629,0.0,0.1,-0.00312684774399,0.0,0.0,-0.0306224339387
1505419099938597707,0.0,0.1,-0.0129818797112,0.0,0.0,-0.0300558276597
1505419099988474360,0.0,0.1,-0.0204909324646,0.0,0.0,-0.0290260726854
1505419100038500581,0.0,0.1,-0.0260582447052,0.0,0.0,-0.0289712850119
1505419100088642200,0.0,0.1,-0.0339664101601,0.0,0.0,-0.0271742749038
1505419100138811139,0.0,0.1,-0.0402436733246,0.0,0.0,-0.0258963161772
1505419100188782815,0.0,0.1,-0.046501147747,0.0,0.0,-0.0240333037789
1505419100238849803,0.0,0.1,-0.0529367208481,0.0,0.0,-0.0230008218841
1505419100288691604,0.0,0.1,-0.0585006356239,0.0,0.0,-0.021646907728
1505419100338555476,0.0,0.1,-0.0671580910683,0.0,0.0,-0.0196044250257
1505419100388576628,0.0,0.1,-0.072979080677,0.0,0.0,-0.0185362431115
1505419100438587128,0.0,0.1,-0.081414270401,0.0,0.0,-0.0170974434234
1505419100488537829,0.0,0.1,-0.087973344326,0.0,0.0,-0.0158455137602
1505419100538585272,0.0,0.1,-0.0927342057228,0.0,0.0,-0.0145727373666
1505419100588498034,0.0,0.1,-0.0979012131691,0.0,0.0,-0.0130126086428
1505419100638603013,0.0,0.1,-0.100513982773,0.0,0.0,-0.0119447868098
1505419100688564120,0.0,0.1,-0.101494002342,0.0,0.0,-0.0111642343298
1505419100738478626,0.0,0.1,-0.101422595978,0.0,0.0,-0.00986353903186
1505419100788602244,0.0,0.1,-0.0998697757721,0.0,0.0,-0.00918311798109
1505419100838603674,0.0,0.1,-0.097959446907,0.0,0.0,-0.008480127977
1505419100888554972,0.0,0.1,-0.0944656014442,0.0,0.0,-0.00694886853145
1505419100938348021,0.0,0.1,-0.0888143062592,0.0,0.0,-0.00579025449863
1505419100988512358,0.0,0.1,-0.0844116091728,0.0,0.0,-0.0043536645445
1505419101038512323,-0.0871915807614,-0.761014505754,-0.0773726582527,0.0,0.0,-0.0027228703849
1505419101088557057,-0.101834930455,-0.853967155054,-0.0711179852486,0.0,0.0,-0.000506624641887
1505419101138553382,-0.0931098179127,-0.804272739798,-0.0660190463066,0.0,0.0,0.000721294565709
1505419101189221456,-0.0765517617964,-0.829130804999,-0.0580580115318,0.0,0.0,0.00270248752008
1505419101238565801,-0.10488687072,-0.945759475823,-0.0525871992111,0.0,0.0,0.0047567105601
1505419101288590483,-0.065869296001,-0.872000059754,-0.0444415688515,0.0,0.0,0.00706108180422
1505419101338529947,-0.0852187057665,-1.04048012231,-0.0383516430855,0.0,0.0,0.00888179981116
1505419101388572186,-0.0615436518453,-0.918661993333,-0.0340908646584,0.0,0.0,0.0104019717563
1505419101438481587,-0.0289973908322,-0.84383300995,-0.0294249534607,0.0,0.0,0.0122738235451
1505419101488568670,-0.00156828622298,-0.881782090961,-0.0249686717987,0.0,0.0,0.0139003919804
1505419101538750601,-0.00776015717551,-0.839494001573,-0.022683608532,0.0,0.0,0.0150391955278
1505419101588468110,0.0337285486802,-0.737214864059,-0.0199186086655,0.0,0.0,0.0161378862278
1505419101638643718,0.0433752050135,-0.735750484703,-0.018644618988,0.0,0.0,0.0173285670598
1505419101688501535,0.034459154839,-0.655279483485,-0.0180557847023,0.0,0.0,0.0173375010758
1505419101738585104,0.070813579689,-0.570950931563,-0.0172858715057,0.0,0.0,0.0173585067229
1505419101788492980,0.0636539466675,-0.548982551257,-0.0171936035156,0.0,0.0,0.0175002701352
1505419101838600137,0.0472012246378,-0.504145495239,-0.0169434428215,0.0,0.0,0.0177277313621
1505419101888528170,0.0763600815356,-0.402333513387,-0.0165185809135,0.0,0.0,0.0190166621198
1505419101938534213,0.0652402690904,-0.382930893406,-0.016192483902,0.0,0.0,0.0192701305969
1505419101988513894,0.064540152201,-0.32780860124,-0.0154910564423,0.0,0.0,0.0198304934358
1505419102038568407,0.06549799638,-0.285262406528,-0.014412689209,0.0,0.0,0.0207358083585
1505419102088484326,0.0582907901265,-0.310304056803,-0.0135327458382,0.0,0.0,0.0210075945111
1505419102138553103,0.0723237361615,-0.147478575481,-0.0114489674568,0.0,0.0,0.0204246447416
1505419102189301999,0.0680898761409,-0.172322287021,-0.00974403619766,0.0,0.0,0.020008256603
1505419102238594317,0.0569183270728,-0.202500288638,-0.00821976661682,0.0,0.0,0.0193259843217
1505419102288510949,0.0665692479788,-0.0267633817557,-0.00499759912491,0.0,0.0,0.0176956538376
1505419102338452195,0.0607152089134,-0.0548088360076,-0.00215433835983,0.0,0.0,0.016611044691
1505419102388565394,0.0504122668062,-0.103755975094,0.000937652587891,0.0,0.0,0.0158539188282
1505419102438570518,0.0586236730403,0.0830925905642,0.00496346950531,0.0,0.0,0.0150992106511
1505419102488507687,0.0543468155014,0.0427733395242,0.00809307098389,0.0,0.0,0.0147466835087
1505419102538544408,0.0446961238124,-0.0137510968062,0.0105879426003,0.0,0.0,0.0143919943052
1505419102588632690,0.0469377092896,0.163393054372,0.0143497109413,0.0,0.0,0.0131422227613
1505419102638550577,0.0421283578024,0.126582950398,0.0175359964371,0.0,0.0,0.011963460803
1505419102688519723,0.0389555829849,0.0626872302298,0.019720864296,0.0,0.0,0.0112221262904
1505419102738463589,0.0365244837535,0.240492718726,0.0221979737282,0.0,0.0,0.0110981151729
1505419102788511220,0.0326955237071,0.194148280491,0.0233605027199,0.0,0.0,0.0102048564392
1505419102838436850,0.0306810196784,0.126765246594,0.0230721950531,0.0,0.0,0.00898215889999
1505419102889140554,0.0274336942299,0.3278603514,0.019665312767,0.0,0.0,0.00767704966905
1505419102938441606,0.0219924253477,0.245315693188,0.0142446279526,0.0,0.0,0.00565945913876
1505419102988507339,0.0179863168195,0.252648350546,0.00662602186203,0.0,0.0,0.00510021429876
1505419103038715421,0.0148375261365,0.252452082081,-0.0025985121727,0.0,0.0,0.00327934361073
1505419103088547862,0.011776989388,0.241329320116,-0.0125000953674,0.0,0.0,0.00168311453226
1505419103138637157,0.0109003221584,0.156447528303,-0.0203619480133,0.0,0.0,-0.00013679606935
1505419103188434098,0.0025573132509,0.309381389653,-0.0313535809517,0.0,0.0,-0.00303350429904
1505419103238512024,0.0046356958551,0.132710593793,-0.0375494837761,0.0,0.0,-0.00491126073522
1505419103288442749,-0.00211226725238,0.193063965143,-0.0438405156136,0.0,0.0,-0.00815334120611
1505419103338525768,-0.00928045210747,0.199762066355,-0.0486609816551,0.0,0.0,-0.0118874744526
1505419103388569572,-0.00345063379012,0.114830186169,-0.0502346634865,0.0,0.0,-0.0140526533448
1505419103438528202,-0.0158833681351,0.153057548817,-0.0504813075066,0.0,0.0,-0.0181545865568
1505419103488655838,-0.0129895451267,0.109351197984,-0.0493218779564,0.0,0.0,-0.0212699128935
1505419103538536375,-0.00859176796931,0.0819917088396,-0.0476876974106,0.0,0.0,-0.0234217651282
1505419103588597667,-0.0166283966896,0.0830868492493,-0.0446615099907,0.0,0.0,-0.0270175434902
1505419103638500019,-0.00968591826778,0.0494150451805,-0.042103934288,0.0,0.0,-0.029649139924
1505419103688921147,-0.0160869725853,0.035655048532,-0.0381009459496,0.0,0.0,-0.0328731522952
1505419103738644990,-0.00884665856339,0.0207862233851,-0.03544049263,0.0,0.0,-0.03425731394
1505419103788578641,-0.0108777615112,0.0019650669802,-0.0323141098022,0.0,0.0,-0.0368851637018
1505419103838570638,-0.0122907770443,-0.02880719724,-0.0288551926613,0.0,0.0,-0.0399112183544
1505419103888632366,-0.00554334626965,-0.0185811098084,-0.026844727993,0.0,0.0,-0.0407561745486
1505419103938634237,-0.00745223653948,-0.0424231463897,-0.0243722081184,0.0,0.0,-0.0429468306259
1505419103988600371,-0.00650989178014,-0.0556056241191,-0.0223379611969,0.0,0.0,-0.0444845313976
1505419104038656572,-0.00528976829612,-0.0640098089476,-0.02055798769,0.0,0.0,-0.0451083778291
1505419104088785961,-0.00466535923415,-0.0727932152691,-0.018955218792,0.0,0.0,-0.0453906122514
1505419104138592622,-0.00455130551367,-0.0802436869305,-0.0174698114395,0.0,0.0,-0.0461845886433
1505419104188496596,-0.00313061065378,-0.0879727288412,-0.0161610126495,0.0,0.0,-0.0463707278983
1505419104238707699,-0.0016034973999,-0.0909973101524,-0.014879989624,0.0,0.0,-0.0464860058043
1505419104288471769,0.000163793821134,-0.0953803857876,-0.0138063907623,0.0,0.0,-0.0464842028013
1505419104338515743,0.00395892284228,-0.109584026969,-0.0127029895782,0.0,0.0,-0.0463441742022
1505419104389044360,0.00591282377924,-0.0818463183224,-0.0119024991989,0.0,0.0,-0.0462408315602
1505419104438547834,0.0096787079598,-0.093921886845,-0.0110110521317,0.0,0.0,-0.046650044019
1505419104488596021,0.0133491445836,-0.0892615822562,-0.00994955301285,0.0,0.0,-0.0466176393891
1505419104538413782,0.0189361958413,-0.0850562802554,-0.0088577747345,0.0,0.0,-0.0466390615666
1505419104588534149,0.0256311857274,-0.0805112855111,-0.00791006088257,0.0,0.0,-0.0463782146556
1505419104638520576,0.0328774851514,-0.0730972531469,-0.0071498632431,0.0,0.0,-0.0465824522426
1505419104688535087,0.0401495354481,-0.0644081530809,-0.00660704374313,0.0,0.0,-0.0468736004294
1505419104738536719,0.0470545194605,-0.0547433625312,-0.00616632699966,0.0,0.0,-0.0470155691586
1505419104789239106,0.0538144322503,-0.0446089021996,-0.00576643943787,0.0,0.0,-0.0477066152894
1505419104838540421,0.0606727372946,-0.0378920733032,-0.00582985877991,0.0,0.0,-0.0480716537004
1505419104888627105,0.0652587264141,-0.0285405657265,-0.0062793970108,0.0,0.0,-0.048774970183
1505419104938520374,0.068793179881,-0.0182596672936,-0.00687174797058,0.0,0.0,-0.0491321281822
1505419104988518862,0.0708072033121,-0.00866118301563,-0.00749002695084,0.0,0.0,-0.0498197636622
1505419105038735868,0.0807829230061,0.00312651024895,-0.00798927545547,0.0,0.0,-0.0511389345175
1505419105088603879,0.0643249889078,-0.00149599709791,-0.00831048488617,0.0,0.0,-0.0518388857174
1505419105138540647,0.0707845883271,0.0103330213015,-0.00846289396286,0.0,0.0,-0.0528573954572
1505419105188518410,0.0700891069959,0.0152940123755,-0.00861661434174,0.0,0.0,-0.0540834906777
1505419105238488611,0.0673637377848,0.0172988393534,-0.00872449874878,0.0,0.0,-0.0550746980838
1505419105288528930,0.0617615733639,0.0172437778628,-0.0086409330368,0.0,0.0,-0.0564075500778
1505419105338433250,0.0587581974662,0.0284335915863,-0.00837593078613,0.0,0.0,-0.0576028978917
1505419105388491568,0.0469081872078,0.00855193501834,-0.00808327198029,0.0,0.0,-0.0588384001238
1505419105438525687,0.0430619449329,0.0130815464618,-0.00771235227585,0.0,0.0,-0.0597700019657
1505419105488476057,0.0356993654256,0.0109930990707,-0.0072861790657,0.0,0.0,-0.0609297419224
1505419105538696750,0.0,0.1,-0.00656305551529,0.0,0.0,-0.0615243133257
1505419105588618585,0.0,0.1,-0.00561295747757,0.0,0.0,-0.0624115422996
1505419105638575841,0.0,0.1,-0.00474541187286,0.0,0.0,-0.063041306736
1505419105688498122,0.0,0.1,-0.00394080877304,0.0,0.0,-0.0634523320938
1505419105738606187,0.0,0.1,-0.00292073488235,0.0,0.0,-0.0639127483963
1505419105788458808,0.0,0.1,-0.00194625854492,0.0,0.0,-0.0644766902776
1505419105838422332,0.0,0.1,-0.00104902982712,0.0,0.0,-0.0647577265876
1505419105888546722,0.0,0.1,-0.00036256313324,0.0,0.0,-0.0651375545402
1505419105938541363,0.0,0.1,0.000549209117889,0.0,0.0,-0.0651804705388
1505419105988425363,0.0,0.1,0.00161595344543,0.0,0.0,-0.0650129884893
1505419106038528476,0.0,0.1,0.00265063047409,0.0,0.0,-0.0647403760189
1505419106089102947,0.0,0.1,0.00377572774887,0.0,0.0,-0.0647906037684
1505419106138736831,0.0,0.1,0.0051221370697,0.0,0.0,-0.0641986246184
1505419106188466268,0.0,0.1,0.00658745765686,0.0,0.0,-0.0636062444299
1505419106238493566,0.0,0.1,0.00818808078766,0.0,0.0,-0.062521773009
1505419106289270106,0.0,0.1,0.00993461608887,0.0,0.0,-0.0611910038521
1505419106338644834,0.0,0.1,0.011726629734,0.0,0.0,-0.0607503650305
1505419106388504153,0.0,0.1,0.0138818740845,0.0,0.0,-0.0593258554239
1505419106438639142,0.0,0.1,0.0162667751312,0.0,0.0,-0.0581347898017
1505419106488483976,0.0,0.1,0.0186768889427,0.0,0.0,-0.056710749032
1505419106538549752,0.0,0.1,0.0209784626961,0.0,0.0,-0.0551901417671
1505419106588488088,0.0,0.1,0.0230910897255,0.0,0.0,-0.0537976922721
1505419106638765569,0.0,0.1,0.0248306512833,0.0,0.0,-0.0531936329318
1505419106688807091,0.0,0.1,0.0262146711349,0.0,0.0,-0.0514005383955
1505419106738495460,0.0,0.1,0.0270620703697,0.0,0.0,-0.0501196358912
1505419106788496990,0.0,0.1,0.02801258564,0.0,0.0,-0.0478135104055
1505419106838452756,0.0,0.1,0.0293334841728,0.0,0.0,-0.0459468271955
1505419106888581253,0.0,0.1,0.0311792016029,0.0,0.0,-0.0442438448483
1505419106938513717,0.0,0.1,0.0328689336777,0.0,0.0,-0.0427438231376
1505419106988645264,0.0,0.1,0.03367228508,0.0,0.0,-0.0405960619787
1505419107038525550,0.0,0.1,0.0332229852676,0.0,0.0,-0.0382167593558
1505419107088643163,0.0,0.1,0.0314977884293,0.0,0.0,-0.0362413287598
1505419107138564813,0.0,0.1,0.0283149003983,0.0,0.0,-0.0339002077836
1505419107188484409,0.0,0.1,0.0235487937927,0.0,0.0,-0.0320221322393
1505419107238559472,0.0,0.1,0.0176273107529,0.0,0.0,-0.0302072344037
1505419107288561553,0.0,0.1,0.0113761544228,0.0,0.0,-0.0279524580002
1505419107338847533,0.0,0.1,0.00548048019409,0.0,0.0,-0.0257555927591
1505419107389024242,0.0,0.1,0.000715029239654,0.0,0.0,-0.0231236029873
1505419107438441924,0.0,0.1,-0.00274436473846,0.0,0.0,-0.021070812575
1505419107488496530,0.0,0.1,-0.00453280210495,0.0,0.0,-0.0186021075248
1505419107538561253,0.0,0.1,-0.00509153604507,0.0,0.0,-0.0172633571699
1505419107588516736,0.0,0.1,-0.00465993881226,0.0,0.0,-0.0148084063774
1505419107638522145,0.0,0.1,-0.00342147350311,0.0,0.0,-0.012999476951
1505419107688454573,-0.0360069093672,-0.554636842834,-0.00145863294601,0.0,0.0,-0.0106515000712
1505419107739172575,-0.042860863077,-0.581436929443,0.000812780857086,0.0,0.0,-0.0083059594254
1505419107788556550,-0.053015530809,-0.608155486468,0.00330109596252,0.0,0.0,-0.00643046651906
1505419107838738282,-0.0602969491711,-0.630809426599,0.00610370635986,0.0,0.0,-0.00442385961956
1505419107888796963,-0.0702328858355,-0.653936307625,0.00894726514816,0.0,0.0,-0.00281258931325
1505419107938539144,-0.0799854696576,-0.682826043357,0.0112367391586,0.0,0.0,-0.00137864912524
1505419107988515212,-0.00364429847551,-0.460814255215,0.0112367391586,0.0,0.0,-0.00137864912524
1505419108038468929,-0.157526671636,-0.76872859158,0.0146502971649,0.0,0.0,0.000612078952342
1505419108088544056,-0.107812766176,-0.693128795738,0.0156271576881,0.0,0.0,0.00233218591959
1505419108138453160,-0.0946624589206,-0.595589739514,0.0160111904144,0.0,0.0,0.00301188648967
1505419108188532342,-0.0938327539212,-0.55695503321,0.0158664107323,0.0,0.0,0.00438275046266
1505419108238513971,-0.0934142105957,-0.510976178949,0.0154255747795,0.0,0.0,0.00557140570583
1505419108288799640,-0.0902619078643,-0.46468945441,0.0149316906929,0.0,0.0,0.00720137014724
1505419108338515218,-0.0864053978836,-0.426115788775,0.0144221901894,0.0,0.0,0.0096970162315
1505419108388656367,-0.0822143908182,-0.38138696477,0.0141753077507,0.0,0.0,0.011222445519
1505419108438487343,-0.0778306896623,-0.335762330806,0.0145644664764,0.0,0.0,0.0117469713956
1505419108488614533,-0.0751869239536,-0.298633929595,0.0155478239059,0.0,0.0,0.0122881951046
1505419108538513867,-0.0727389593249,-0.259643148495,0.0173325657845,0.0,0.0,0.0133511599285
1505419108588501587,-0.0709150701106,-0.226012658533,0.0196801543236,0.0,0.0,0.013688566419
1505419108638521004,-0.0697810634125,-0.190835024321,0.0221410512924,0.0,0.0,0.0139282083728
1505419108688570244,-0.0656486500194,-0.152075791762,0.0247727155685,0.0,0.0,0.0140209845599
1505419108738512705,-0.0597356699446,-0.112862218098,0.0275783658028,0.0,0.0,0.0138503424776
1505419108788572082,-0.0524496976703,-0.074449547316,0.0308191299438,0.0,0.0,0.0137029855529
1505419108838703901,-0.0466767096473,-0.0404156195313,0.0340297937393,0.0,0.0,0.0125145514047
1505419108888603432,-0.0415243979207,-0.00431796221621,0.036577296257,0.0,0.0,0.0115770939475
1505419108938523134,-0.0338430640508,0.0350712427876,0.038269174099,0.0,0.0,0.0110420151589
1505419108988538693,-0.0268004210862,0.0672375752074,0.0391805291176,0.0,0.0,0.01048338782
1505419109038582252,-0.0204754666178,0.0961824195136,0.0393585681915,0.0,0.0,0.0100176122301
1505419109088471527,-0.0123032514326,0.12525560615,0.0388189673424,0.0,0.0,0.00911441180199
1505419109138429938,-0.00543244849624,0.143740874296,0.0378475308418,0.0,0.0,0.00906016354283
1505419109188522498,0.0030088586897,0.164066683193,0.0362675905228,0.0,0.0,0.00889038858389
1505419109238537762,0.0100276489775,0.184342044721,0.0339771032333,0.0,0.0,0.00846433012348
1505419109288436963,0.0165147619892,0.195590891435,0.0308993577957,0.0,0.0,0.00826437291963
1505419109338556867,0.0217389977664,0.202582777466,0.026916217804,0.0,0.0,0.00807904947891
1505419109388538562,0.0292364753593,0.216683208994,0.0214904665947,0.0,0.0,0.007827641895
1505419109438443212,0.0363610287844,0.217838583728,0.0146367669106,0.0,0.0,0.00775949248707
1505419109488556823,0.0426326565513,0.213925700708,0.00652517080307,0.0,0.0,0.00805771622391
1505419109538414200,0.0471810748267,0.207304774752,-0.00259857177734,0.0,0.0,0.00973582298635
1505419109588681592,0.0492823227136,0.197187167989,-0.0125380039215,0.0,0.0,0.0104408343771
1505419109638525895,0.0494488226715,0.181697237077,-0.0228718996048,0.0,0.0,0.0114217605264
1505419109688686578,0.0452867694099,0.16417485553,-0.033082473278,0.0,0.0,0.0115475952756
1505419109738548239,0.0438535850012,0.151677548902,-0.0432978153229,0.0,0.0,0.0124593137752
1505419109788526758,0.0403771403945,0.13492884859,-0.0531772255898,0.0,0.0,0.0121421188913
1505419109838449464,0.0374442634566,0.116978381071,-0.0626592516899,0.0,0.0,0.0129760390382
1505419109888598468,0.0335092933428,0.0965260150989,-0.0714295387268,0.0,0.0,0.0132028594796
1505419109938390283,0.0287930866924,0.0790516790962,-0.0791545391083,0.0,0.0,0.0136311855747
1505419109988532742,0.0238247982591,0.0597507960479,-0.0856540679932,0.0,0.0,0.0136231287575
1505419110038433329,0.0189031246544,0.0408356621332,-0.0908160090446,0.0,0.0,0.0130191867193
1505419110088539853,0.0140196711805,0.027206684372,-0.0949845194817,0.0,0.0,0.0123791496483
1505419110138572711,0.00917473461966,0.00967720710723,-0.0980598807335,0.0,0.0,0.0118295808576
1505419110188451826,0.00397283185684,-0.00415052680012,-0.10017799139,0.0,0.0,0.0112216974136
1505419110238718037,-0.000862876630805,-0.0182206768291,-0.101180362701,0.0,0.0,0.0102801070943
1505419110288611645,-0.00591039343041,-0.0321554841385,-0.100990462303,0.0,0.0,0.00951160151017
1505419110338700454,-0.0100122661161,-0.0459238119252,-0.0995599508286,0.0,0.0,0.0087985425163
1505419110388445000,-0.0139058401817,-0.0579592914236,-0.0971338629723,0.0,0.0,0.00821096607049
1505419110438483023,-0.0178138066413,-0.0697905524107,-0.0938272356987,0.0,0.0,0.00678892521357
1505419110488545809,-0.0201266554728,-0.0797576607798,-0.089684176445,0.0,0.0,0.00587712149622
1505419110538716520,-0.0212029803333,-0.0876045256223,-0.0849496603012,0.0,0.0,0.00485947837798
1505419110588572239,-0.0216911472792,-0.0950043192047,-0.0798369526863,0.0,0.0,0.00384609216901
1505419110638608784,-0.020890235249,-0.0975176890695,-0.0742654681206,0.0,0.0,0.00285981031879
1505419110688673271,-0.0200462280995,-0.101567151595,-0.0684056758881,0.0,0.0,0.00150484654058
1505419110738764024,-0.0192326877729,-0.104397813013,-0.0626661658287,0.0,0.0,0.00130198500242
1505419110788533847,-0.0182792118618,-0.104992264879,-0.0571893334389,0.0,0.0,0.000638666192189
1505419110838559574,-0.0162550761064,-0.10307074277,-0.0520422935486,0.0,0.0,-0.000185848396977
1505419110888499907,-0.0145004297803,-0.0993577721897,-0.0470470070839,0.0,0.0,-0.0011972288111
1505419110938557838,-0.0129068228755,-0.0998088714434,-0.042404282093,0.0,0.0,-0.00143188474332
1505419110988532022,-0.0119927587325,-0.0968818451041,-0.0380658984184,0.0,0.0,-0.00240652948295
1505419111038451000,-0.0117336226831,-0.095357796509,-0.0341894507408,0.0,0.0,-0.00261348596345
1505419111088467529,-0.0116842954799,-0.0904863785516,-0.0305322885513,0.0,0.0,-0.00340024030234
1505419111138498544,-0.0119305178853,-0.0849137969026,-0.0272834777832,0.0,0.0,-0.0037335711732
1505419111188512238,-0.0123901060522,-0.0790168360095,-0.0240707874298,0.0,0.0,-0.0045519678733
1505419111238521229,-0.0127463913411,-0.0739194767275,-0.0208021879196,0.0,0.0,-0.00428109502231
1505419111288492043,-0.0143903879982,-0.0673649194414,-0.0176324129105,0.0,0.0,-0.00442431763819
1505419111338470492,-0.0154701332011,-0.0623105699033,-0.0146466970444,0.0,0.0,-0.00362297831463
1505419111388512119,-0.0169752973855,-0.0546752783818,-0.0120445966721,0.0,0.0,-0.00332319258461
1505419111438479963,-0.018416118109,-0.0483003209095,-0.00962649583817,0.0,0.0,-0.00223946517495
1505419111488519093,-0.0200777551535,-0.0417845029285,-0.00762830972672,0.0,0.0,-0.00165101267923
1505419111538574868,-0.0211480546015,-0.0343623099312,-0.00596927404404,0.0,0.0,-0.000437606042915
1505419111588523964,-0.0226861292083,-0.0256525624879,-0.00434594154358,0.0,0.0,0.000971081123898
1505419111638585941,-0.0245222587834,-0.0166945105333,-0.00305263996124,0.0,0.0,0.00129233816763
1505419111689142023,-0.0263270136506,-0.00914435946402,-0.0024142742157,0.0,0.0,0.00182070270657
1505419111738461381,-0.0132349640041,-0.0490086256289,-0.0024142742157,0.0,0.0,0.00182070270657
1505419111788560997,-0.0462093856184,0.0476242377409,-0.00294731855392,0.0,0.0,0.00284081835049
1505419111838661026,-0.0339999673148,0.0102115830379,-0.003932762146,0.0,0.0,0.00339251086425
1505419111888554188,-0.0369819954898,0.0150577928936,-0.00525807142258,0.0,0.0,0.00336075483202
1505419111938481195,-0.0398276562772,0.0168744301803,-0.00678097009659,0.0,0.0,0.00346892759819
1505419111988602933,-0.0422159424419,0.0181263476303,-0.00843291282654,0.0,0.0,0.00358095446637
1505419112038570306,-0.0450999485128,0.017891853041,-0.00992934703827,0.0,0.0,0.00307939044206
1505419112088559882,-0.0479110264254,0.0172433806219,-0.011291372776,0.0,0.0,0.00233517880989
1505419112138566591,-0.0508782112508,0.0156857599643,-0.0123607993126,0.0,0.0,0.0017246197401
1505419112188578414,-0.053613904839,0.0151416335558,-0.0133165597916,0.0,0.0,0.000701850919039
1505419112238379790,-0.0563933327745,0.0155586080012,-0.0141162157059,0.0,0.0,-0.000156118291169
1505419112288560522,-0.0584320747618,0.014930264652,-0.0145819067955,0.0,0.0,-0.000805131254763
1505419112338556777,-0.0609076756108,0.0151357911721,-0.0147822380066,0.0,0.0,-0.00108929407099
1505419112388606150,-0.0626318396755,0.0151230261524,-0.0145155072212,0.0,0.0,-0.000970515408452
1505419112438478613,0.0,0.1,-0.0139571905136,0.0,0.0,-0.00155388374687
1505419112489273440,0.0,0.1,-0.0132483720779,0.0,0.0,-0.0019164139559
1505419112538482363,0.0,0.1,-0.0124307751656,0.0,0.0,-0.00327553851011
1505419112588488220,0.0,0.1,-0.0116922140121,0.0,0.0,-0.00320344962968
1505419112638503719,0.0,0.1,-0.0111027240753,0.0,0.0,-0.00413626130441
1505419112688500889,0.0,0.1,-0.0103990316391,0.0,0.0,-0.00462619465754
1505419112738489946,0.0,0.1,-0.00959228277206,0.0,0.0,-0.00469330403507
1505419112788521866,0.0,0.1,-0.00850914716721,0.0,0.0,-0.00518744479105
1505419112838499103,0.0,0.1,-0.00728266239166,0.0,0.0,-0.00526261063314
1505419112888529284,0.0,0.1,-0.00542067289352,0.0,0.0,-0.00531879675956
1505419112938540995,0.0,0.1,-0.00304185152054,0.0,0.0,-0.00502232701255
1505419112988472424,0.0,0.1,0.000164937973022,0.0,0.0,-0.00565028582162
1505419113038503460,0.0,0.1,0.00395537614822,0.0,0.0,-0.00513188723608
1505419113088504141,0.0,0.1,0.00835580825806,0.0,0.0,-0.00526534391815
1505419113138546984,0.0,0.1,0.0129154443741,0.0,0.0,-0.00531301936415
1505419113188797966,0.0,0.1,0.0177825808525,0.0,0.0,-0.00603398987125
1505419113238431968,0.0,0.1,0.0230554461479,0.0,0.0,-0.00568988878806
1505419113288554562,0.0,0.1,0.0283942937851,0.0,0.0,-0.0061099022154
1505419113338505504,0.0,0.1,0.0335766792297,0.0,0.0,-0.00670211962474
1505419113388537877,0.0,0.1,0.0385902047157,0.0,0.0,-0.00678594984535
1505419113438685882,0.0,0.1,0.0434091210365,0.0,0.0,-0.00717043654896
1505419113488564990,0.0,0.1,0.0480294942856,0.0,0.0,-0.00741396692592
1505419113538496210,0.0,0.1,0.0526113033295,0.0,0.0,-0.00762107225839
1505419113588590883,0.0,0.1,0.056942653656,0.0,0.0,-0.00796987996258
1505419113638546477,0.0,0.1,0.0609889745712,0.0,0.0,-0.00850817320909
1505419113688574298,0.0,0.1,0.0648234605789,0.0,0.0,-0.00835665428741
1505419113738524565,0.0,0.1,0.0680270314217,0.0,0.0,-0.00781970774368
1505419113788442939,0.0,0.1,0.0707111477852,0.0,0.0,-0.00746287958531
1505419113838508411,0.0,0.1,0.0727648258209,0.0,0.0,-0.00671190577042
1505419113888497016,0.0,0.1,0.0742592334747,0.0,0.0,-0.00632810394904
1505419113938447593,0.0,0.1,0.0752978444099,0.0,0.0,-0.00597156233003
1505419113988643450,0.0,0.1,0.0756786584854,0.0,0.0,-0.00557956432246
1505419114038413295,0.0,0.1,0.0754149079323,0.0,0.0,-0.00454744835099
1505419114088634198,0.0,0.1,0.074554336071,0.0,0.0,-0.00396816026475
1505419114138597015,0.0,0.1,0.0732035756111,0.0,0.0,-0.0033685547417
1505419114188692408,0.0,0.1,0.070994746685,0.0,0.0,-0.00261028600203
1505419114238525893,0.0,0.1,0.0680770397186,0.0,0.0,-0.00198391636701
1505419114288505691,0.0,0.1,0.0641591072083,0.0,0.0,-0.001546874094
1505419114338571240,0.0,0.1,0.0593963980675,0.0,0.0,-0.00148817674048
1505419114388515979,0.0,0.1,0.0540093302727,0.0,0.0,-0.00134578162939
1505419114438619041,0.0,0.1,0.0478218317032,0.0,0.0,-0.000413105629699
1505419114488546131,0.0,0.1,0.0411839604378,0.0,0.0,-0.000415275911661
1505419114538523246,0.0,0.1,0.0341259360313,0.0,0.0,9.86124454142e-05
1505419114588523838,0.0,0.1,0.0268718123436,0.0,0.0,0.0012724493174
1505419114638511952,0.0,0.1,0.0194772601128,0.0,0.0,0.00161917653733
1505419114688521721,0.0,0.1,0.0119327425957,0.0,0.0,0.00186733672528
1505419114738385969,0.0,0.1,0.00454409122467,0.0,0.0,0.00154379606766
1505419114788563775,0.0,0.1,-0.00180988311768,0.0,0.0,0.0021496281377
1505419114838559585,0.0,0.1,-0.00673853158951,0.0,0.0,0.00300815136601
1505419114888419493,0.0,0.1,-0.0096911072731,0.0,0.0,0.00378887498569
1505419114938461395,0.0,0.1,-0.0111276984215,0.0,0.0,0.00412778980737
1505419114988581598,0.0,0.1,-0.0109535932541,0.0,0.0,0.0050417351844
1505419115038493877,0.0,0.1,-0.00902633666992,0.0,0.0,0.00617467961961
1505419115088491688,0.0,0.1,-0.00600271224976,0.0,0.0,0.00694799502836
1505419115138562510,0.0,0.1,-0.00225119590759,0.0,0.0,0.00834367608365
1505419115188473462,0.0,0.1,0.00151182413101,0.0,0.0,0.00897002412305
1505419115238491712,0.0,0.1,0.00517679452896,0.0,0.0,0.0096518721316
1505419115288551892,0.0,0.1,0.00825579166412,0.0,0.0,0.0100981788067
1505419115338440855,0.0,0.1,0.0108199834824,0.0,0.0,0.0107085488465
1505419115388669488,0.0,0.1,0.0122882843018,0.0,0.0,0.0119541532396
1505419115438540392,0.0,0.1,0.0127827048302,0.0,0.0,0.0124572999811
1505419115489189355,0.0,0.1,0.0122648596764,0.0,0.0,0.0133474196687
