%time,field.header.seq,field.header.stamp,field.header.frame_id,field.vector.x,field.vector.y,field.vector.z
1505419079904737185,15913,1505419079904558857,ardrone_base_link,0.896741807461,-0.275000810623,0.346740156412
1505419079913137669,15914,1505419079912919011,ardrone_base_link,0.896741807461,-0.275000810623,0.346740156412
1505419079918271089,15915,1505419079918089642,ardrone_base_link,0.899743855,-0.190086737275,0.392845928669
1505419079936057213,15916,1505419079935790613,ardrone_base_link,0.899743855,-0.190086737275,0.392845928669
1505419079937533745,15917,1505419079937330438,ardrone_base_link,0.910916209221,-0.279347628355,0.303638726473
1505419079938622409,15918,1505419079938463507,ardrone_base_link,0.910916209221,-0.279347628355,0.303638726473
1505419079945214716,15919,1505419079945025987,ardrone_base_link,0.905523180962,-0.26049298048,0.334919542074
1505419079947925922,15920,1505419079947043533,ardrone_base_link,0.905523180962,-0.26049298048,0.334919542074
1505419079947959735,15921,1505419079947062287,ardrone_base_link,0.935207307339,-0.182183235884,0.303638726473
1505419079954805040,15922,1505419079954581677,ardrone_base_link,0.935207307339,-0.182183235884,0.303638726473
1505419079955987936,15923,1505419079955815325,ardrone_base_link,0.934366345406,-0.211789697409,0.286539018154
1505419079960043612,15924,1505419079959825191,ardrone_base_link,0.934366345406,-0.211789697409,0.286539018154
1505419079964868157,15925,1505419079964701014,ardrone_base_link,0.925683677197,-0.240931361914,0.291653752327
1505419079971012520,15926,1505419079970797778,ardrone_base_link,0.925683677197,-0.240931361914,0.291653752327
1505419079980619142,15927,1505419079980430394,ardrone_base_link,0.934366345406,-0.211789697409,0.286539018154
1505419079980622443,15928,1505419079980454192,ardrone_base_link,0.934366345406,-0.211789697409,0.286539018154
1505419079985180642,15929,1505419079984993756,ardrone_base_link,0.903963506222,-0.326431274414,0.276211082935
1505419079992304772,15930,1505419079992101480,ardrone_base_link,0.903963506222,-0.326431274414,0.276211082935
1505419079996257223,15931,1505419079996091503,ardrone_base_link,0.933380424976,-0.241987526417,0.265033960342
1505419080003405098,15932,1505419080003230869,ardrone_base_link,0.933380424976,-0.241987526417,0.265033960342
1505419080014032989,15933,1505419080013798223,ardrone_base_link,0.922668039799,-0.221907496452,0.315342247486
1505419080014965990,15934,1505419080014763983,ardrone_base_link,0.922668039799,-0.221907496452,0.315342247486
1505419080016281182,15935,1505419080016054461,ardrone_base_link,0.929188966751,-0.235394537449,0.284951269627
1505419080021004015,15936,1505419080020733812,ardrone_base_link,0.929188966751,-0.235394537449,0.284951269627
1505419080025331413,15937,1505419080025197051,ardrone_base_link,0.926734447479,-0.21386179328,0.308911502361
1505419080030573499,15938,1505419080030360430,ardrone_base_link,0.926734447479,-0.21386179328,0.308911502361
1505419080035354093,15939,1505419080035083029,ardrone_base_link,0.928834736347,-0.261979013681,0.261979013681
1505419080044311612,15940,1505419080044104923,ardrone_base_link,0.928834736347,-0.261979013681,0.261979013681
1505419080046450856,15941,1505419080046191470,ardrone_base_link,0.922834634781,-0.260286688805,0.283949106932
1505419080051675470,15942,1505419080051367317,ardrone_base_link,0.922834634781,-0.260286688805,0.283949106932
1505419080055514093,15943,1505419080055300808,ardrone_base_link,0.927569806576,-0.2220941782,0.300480365753
1505419080060233169,15944,1505419080060082742,ardrone_base_link,0.927569806576,-0.2220941782,0.300480365753
1505419080065809503,15945,1505419080065571309,ardrone_base_link,0.936631321907,-0.221833735704,0.271130114794
1505419080070693766,15946,1505419080070492040,ardrone_base_link,0.936631321907,-0.221833735704,0.271130114794
1505419080077529422,15947,1505419080077301531,ardrone_base_link,0.923536121845,-0.258590102196,0.283217728138
1505419080080368879,15948,1505419080080178547,ardrone_base_link,0.923536121845,-0.258590102196,0.283217728138
1505419080085494628,15949,1505419080085263470,ardrone_base_link,0.950566232204,-0.180487260222,0.25268214941
1505419080090529939,15950,1505419080090295875,ardrone_base_link,0.950566232204,-0.180487260222,0.25268214941
1505419080096658977,15951,1505419080096479000,ardrone_base_link,0.96496373415,-0.198280215263,0.171842858195
1505419080100517883,15952,1505419080100339425,ardrone_base_link,0.96496373415,-0.198280215263,0.171842858195
1505419080105727430,15953,1505419080105534210,ardrone_base_link,0.939122855663,-0.206148922443,0.274865210056
1505419080111563547,15954,1505419080111348863,ardrone_base_link,0.939122855663,-0.206148922443,0.274865210056
1505419080115866267,15955,1505419080115683169,ardrone_base_link,0.958425402641,-0.163633599877,0.233762294054
1505419080120555244,15956,1505419080120353187,ardrone_base_link,0.958425402641,-0.163633599877,0.233762294054
1505419080126973165,15957,1505419080126754059,ardrone_base_link,0.940276324749,-0.202337950468,0.273751348257
1505419080131876407,15958,1505419080131611692,ardrone_base_link,0.940276324749,-0.202337950468,0.273751348257
1505419080136090525,15959,1505419080135900648,ardrone_base_link,0.955993771553,-0.150946378708,0.251577287912
1505419080148673456,15960,1505419080148448500,ardrone_base_link,0.955993771553,-0.150946378708,0.251577287912
1505419080151248938,15961,1505419080151037026,ardrone_base_link,0.965327858925,-0.217198774219,0.144799172878
1505419080153146927,15962,1505419080152987924,ardrone_base_link,0.965327858925,-0.217198774219,0.144799172878
1505419080155736311,15963,1505419080155494607,ardrone_base_link,0.941406130791,-0.238489553332,0.238489553332
1505419080160570316,15964,1505419080160350871,ardrone_base_link,0.941406130791,-0.238489553332,0.238489553332
1505419080165534429,15965,1505419080165350434,ardrone_base_link,0.947824716568,-0.213260561228,0.236956179142
1505419080170644966,15966,1505419080170422005,ardrone_base_link,0.947824716568,-0.213260561228,0.236956179142
1505419080177323478,15967,1505419080177078022,ardrone_base_link,0.95565444231,-0.180799499154,0.232456490397
1505419080180666000,15968,1505419080180500185,ardrone_base_link,0.95565444231,-0.180799499154,0.232456490397
1505419080186434090,15969,1505419080186250119,ardrone_base_link,0.943191051483,-0.289245247841,0.163486450911
1505419080190888962,15970,1505419080190669210,ardrone_base_link,0.943191051483,-0.289245247841,0.163486450911
1505419080195775142,15971,1505419080195585477,ardrone_base_link,0.963479042053,-0.212716147304,0.162665292621
1505419080202182952,15972,1505419080202012407,ardrone_base_link,0.963479042053,-0.212716147304,0.162665292621
1505419080211785225,15973,1505419080211554155,ardrone_base_link,0.964802801609,-0.173169732094,0.197908267379
1505419080212502665,15974,1505419080212320164,ardrone_base_link,0.964802801609,-0.173169732094,0.197908267379
1505419080219542036,15975,1505419080219394562,ardrone_base_link,0.934928894043,-0.295240700245,0.196827143431
1505419080222068596,15976,1505419080221887316,ardrone_base_link,0.934928894043,-0.295240700245,0.196827143431
1505419080226014977,15977,1505419080225853122,ardrone_base_link,0.976527035236,-0.175274088979,0.125195771456
1505419080230967131,15978,1505419080230707721,ardrone_base_link,0.976527035236,-0.175274088979,0.125195771456
1505419080236371317,15979,1505419080236179221,ardrone_base_link,0.962989985943,-0.202109009027,0.17833147943
1505419080247635964,15980,1505419080247425323,ardrone_base_link,0.962989985943,-0.202109009027,0.17833147943
1505419080247640894,15981,1505419080247449709,ardrone_base_link,0.963479042053,-0.162665292621,0.212716147304
1505419080250832651,15982,1505419080250568671,ardrone_base_link,0.963479042053,-0.162665292621,0.212716147304
1505419080256194906,15983,1505419080255964451,ardrone_base_link,0.966916620731,-0.212249994278,0.141499996185
1505419080261385123,15984,1505419080261257551,ardrone_base_link,0.966916620731,-0.212249994278,0.141499996185
1505419080266184981,15985,1505419080266039380,ardrone_base_link,0.966454267502,-0.19329084456,0.169129490852
1505419080271296943,15986,1505419080271135373,ardrone_base_link,0.966454267502,-0.19329084456,0.169129490852
1505419080277697257,15987,1505419080277465756,ardrone_base_link,0.944568037987,-0.275000810623,0.179348364472
1505419080281089398,15988,1505419080280960682,ardrone_base_link,0.944568037987,-0.275000810623,0.179348364472
1505419080286646734,15989,1505419080286441575,ardrone_base_link,0.97329646349,-0.194659292698,0.121662057936
1505419080291314901,15990,1505419080291001419,ardrone_base_link,0.97329646349,-0.194659292698,0.121662057936
1505419080296120226,15991,1505419080295958508,ardrone_base_link,0.966916620731,-0.212249994278,0.141499996185
1505419080301229161,15992,1505419080301049600,ardrone_base_link,0.966916620731,-0.212249994278,0.141499996185
1505419080312362826,15993,1505419080312144240,ardrone_base_link,0.962989985943,-0.17833147943,0.202109009027
1505419080314907479,15994,1505419080314762932,ardrone_base_link,0.962989985943,-0.17833147943,0.202109009027
1505419080316444829,15995,1505419080316228833,ardrone_base_link,0.960266590118,-0.228634908795,0.160044431686
1505419080321354239,15996,1505419080321046598,ardrone_base_link,0.960266590118,-0.228634908795,0.160044431686
1505419080328233307,15997,1505419080327966377,ardrone_base_link,0.95866382122,-0.201201051474,0.201201051474
1505419080331386528,15998,1505419080331203523,ardrone_base_link,0.95866382122,-0.201201051474,0.201201051474
1505419080338410371,15999,1505419080338178875,ardrone_base_link,0.968434989452,-0.217897877097,0.121054373682
1505419080346342209,16000,1505419080346150925,ardrone_base_link,0.968434989452,-0.217897877097,0.121054373682
1505419080347801043,16001,1505419080347603619,ardrone_base_link,0.975196063519,-0.15651294589,0.15651294589
1505419080352759448,16002,1505419080352562924,ardrone_base_link,0.975196063519,-0.15651294589,0.15651294589
1505419080356753749,16003,1505419080356560494,ardrone_base_link,0.970537900925,-0.204323768616,0.127702355385
1505419080361761800,16004,1505419080361566650,ardrone_base_link,0.970537900925,-0.204323768616,0.127702355385
1505419080366580622,16005,1505419080366400937,ardrone_base_link,0.960030734539,-0.240007683635,0.144004613161
1505419080371847540,16006,1505419080371651010,ardrone_base_link,0.960030734539,-0.240007683635,0.144004613161
1505419080377955353,16007,1505419080377742037,ardrone_base_link,0.974451065063,-0.170528933406,0.14616766572
1505419080381430605,16008,1505419080381260030,ardrone_base_link,0.974451065063,-0.170528933406,0.14616766572
1505419080387199859,16009,1505419080386994725,ardrone_base_link,0.97338193655,-0.184819355607,0.135534197092
1505419080391480517,16010,1505419080391276795,ardrone_base_link,0.97338193655,-0.184819355607,0.135534197092
1505419080399173515,16011,1505419080398992823,ardrone_base_link,0.974181056023,-0.199531063437,0.105634093285
1505419080403411243,16012,1505419080403204984,ardrone_base_link,0.974181056023,-0.199531063437,0.105634093285
1505419080411308706,16013,1505419080411076335,ardrone_base_link,0.973590016365,-0.208626434207,0.0927228555083
1505419080412046846,16014,1505419080411864562,ardrone_base_link,0.973590016365,-0.208626434207,0.0927228555083
1505419080416777419,16015,1505419080416572625,ardrone_base_link,0.970999658108,-0.218474924564,0.0970999598503
1505419080421751833,16016,1505419080421466306,ardrone_base_link,0.970999658108,-0.218474924564,0.0970999598503
1505419080426763693,16017,1505419080426573665,ardrone_base_link,0.972779512405,-0.217444822192,0.0801112502813
1505419080431881975,16018,1505419080431701334,ardrone_base_link,0.972779512405,-0.217444822192,0.0801112502813
1505419080437799585,16019,1505419080437586978,ardrone_base_link,0.976744174957,-0.162790700793,0.139534890652
1505419080445282305,16020,1505419080445089955,ardrone_base_link,0.976744174957,-0.162790700793,0.139534890652
1505419080450405706,16021,1505419080450135452,ardrone_base_link,0.981465816498,-0.147219866514,0.122683227062
1505419080452374741,16022,1505419080452183593,ardrone_base_link,0.981465816498,-0.147219866514,0.122683227062
1505419080456836717,16023,1505419080456593510,ardrone_base_link,0.971613407135,-0.233679175377,0.036896713078
1505419080462142250,16024,1505419080461988433,ardrone_base_link,0.971613407135,-0.233679175377,0.036896713078
1505419080467244993,16025,1505419080467056135,ardrone_base_link,0.971245110035,-0.220148891211,0.0906495451927
1505419080478573356,16026,1505419080478350387,ardrone_base_link,0.971245110035,-0.220148891211,0.0906495451927
1505419080478577457,16027,1505419080478389516,ardrone_base_link,0.980825483799,-0.182479158044,0.0684296861291
1505419080482045434,16028,1505419080481829811,ardrone_base_link,0.980825483799,-0.182479158044,0.0684296861291
1505419080487488009,16029,1505419080487255235,ardrone_base_link,0.981475710869,-0.181754767895,0.0605849213898
1505419080492066960,16030,1505419080491835251,ardrone_base_link,0.981475710869,-0.181754767895,0.0605849213898
1505419080497120695,16031,1505419080496952536,ardrone_base_link,0.97329646349,-0.194659292698,0.121662057936
1505419080503547998,16032,1505419080503364357,ardrone_base_link,0.97329646349,-0.194659292698,0.121662057936
1505419080511132776,16033,1505419080510759837,ardrone_base_link,0.980286121368,-0.17155008018,0.0980286151171
1505419080512850425,16034,1505419080512634527,ardrone_base_link,0.980286121368,-0.17155008018,0.0980286151171
1505419080517077062,16035,1505419080516895902,ardrone_base_link,0.965824306011,-0.254164278507,0.0508328564465
1505419080522112054,16036,1505419080521925499,ardrone_base_link,0.965824306011,-0.254164278507,0.0508328564465
1505419080527260542,16037,1505419080526980984,ardrone_base_link,0.975609779358,-0.219512194395,0.0
1505419080533837767,16038,1505419080533617803,ardrone_base_link,0.975609779358,-0.219512194395,0.0
1505419080537530991,16039,1505419080537351696,ardrone_base_link,0.973973453045,-0.209589228034,0.086301445961
1505419080544167918,16040,1505419080543976584,ardrone_base_link,0.973973453045,-0.209589228034,0.086301445961
1505419080547369388,16041,1505419080547173305,ardrone_base_link,0.985307633877,-0.164217934012,0.0469194091856
1505419080552320203,16042,1505419080552116552,ardrone_base_link,0.985307633877,-0.164217934012,0.0469194091856
1505419080557257284,16043,1505419080557046967,ardrone_base_link,0.987910509109,-0.141130074859,0.0641500353813
1505419080562674721,16044,1505419080562469429,ardrone_base_link,0.987910509109,-0.141130074859,0.0641500353813
1505419080567598419,16045,1505419080567402827,ardrone_base_link,0.970802485943,-0.239548668265,0.0126078240573
1505419080577729726,16046,1505419080577499331,ardrone_base_link,0.970802485943,-0.239548668265,0.0126078240573
1505419080579001116,16047,1505419080578820178,ardrone_base_link,0.987291097641,-0.15845413506,0.0121887791902
1505419080583703251,16048,1505419080583515847,ardrone_base_link,0.987291097641,-0.15845413506,0.0121887791902
1505419080587742618,16049,1505419080587573966,ardrone_base_link,0.983135342598,-0.1734944731,0.057831492275
1505419080593160087,16050,1505419080592974761,ardrone_base_link,0.983135342598,-0.1734944731,0.057831492275
1505419080599215670,16051,1505419080598995586,ardrone_base_link,0.984882831573,-0.144129186869,0.0960861295462
1505419080602338772,16052,1505419080602192024,ardrone_base_link,0.984882831573,-0.144129186869,0.0960861295462
1505419080612279901,16053,1505419080612067458,ardrone_base_link,0.985535681248,-0.158172398806,0.0608355365694
1505419080613121368,16054,1505419080612996790,ardrone_base_link,0.985535681248,-0.158172398806,0.0608355365694
1505419080617529186,16055,1505419080617362173,ardrone_base_link,0.990696132183,-0.131297081709,0.0358082950115
1505419080623056354,16056,1505419080622884246,ardrone_base_link,0.990696132183,-0.131297081709,0.0358082950115
1505419080628192493,16057,1505419080627992693,ardrone_base_link,0.99321103096,-0.110356777906,0.036785595119
1505419080634930890,16058,1505419080634722055,ardrone_base_link,0.99321103096,-0.110356777906,0.036785595119
1505419080646337911,16059,1505419080646136012,ardrone_base_link,0.983135342598,-0.1734944731,0.057831492275
1505419080649609439,16060,1505419080648543597,ardrone_base_link,0.983135342598,-0.1734944731,0.057831492275
1505419080649720414,16061,1505419080649593243,ardrone_base_link,0.983209609985,-0.182075858116,0.0121383899823
1505419080653690137,16062,1505419080653468177,ardrone_base_link,0.983209609985,-0.182075858116,0.0121383899823
1505419080657596236,16063,1505419080657438292,ardrone_base_link,0.984271168709,-0.176664054394,0.0
1505419080663328797,16064,1505419080663175147,ardrone_base_link,0.984271168709,-0.176664054394,0.0
1505419080667765588,16065,1505419080667547326,ardrone_base_link,0.98917299509,-0.144757032394,0.0241261720657
1505419080678246455,16066,1505419080677999034,ardrone_base_link,0.98917299509,-0.144757032394,0.0241261720657
1505419080678252260,16067,1505419080678040036,ardrone_base_link,0.987885296345,-0.130924552679,0.0833156257868
1505419080682765196,16068,1505419080682579586,ardrone_base_link,0.987885296345,-0.130924552679,0.0833156257868
1505419080688226206,16069,1505419080688015262,ardrone_base_link,0.977537512779,-0.209472328424,0.0232747029513
1505419080692789709,16070,1505419080692641513,ardrone_base_link,0.977537512779,-0.209472328424,0.0232747029513
1505419080699541689,16071,1505419080699364299,ardrone_base_link,0.981376409531,-0.191763207316,0.011280188337
1505419080703151175,16072,1505419080702961784,ardrone_base_link,0.981376409531,-0.191763207316,0.011280188337
1505419080712318848,16073,1505419080712079399,ardrone_base_link,0.9956381917,-0.0905125662684,-0.0226281415671
1505419080713543555,16074,1505419080713343010,ardrone_base_link,0.9956381917,-0.0905125662684,-0.0226281415671
1505419080717959671,16075,1505419080717766744,ardrone_base_link,0.986037433147,-0.162259325385,-0.0374444611371
1505419080724097971,16076,1505419080723907396,ardrone_base_link,0.986037433147,-0.162259325385,-0.0374444611371
1505419080729585910,16077,1505419080729293444,ardrone_base_link,0.990046739578,-0.128123700619,-0.0582380443811
1505419080733091067,16078,1505419080732899189,ardrone_base_link,0.990046739578,-0.128123700619,-0.0582380443811
1505419080738009329,16079,1505419080737796471,ardrone_base_link,0.980877220631,-0.191665664315,0.0338233523071
1505419080744286261,16080,1505419080744081115,ardrone_base_link,0.980877220631,-0.191665664315,0.0338233523071
1505419080747966654,16081,1505419080747780144,ardrone_base_link,0.990830302238,-0.134557202458,0.0122324731201
1505419080755331059,16082,1505419080755164499,ardrone_base_link,0.990830302238,-0.134557202458,0.0122324731201
1505419080758234224,16083,1505419080758035116,ardrone_base_link,0.98539686203,-0.169896021485,0.0113264005631
1505419080763500685,16084,1505419080763338077,ardrone_base_link,0.98539686203,-0.169896021485,0.0113264005631
1505419080768061116,16085,1505419080767875972,ardrone_base_link,0.987885296345,-0.154729023576,0.0119022326544
1505419080778329141,16086,1505419080778090597,ardrone_base_link,0.987885296345,-0.154729023576,0.0119022326544
1505419080778333129,16087,1505419080778130985,ardrone_base_link,0.99126124382,-0.131371974945,-0.0119429063052
1505419080783381920,16088,1505419080783149515,ardrone_base_link,0.99126124382,-0.131371974945,-0.0119429063052
1505419080789651886,16089,1505419080789500935,ardrone_base_link,0.99126124382,-0.131371974945,0.0119429063052
1505419080793873899,16090,1505419080793656407,ardrone_base_link,0.99126124382,-0.131371974945,0.0119429063052
1505419080799049785,16091,1505419080798821351,ardrone_base_link,0.99049270153,-0.12523470819,-0.0569248683751
1505419080803276830,16092,1505419080803033664,ardrone_base_link,0.99049270153,-0.12523470819,-0.0569248683751
1505419080813792664,16093,1505419080813556832,ardrone_base_link,0.997427284718,-0.0680064037442,-0.0226688012481
1505419080813804935,16094,1505419080813590391,ardrone_base_link,0.997427284718,-0.0680064037442,-0.0226688012481
1505419080818482264,16095,1505419080818267385,ardrone_base_link,0.988438904285,-0.151173010468,0.0116286929697
1505419080823305811,16096,1505419080823139689,ardrone_base_link,0.988438904285,-0.151173010468,0.0116286929697
1505419080828625478,16097,1505419080828435874,ardrone_base_link,0.992249011993,-0.115377791226,-0.0461511164904
1505419080834868615,16098,1505419080834583541,ardrone_base_link,0.992249011993,-0.115377791226,-0.0461511164904
1505419080844779955,16099,1505419080844561057,ardrone_base_link,0.987904727459,-0.151091307402,-0.0348672233522
1505419080844790053,16100,1505419080844592802,ardrone_base_link,0.987904727459,-0.151091307402,-0.0348672233522
1505419080850086696,16101,1505419080849798123,ardrone_base_link,0.987729609013,-0.148159444332,-0.0493864789605
1505419080853207962,16102,1505419080853062852,ardrone_base_link,0.987729609013,-0.148159444332,-0.0493864789605
1505419080858703281,16103,1505419080858518456,ardrone_base_link,0.980749726295,-0.187334224582,-0.0550982989371
1505419080867268996,16104,1505419080867000206,ardrone_base_link,0.980749726295,-0.187334224582,-0.0550982989371
1505419080869961801,16105,1505419080869720139,ardrone_base_link,0.99639070034,-0.0840329453349,-0.0120047070086
1505419080877536088,16106,1505419080877309271,ardrone_base_link,0.99639070034,-0.0840329453349,-0.0120047070086
1505419080878610368,16107,1505419080878391420,ardrone_base_link,0.988310575485,-0.144630819559,-0.0482102707028
1505419080883627601,16108,1505419080883389204,ardrone_base_link,0.988310575485,-0.144630819559,-0.0482102707028
1505419080888834670,16109,1505419080888464361,ardrone_base_link,0.985246598721,-0.150684773922,-0.0811379551888
1505419080895282895,16110,1505419080895077479,ardrone_base_link,0.985246598721,-0.150684773922,-0.0811379551888
1505419080898797749,16111,1505419080898620237,ardrone_base_link,0.9799939394,-0.19599878788,-0.0345880202949
1505419080903648262,16112,1505419080903424251,ardrone_base_link,0.9799939394,-0.19599878788,-0.0345880202949
1505419080911538038,16113,1505419080911336718,ardrone_base_link,0.987291097641,-0.15845413506,0.0121887791902
1505419080914112662,16114,1505419080913918408,ardrone_base_link,0.987291097641,-0.15845413506,0.0121887791902
1505419080918711573,16115,1505419080918524017,ardrone_base_link,0.987885296345,-0.154729023576,0.0119022326544
1505419080925202278,16116,1505419080925015663,ardrone_base_link,0.987885296345,-0.154729023576,0.0119022326544
1505419080929363528,16117,1505419080928433635,ardrone_base_link,0.994101107121,-0.107794091105,-0.0119771212339
1505419080933837007,16118,1505419080933615688,ardrone_base_link,0.994101107121,-0.107794091105,-0.0119771212339
1505419080938891995,16119,1505419080938696330,ardrone_base_link,0.987904727459,-0.151091307402,-0.0348672233522
1505419080944356580,16120,1505419080944163914,ardrone_base_link,0.987904727459,-0.151091307402,-0.0348672233522
1505419080948861676,16121,1505419080948653112,ardrone_base_link,0.988851368427,-0.141264483333,-0.0470881611109
1505419080954329921,16122,1505419080954101553,ardrone_base_link,0.988851368427,-0.141264483333,-0.0470881611109
1505419080960606374,16123,1505419080960435585,ardrone_base_link,0.984189271927,-0.173680454493,-0.0347360931337
1505419080963978979,16124,1505419080963782492,ardrone_base_link,0.984189271927,-0.173680454493,-0.0347360931337
1505419080968938356,16125,1505419080968731024,ardrone_base_link,0.98917299509,-0.144757032394,-0.0241261720657
1505419080977367218,16126,1505419080977158332,ardrone_base_link,0.98917299509,-0.144757032394,-0.0241261720657
1505419080978958917,16127,1505419080978764355,ardrone_base_link,0.989438712597,-0.122290179133,-0.0778210237622
1505419080985226274,16128,1505419080985004156,ardrone_base_link,0.989438712597,-0.122290179133,-0.0778210237622
1505419080989685810,16129,1505419080989437341,ardrone_base_link,0.992394268513,-0.107609011233,-0.0597827844322
1505419080994012866,16130,1505419080993862568,ardrone_base_link,0.992394268513,-0.107609011233,-0.0597827844322
1505419080999111691,16131,1505419080998914501,ardrone_base_link,0.987974464893,-0.144310876727,-0.0555041842163
1505419081004065338,16132,1505419081003859943,ardrone_base_link,0.987974464893,-0.144310876727,-0.0555041842163
1505419081011731720,16133,1505419081011483561,ardrone_base_link,0.98857742548,-0.117687791586,-0.0941502302885
1505419081015370008,16134,1505419081015177778,ardrone_base_link,0.98857742548,-0.117687791586,-0.0941502302885
1505419081019558963,16135,1505419081019332544,ardrone_base_link,0.982334554195,-0.153859630227,-0.10651820153
1505419081024199201,16136,1505419081023955104,ardrone_base_link,0.982334554195,-0.153859630227,-0.10651820153
1505419081031840929,16137,1505419081031628106,ardrone_base_link,0.987428605556,-0.123428575695,-0.0987428575754
1505419081034972890,16138,1505419081034787027,ardrone_base_link,0.987428605556,-0.123428575695,-0.0987428575754
1505419081045652878,16139,1505419081045440502,ardrone_base_link,0.992277920246,-0.0992277935147,-0.0744208469987
1505419081045656602,16140,1505419081045478451,ardrone_base_link,0.992277920246,-0.0992277935147,-0.0744208469987
1505419081049609576,16141,1505419081049404028,ardrone_base_link,0.979593992233,-0.200639724731,-0.0118023371324
1505419081056550922,16142,1505419081056362642,ardrone_base_link,0.979593992233,-0.200639724731,-0.0118023371324
1505419081059108130,16143,1505419081058916680,ardrone_base_link,0.992744088173,-0.105114080012,-0.0583967119455
1505419081064375503,16144,1505419081064185972,ardrone_base_link,0.992744088173,-0.105114080012,-0.0583967119455
1505419081069351418,16145,1505419081069160713,ardrone_base_link,0.991058886051,-0.123882360756,-0.0495529435575
1505419081077680339,16146,1505419081077429046,ardrone_base_link,0.991058886051,-0.123882360756,-0.0495529435575
1505419081079501457,16147,1505419081079305252,ardrone_base_link,0.990237832069,-0.134476736188,-0.0366754755378
1505419081084619359,16148,1505419081084459954,ardrone_base_link,0.990237832069,-0.134476736188,-0.0366754755378
1505419081093032132,16149,1505419081092839281,ardrone_base_link,0.992645859718,-0.0968435034156,-0.072632625699
1505419081097528594,16150,1505419081097320993,ardrone_base_link,0.992645859718,-0.0968435034156,-0.072632625699
1505419081100790901,16151,1505419081100584275,ardrone_base_link,0.991051256657,-0.0943858325481,-0.0943858325481
1505419081104514041,16152,1505419081104296879,ardrone_base_link,0.991051256657,-0.0943858325481,-0.0943858325481
1505419081111695383,16153,1505419081111479107,ardrone_base_link,0.987885296345,-0.130924552679,-0.0833156257868
1505419081114370573,16154,1505419081114178749,ardrone_base_link,0.987885296345,-0.130924552679,-0.0833156257868
1505419081121548503,16155,1505419081121374338,ardrone_base_link,0.986122012138,-0.117395475507,-0.117395475507
1505419081124721822,16156,1505419081124576918,ardrone_base_link,0.986122012138,-0.117395475507,-0.117395475507
1505419081129589209,16157,1505419081129313710,ardrone_base_link,0.989674627781,-0.141382083297,-0.0235636811703
1505419081134390283,16158,1505419081134231588,ardrone_base_link,0.989674627781,-0.141382083297,-0.0235636811703
1505419081144764225,16159,1505419081144564316,ardrone_base_link,0.98917299509,-0.144757032394,-0.0241261720657
1505419081146864429,16160,1505419081146674742,ardrone_base_link,0.98917299509,-0.144757032394,-0.0241261720657
1505419081150031623,16161,1505419081149845244,ardrone_base_link,0.988438904285,-0.127915620804,-0.0814008489251
1505419081158386569,16162,1505419081158158480,ardrone_base_link,0.988438904285,-0.127915620804,-0.0814008489251
1505419081159686397,16163,1505419081159482781,ardrone_base_link,0.990696132183,-0.107424885035,-0.0835526883602
1505419081165811899,16164,1505419081165643066,ardrone_base_link,0.990696132183,-0.107424885035,-0.0835526883602
1505419081169798555,16165,1505419081169544801,ardrone_base_link,0.989355742931,-0.138049632311,-0.0460165478289
1505419081177314922,16166,1505419081177089050,ardrone_base_link,0.989355742931,-0.138049632311,-0.0460165478289
1505419081180813404,16167,1505419081180634192,ardrone_base_link,0.981209516525,-0.167523577809,-0.0957277566195
1505419081185243917,16168,1505419081185047894,ardrone_base_link,0.981209516525,-0.167523577809,-0.0957277566195
1505419081189854380,16169,1505419081189665856,ardrone_base_link,0.993494570255,-0.113182924688,-0.0125758806244
1505419081194852674,16170,1505419081194638578,ardrone_base_link,0.993494570255,-0.113182924688,-0.0125758806244
1505419081199830668,16171,1505419081199655595,ardrone_base_link,0.988310575485,-0.144630819559,-0.0482102707028
1505419081204717788,16172,1505419081204543897,ardrone_base_link,0.988310575485,-0.144630819559,-0.0482102707028
1505419081212340300,16173,1505419081212119847,ardrone_base_link,0.990037798882,-0.120736315846,-0.0724417939782
1505419081215361333,16174,1505419081215149395,ardrone_base_link,0.990037798882,-0.120736315846,-0.0724417939782
1505419081220130200,16175,1505419081219877016,ardrone_base_link,0.986652493477,-0.137381985784,-0.087424904108
1505419081226040559,16176,1505419081225899430,ardrone_base_link,0.986652493477,-0.137381985784,-0.087424904108
1505419081229948837,16177,1505419081229745929,ardrone_base_link,0.983140408993,-0.165697813034,-0.0773256495595
1505419081234932637,16178,1505419081234750125,ardrone_base_link,0.983140408993,-0.165697813034,-0.0773256495595
1505419081243810306,16179,1505419081243612645,ardrone_base_link,0.991880059242,-0.118080958724,-0.0472323819995
1505419081244701561,16180,1505419081244565163,ardrone_base_link,0.991880059242,-0.118080958724,-0.0472323819995
1505419081250282251,16181,1505419081250029186,ardrone_base_link,0.984135687351,-0.147620350122,-0.0984135717154
1505419081254946996,16182,1505419081254679633,ardrone_base_link,0.984135687351,-0.147620350122,-0.0984135717154
1505419081260674781,16183,1505419081260301600,ardrone_base_link,0.990147590637,-0.0990147590637,-0.0990147590637
1505419081267146786,16184,1505419081266906503,ardrone_base_link,0.990147590637,-0.0990147590637,-0.0990147590637
1505419081271857622,16185,1505419081271580410,ardrone_base_link,0.994373083115,-0.105286560953,-0.0116985067725
1505419081278647130,16186,1505419081278384509,ardrone_base_link,0.994373083115,-0.105286560953,-0.0116985067725
1505419081280793060,16187,1505419081280656804,ardrone_base_link,0.991893649101,-0.100303851068,-0.0780141055584
1505419081285423057,16188,1505419081285231389,ardrone_base_link,0.991893649101,-0.100303851068,-0.0780141055584
1505419081290197100,16189,1505419081289898546,ardrone_base_link,0.988444924355,-0.147698670626,-0.0340843088925
1505419081295164795,16190,1505419081294957655,ardrone_base_link,0.988444924355,-0.147698670626,-0.0340843088925
1505419081303846644,16191,1505419081303630323,ardrone_base_link,0.98917299509,-0.144757032394,-0.0241261720657
1505419081305131638,16192,1505419081304925331,ardrone_base_link,0.98917299509,-0.144757032394,-0.0241261720657
1505419081311693817,16193,1505419081311467184,ardrone_base_link,0.99581682682,-0.0839845538139,-0.0359933786094
1505419081316908766,16194,1505419081316707397,ardrone_base_link,0.99581682682,-0.0839845538139,-0.0359933786094
1505419081320370365,16195,1505419081320047326,ardrone_base_link,0.994635105133,-0.0925242006779,-0.0462621003389
1505419081325210707,16196,1505419081325026250,ardrone_base_link,0.994635105133,-0.0925242006779,-0.0462621003389
1505419081330364164,16197,1505419081330078885,ardrone_base_link,0.988438904285,-0.151173010468,-0.0116286929697
1505419081335353104,16198,1505419081335147783,ardrone_base_link,0.988438904285,-0.151173010468,-0.0116286929697
1505419081344120263,16199,1505419081343912618,ardrone_base_link,0.991457343102,-0.0922285914421,-0.0922285914421
1505419081345499772,16200,1505419081345369321,ardrone_base_link,0.991457343102,-0.0922285914421,-0.0922285914421
1505419081354534068,16201,1505419081354365432,ardrone_base_link,0.990909457207,-0.122471950948,-0.0556690692902
1505419081355624920,16202,1505419081355433427,ardrone_base_link,0.990909457207,-0.122471950948,-0.0556690692902
1505419081362568462,16203,1505419081362374573,ardrone_base_link,0.996155560017,-0.048592954874,-0.0728894323111
1505419081371063954,16204,1505419081370790015,ardrone_base_link,0.996155560017,-0.048592954874,-0.0728894323111
1505419081371074986,16205,1505419081370831086,ardrone_base_link,0.988438904285,-0.127915620804,-0.0814008489251
1505419081378617618,16206,1505419081378426755,ardrone_base_link,0.988438904285,-0.127915620804,-0.0814008489251
1505419081381953894,16207,1505419081381756379,ardrone_base_link,0.987291097641,-0.15845413506,-0.0121887791902
1505419081385502875,16208,1505419081385319284,ardrone_base_link,0.987291097641,-0.15845413506,-0.0121887791902
1505419081390627145,16209,1505419081390350567,ardrone_base_link,0.984952628613,-0.109439179301,-0.133759006858
1505419081395584496,16210,1505419081395414789,ardrone_base_link,0.984952628613,-0.109439179301,-0.133759006858
1505419081400647189,16211,1505419081400463899,ardrone_base_link,0.989355742931,-0.138049632311,-0.0460165478289
1505419081412116215,16212,1505419081411900059,ardrone_base_link,0.989355742931,-0.138049632311,-0.0460165478289
1505419081413326645,16213,1505419081413126823,ardrone_base_link,0.991880059242,-0.118080958724,-0.0472323819995
1505419081416069685,16214,1505419081415808481,ardrone_base_link,0.991880059242,-0.118080958724,-0.0472323819995
1505419081422937005,16215,1505419081422762438,ardrone_base_link,0.991123020649,-0.128262981772,-0.034980814904
1505419081425647719,16216,1505419081425441391,ardrone_base_link,0.991123020649,-0.128262981772,-0.034980814904
1505419081430745589,16217,1505419081430483324,ardrone_base_link,0.983182311058,-0.167860388756,-0.0719401687384
1505419081435595359,16218,1505419081435418639,ardrone_base_link,0.983182311058,-0.167860388756,-0.0719401687384
1505419081443810064,16219,1505419081443611472,ardrone_base_link,0.983135342598,-0.15036188066,-0.10409668833
1505419081448148497,16220,1505419081447949767,ardrone_base_link,0.983135342598,-0.15036188066,-0.10409668833
1505419081454629842,16221,1505419081454308697,ardrone_base_link,0.986652493477,-0.137381985784,-0.087424904108
1505419081455889653,16222,1505419081455625320,ardrone_base_link,0.986652493477,-0.137381985784,-0.087424904108
1505419081460633051,16223,1505419081460452069,ardrone_base_link,0.988048970699,-0.137867301702,-0.0689336508512
1505419081465661238,16224,1505419081465482729,ardrone_base_link,0.988048970699,-0.137867301702,-0.0689336508512
1505419081477515652,16225,1505419081477259415,ardrone_base_link,0.991972744465,-0.123996593058,-0.0247993189842
1505419081477519567,16226,1505419081477301247,ardrone_base_link,0.991972744465,-0.123996593058,-0.0247993189842
1505419081482448805,16227,1505419081482224312,ardrone_base_link,0.987483859062,-0.141069129109,-0.0705345645547
1505419081486063781,16228,1505419081485856458,ardrone_base_link,0.987483859062,-0.141069129109,-0.0705345645547
1505419081491114304,16229,1505419081490644311,ardrone_base_link,0.993808925152,-0.110423214734,-0.012269246392
1505419081495819915,16230,1505419081495629849,ardrone_base_link,0.993808925152,-0.110423214734,-0.012269246392
1505419081500905934,16231,1505419081500757460,ardrone_base_link,0.996155560017,-0.0728894323111,-0.048592954874
1505419081505685864,16232,1505419081505538740,ardrone_base_link,0.996155560017,-0.0728894323111,-0.048592954874
1505419081516337371,16233,1505419081516079899,ardrone_base_link,0.996010184288,-0.0820243656635,-0.0351532995701
1505419081517397635,16234,1505419081517246299,ardrone_base_link,0.996010184288,-0.0820243656635,-0.0351532995701
1505419081521180465,16235,1505419081521014554,ardrone_base_link,0.987291097641,-0.134076565504,-0.0853214561939
1505419081526160718,16236,1505419081525940250,ardrone_base_link,0.987291097641,-0.134076565504,-0.0853214561939
1505419081531382070,16237,1505419081530892913,ardrone_base_link,0.993829250336,-0.105228975415,-0.0350763276219
1505419081535836207,16238,1505419081535617705,ardrone_base_link,0.993829250336,-0.105228975415,-0.0350763276219
1505419081543772367,16239,1505419081543535918,ardrone_base_link,0.98395472765,-0.163992449641,-0.0702824816108
1505419081546310237,16240,1505419081546111555,ardrone_base_link,0.98395472765,-0.163992449641,-0.0702824816108
1505419081553632718,16241,1505419081553437864,ardrone_base_link,0.992614209652,-0.0857814773917,-0.0857814773917
1505419081557047428,16242,1505419081556862473,ardrone_base_link,0.992614209652,-0.0857814773917,-0.0857814773917
1505419081561165881,16243,1505419081561043609,ardrone_base_link,0.991521418095,-0.102571181953,-0.0797775834799
1505419081567729825,16244,1505419081567532243,ardrone_base_link,0.991521418095,-0.102571181953,-0.0797775834799
1505419081580790158,16245,1505419081580525246,ardrone_base_link,0.98366189003,-0.127297416329,-0.127297416329
1505419081580814467,16246,1505419081580565942,ardrone_base_link,0.98366189003,-0.127297416329,-0.127297416329
1505419081582566271,16247,1505419081582334682,ardrone_base_link,0.989438712597,-0.122290179133,-0.0778210237622
1505419081586274652,16248,1505419081586032531,ardrone_base_link,0.989438712597,-0.122290179133,-0.0778210237622
1505419081591503076,16249,1505419081591273370,ardrone_base_link,0.990237832069,-0.0855761095881,-0.110026426613
1505419081596375327,16250,1505419081596184766,ardrone_base_link,0.990237832069,-0.0855761095881,-0.110026426613
1505419081604052506,16251,1505419081603818980,ardrone_base_link,0.986878037453,-0.144421175122,-0.0722105875611
1505419081612246433,16252,1505419081612013514,ardrone_base_link,0.986878037453,-0.144421175122,-0.0722105875611
1505419081612249982,16253,1505419081612054645,ardrone_base_link,0.994378864765,-0.0473513752222,-0.0947027504444
1505419081616211600,16254,1505419081616038905,ardrone_base_link,0.994378864765,-0.0473513752222,-0.0947027504444
1505419081621226791,16255,1505419081621060760,ardrone_base_link,0.993286192417,-0.0818000361323,-0.0818000361323
1505419081626270479,16256,1505419081626084839,ardrone_base_link,0.993286192417,-0.0818000361323,-0.0818000361323
1505419081632256469,16257,1505419081632037028,ardrone_base_link,0.985246598721,-0.150684773922,-0.0811379551888
1505419081636315669,16258,1505419081636120941,ardrone_base_link,0.985246598721,-0.150684773922,-0.0811379551888
1505419081643811972,16259,1505419081643616762,ardrone_base_link,0.989461064339,-0.144799172878,0.0
1505419081646375168,16260,1505419081646164058,ardrone_base_link,0.989461064339,-0.144799172878,0.0
1505419081651526207,16261,1505419081651317238,ardrone_base_link,0.992249011993,-0.115377791226,-0.0461511164904
1505419081659480927,16262,1505419081659300294,ardrone_base_link,0.992249011993,-0.115377791226,-0.0461511164904
1505419081662705349,16263,1505419081662539972,ardrone_base_link,0.982335329056,-0.143756389618,-0.119796991348
1505419081667560412,16264,1505419081667378213,ardrone_base_link,0.982335329056,-0.143756389618,-0.119796991348
1505419081671906858,16265,1505419081671700036,ardrone_base_link,0.994378864765,-0.0947027504444,-0.0473513752222
1505419081679135348,16266,1505419081678969205,ardrone_base_link,0.994378864765,-0.0947027504444,-0.0473513752222
1505419081681607726,16267,1505419081681424594,ardrone_base_link,0.993883788586,-0.0883452221751,-0.0662589147687
1505419081686517583,16268,1505419081686376505,ardrone_base_link,0.993883788586,-0.0883452221751,-0.0662589147687
1505419081691767566,16269,1505419081691521791,ardrone_base_link,0.990696132183,-0.107424885035,-0.0835526883602
1505419081696251979,16270,1505419081696125214,ardrone_base_link,0.990696132183,-0.107424885035,-0.0835526883602
1505419081701636404,16271,1505419081701392501,ardrone_base_link,0.991880059242,-0.118080958724,-0.0472323819995
1505419081712126720,16272,1505419081711907053,ardrone_base_link,0.991880059242,-0.118080958724,-0.0472323819995
1505419081714246511,16273,1505419081714053893,ardrone_base_link,0.983123958111,-0.18110178411,-0.0258716829121
1505419081716756827,16274,1505419081716583560,ardrone_base_link,0.983123958111,-0.18110178411,-0.0258716829121
1505419081722005187,16275,1505419081721802819,ardrone_base_link,0.994609713554,-0.0983679965138,-0.0327893309295
1505419081728559614,16276,1505419081728371007,ardrone_base_link,0.994609713554,-0.0983679965138,-0.0327893309295
1505419081731503873,16277,1505419081731304260,ardrone_base_link,0.993870735168,-0.0781696140766,-0.0781696140766
1505419081745238286,16278,1505419081745046048,ardrone_base_link,0.993870735168,-0.0781696140766,-0.0781696140766
1505419081745287786,16279,1505419081745073795,ardrone_base_link,0.99472951889,-0.0994729474187,-0.0248682368547
1505419081746773568,16280,1505419081746639271,ardrone_base_link,0.99472951889,-0.0994729474187,-0.0248682368547
1505419081752043424,16281,1505419081751826500,ardrone_base_link,0.985270261765,-0.131369367242,-0.109474472702
1505419081756947579,16282,1505419081756781038,ardrone_base_link,0.985270261765,-0.131369367242,-0.109474472702
1505419081761801335,16283,1505419081761665214,ardrone_base_link,0.993829250336,-0.105228975415,-0.0350763276219
1505419081769411492,16284,1505419081769236362,ardrone_base_link,0.993829250336,-0.105228975415,-0.0350763276219
1505419081772220671,16285,1505419081772040633,ardrone_base_link,0.991123020649,-0.128262981772,-0.034980814904
1505419081780866780,16286,1505419081780617561,ardrone_base_link,0.991123020649,-0.128262981772,-0.034980814904
1505419081781956610,16287,1505419081781790711,ardrone_base_link,0.99410367012,-0.0969857275486,-0.0484928637743
1505419081786929702,16288,1505419081786745911,ardrone_base_link,0.99410367012,-0.0969857275486,-0.0484928637743
1505419081792140667,16289,1505419081791949095,ardrone_base_link,0.985968887806,-0.160506561399,-0.0458590202034
1505419081797513062,16290,1505419081797367362,ardrone_base_link,0.985968887806,-0.160506561399,-0.0458590202034
1505419081805957761,16291,1505419081805767094,ardrone_base_link,0.988048970699,-0.137867301702,-0.0689336508512
1505419081811232526,16292,1505419081810946600,ardrone_base_link,0.988048970699,-0.137867301702,-0.0689336508512
1505419081813439775,16293,1505419081813301586,ardrone_base_link,0.979044258595,-0.18214777112,-0.09107388556
1505419081817487738,16294,1505419081817269303,ardrone_base_link,0.979044258595,-0.18214777112,-0.09107388556
1505419081822203906,16295,1505419081822009933,ardrone_base_link,0.992277920246,-0.124034740031,0.0
1505419081827032598,16296,1505419081826831720,ardrone_base_link,0.992277920246,-0.124034740031,0.0
1505419081832150247,16297,1505419081831915224,ardrone_base_link,0.990696132183,-0.0835526883602,-0.107424885035
1505419081837592670,16298,1505419081837408638,ardrone_base_link,0.990696132183,-0.0835526883602,-0.107424885035
1505419081844022010,16299,1505419081843860100,ardrone_base_link,0.992386758327,-0.122654542327,-0.0111504131928
1505419081847068136,16300,1505419081846947101,ardrone_base_link,0.992386758327,-0.122654542327,-0.0111504131928
1505419081853564985,16301,1505419081853240255,ardrone_base_link,0.989674627781,-0.141382083297,-0.0235636811703
1505419081857081481,16302,1505419081856908370,ardrone_base_link,0.989674627781,-0.141382083297,-0.0235636811703
1505419081863712630,16303,1505419081863565142,ardrone_base_link,0.990237832069,-0.134476736188,-0.0366754755378
1505419081867223297,16304,1505419081867031825,ardrone_base_link,0.990237832069,-0.134476736188,-0.0366754755378
1505419081878586947,16305,1505419081878372859,ardrone_base_link,0.990579009056,-0.135078966618,0.022513160482
1505419081882338030,16306,1505419081882135021,ardrone_base_link,0.990579009056,-0.135078966618,0.022513160482
1505419081884389627,16307,1505419081884225747,ardrone_base_link,0.98630720377,-0.104432530701,-0.127639755607
1505419081887470083,16308,1505419081887222471,ardrone_base_link,0.98630720377,-0.104432530701,-0.127639755607
1505419081892437805,16309,1505419081892217166,ardrone_base_link,0.989674627781,-0.141382083297,-0.0235636811703
1505419081897302484,16310,1505419081897089132,ardrone_base_link,0.989674627781,-0.141382083297,-0.0235636811703
1505419081904382959,16311,1505419081904183064,ardrone_base_link,0.982873141766,-0.182860121131,-0.0228575151414
1505419081911162858,16312,1505419081910918519,ardrone_base_link,0.982873141766,-0.182860121131,-0.0228575151414
1505419081912625526,16313,1505419081912424310,ardrone_base_link,0.987885296345,-0.154729023576,-0.0119022326544
1505419081917584466,16314,1505419081917383565,ardrone_base_link,0.987885296345,-0.154729023576,-0.0119022326544
1505419081922503160,16315,1505419081922337493,ardrone_base_link,0.990237832069,-0.134476736188,-0.0366754755378
1505419081927296572,16316,1505419081927123814,ardrone_base_link,0.990237832069,-0.134476736188,-0.0366754755378
1505419081933618852,16317,1505419081933371763,ardrone_base_link,0.987885296345,-0.154729023576,-0.0119022326544
1505419081937754668,16318,1505419081937565210,ardrone_base_link,0.987885296345,-0.154729023576,-0.0119022326544
1505419081943650445,16319,1505419081943440512,ardrone_base_link,0.990696132183,-0.131297081709,-0.0358082950115
1505419081948079409,16320,1505419081947894267,ardrone_base_link,0.990696132183,-0.131297081709,-0.0358082950115
1505419081952833587,16321,1505419081952637667,ardrone_base_link,0.993605256081,-0.0903277471662,-0.0677458122373
1505419081957532397,16322,1505419081957383053,ardrone_base_link,0.993605256081,-0.0903277471662,-0.0677458122373
1505419081963829917,16323,1505419081963639140,ardrone_base_link,0.992355048656,-0.121018908918,-0.0242037829012
1505419081968598884,16324,1505419081968336694,ardrone_base_link,0.992355048656,-0.121018908918,-0.0242037829012
1505419081978401196,16325,1505419081978197009,ardrone_base_link,0.993307352066,-0.115500852466,0.0
1505419081979181236,16326,1505419081979059131,ardrone_base_link,0.993307352066,-0.115500852466,0.0
1505419081984441843,16327,1505419081984230284,ardrone_base_link,0.990830302238,-0.134557202458,-0.0122324731201
1505419081987875886,16328,1505419081987701372,ardrone_base_link,0.990830302238,-0.134557202458,-0.0122324731201
1505419081994228795,16329,1505419081994048501,ardrone_base_link,0.990696132183,-0.131297081709,-0.0358082950115
1505419081998075256,16330,1505419081997930045,ardrone_base_link,0.990696132183,-0.131297081709,-0.0358082950115
1505419082003260191,16331,1505419082002950775,ardrone_base_link,0.992355048656,-0.121018908918,-0.0242037829012
1505419082011527039,16332,1505419082011345408,ardrone_base_link,0.992355048656,-0.121018908918,-0.0242037829012
1505419082012898945,16333,1505419082012731323,ardrone_base_link,0.994378864765,-0.0947027504444,-0.0473513752222
1505419082017814229,16334,1505419082017643885,ardrone_base_link,0.994378864765,-0.0947027504444,-0.0473513752222
1505419082022842967,16335,1505419082022669953,ardrone_base_link,0.99126124382,-0.131371974945,-0.0119429063052
1505419082027643402,16336,1505419082027476255,ardrone_base_link,0.99126124382,-0.131371974945,-0.0119429063052
1505419082033153543,16337,1505419082032993663,ardrone_base_link,0.991880059242,-0.118080958724,-0.0472323819995
1505419082045677068,16338,1505419082045478692,ardrone_base_link,0.991880059242,-0.118080958724,-0.0472323819995
1505419082045704437,16339,1505419082045508121,ardrone_base_link,0.990696132183,-0.107424885035,-0.0835526883602
1505419082048475450,16340,1505419082048242544,ardrone_base_link,0.990696132183,-0.107424885035,-0.0835526883602
1505419082052995682,16341,1505419082052774273,ardrone_base_link,0.993042469025,-0.115470059216,-0.0230940114707
1505419082057931594,16342,1505419082057747945,ardrone_base_link,0.993042469025,-0.115470059216,-0.0230940114707
1505419082063233941,16343,1505419082063043434,ardrone_base_link,0.988851368427,-0.141264483333,-0.0470881611109
1505419082069931621,16344,1505419082069728790,ardrone_base_link,0.988851368427,-0.141264483333,-0.0470881611109
1505419082077193798,16345,1505419082076983738,ardrone_base_link,0.99486374855,-0.100604198873,0.0111782439053
1505419082079491494,16346,1505419082079312600,ardrone_base_link,0.99486374855,-0.100604198873,0.0111782439053
1505419082083232653,16347,1505419082083046425,ardrone_base_link,0.989355742931,-0.138049632311,-0.0460165478289
1505419082088009456,16348,1505419082087837769,ardrone_base_link,0.989355742931,-0.138049632311,-0.0460165478289
1505419082093250290,16349,1505419082093010094,ardrone_base_link,0.984882831573,-0.144129186869,-0.0960861295462
1505419082099642616,16350,1505419082099525455,ardrone_base_link,0.984882831573,-0.144129186869,-0.0960861295462
1505419082111466024,16351,1505419082111271229,ardrone_base_link,0.982338607311,-0.187112107873,0.0
1505419082111493574,16352,1505419082111306815,ardrone_base_link,0.982338607311,-0.187112107873,0.0
1505419082113202716,16353,1505419082113102182,ardrone_base_link,0.988438904285,-0.151173010468,0.0116286929697
1505419082118254468,16354,1505419082118128815,ardrone_base_link,0.988438904285,-0.151173010468,0.0116286929697
1505419082123078490,16355,1505419082122904612,ardrone_base_link,0.990404844284,-0.138196021318,0.0
1505419082128457383,16356,1505419082128258388,ardrone_base_link,0.990404844284,-0.138196021318,0.0
1505419082133411687,16357,1505419082133224392,ardrone_base_link,0.99549549818,-0.0948091000319,0.0
1505419082138414168,16358,1505419082138203361,ardrone_base_link,0.99549549818,-0.0948091000319,0.0
1505419082144922027,16359,1505419082144693473,ardrone_base_link,0.988851368427,-0.141264483333,-0.0470881611109
1505419082148366366,16360,1505419082148190603,ardrone_base_link,0.988851368427,-0.141264483333,-0.0470881611109
1505419082153517055,16361,1505419082153320318,ardrone_base_link,0.98857742548,-0.0941502302885,-0.117687791586
1505419082161570926,16362,1505419082161446298,ardrone_base_link,0.98857742548,-0.0941502302885,-0.117687791586
1505419082163840878,16363,1505419082163609678,ardrone_base_link,0.992714166641,-0.119998417795,-0.0109089463949
1505419082168565899,16364,1505419082168308595,ardrone_base_link,0.992714166641,-0.119998417795,-0.0109089463949
1505419082176962126,16365,1505419082176748056,ardrone_base_link,0.998631060123,-0.036986336112,-0.036986336112
1505419082178417716,16366,1505419082178235542,ardrone_base_link,0.998631060123,-0.036986336112,-0.036986336112
1505419082183504168,16367,1505419082183295663,ardrone_base_link,0.990830302238,-0.134557202458,0.0122324731201
1505419082189588899,16368,1505419082189364124,ardrone_base_link,0.990830302238,-0.134557202458,0.0122324731201
1505419082193988335,16369,1505419082193790498,ardrone_base_link,0.987325906754,-0.154641404748,0.0356864780188
1505419082198771528,16370,1505419082198577807,ardrone_base_link,0.987325906754,-0.154641404748,0.0356864780188
1505419082204823201,16371,1505419082204628576,ardrone_base_link,0.979404211044,-0.195880845189,0.0489702112973
1505419082211540747,16372,1505419082211334072,ardrone_base_link,0.979404211044,-0.195880845189,0.0489702112973
1505419082213895148,16373,1505419082213736552,ardrone_base_link,0.993307352066,-0.0924006849527,-0.0693005099893
1505419082218438970,16374,1505419082218270848,ardrone_base_link,0.993307352066,-0.0924006849527,-0.0693005099893
1505419082223695604,16375,1505419082223493631,ardrone_base_link,0.988048970699,-0.137867301702,0.0689336508512
1505419082230202461,16376,1505419082229978123,ardrone_base_link,0.988048970699,-0.137867301702,0.0689336508512
1505419082233779077,16377,1505419082233546702,ardrone_base_link,0.994373083115,-0.105286560953,-0.0116985067725
1505419082245095774,16378,1505419082244778468,ardrone_base_link,0.994373083115,-0.105286560953,-0.0116985067725
1505419082245102263,16379,1505419082244805231,ardrone_base_link,0.992593467236,-0.112794712186,0.0451178848743
1505419082249998479,16380,1505419082249808871,ardrone_base_link,0.992593467236,-0.112794712186,0.0451178848743
1505419082253548281,16381,1505419082253392536,ardrone_base_link,0.992355048656,-0.121018908918,0.0242037829012
1505419082259034919,16382,1505419082258875640,ardrone_base_link,0.992355048656,-0.121018908918,0.0242037829012
1505419082263933614,16383,1505419082263741066,ardrone_base_link,0.987885296345,-0.154729023576,-0.0119022326544
1505419082268872117,16384,1505419082268659676,ardrone_base_link,0.987885296345,-0.154729023576,-0.0119022326544
1505419082277199820,16385,1505419082276992016,ardrone_base_link,0.991123020649,-0.128262981772,0.034980814904
1505419082278859946,16386,1505419082278746371,ardrone_base_link,0.991123020649,-0.128262981772,0.034980814904
1505419082284180566,16387,1505419082283999233,ardrone_base_link,0.994373083115,-0.105286560953,-0.0116985067725
1505419082289079900,16388,1505419082288580483,ardrone_base_link,0.994373083115,-0.105286560953,-0.0116985067725
1505419082295374912,16389,1505419082295192527,ardrone_base_link,0.99126124382,-0.131371974945,-0.0119429063052
1505419082298859085,16390,1505419082298671338,ardrone_base_link,0.99126124382,-0.131371974945,-0.0119429063052
1505419082310961619,16391,1505419082310669594,ardrone_base_link,0.99549549818,-0.0948091000319,0.0
1505419082311085085,16392,1505419082310718892,ardrone_base_link,0.99549549818,-0.0948091000319,0.0
1505419082313984179,16393,1505419082313891652,ardrone_base_link,0.996010184288,-0.0820243656635,-0.0351532995701
1505419082318990726,16394,1505419082318815121,ardrone_base_link,0.996010184288,-0.0820243656635,-0.0351532995701
1505419082324331201,16395,1505419082324143613,ardrone_base_link,0.984598815441,-0.168102234602,-0.0480292104185
1505419082329260320,16396,1505419082329071463,ardrone_base_link,0.984598815441,-0.168102234602,-0.0480292104185
1505419082334054251,16397,1505419082333841826,ardrone_base_link,0.992036938667,-0.125429958105,0.0114027233794
1505419082344208189,16398,1505419082344023177,ardrone_base_link,0.992036938667,-0.125429958105,0.0114027233794
1505419082345133013,16399,1505419082344961561,ardrone_base_link,0.987729609013,-0.148159444332,0.0493864789605
1505419082349040548,16400,1505419082348832202,ardrone_base_link,0.987729609013,-0.148159444332,0.0493864789605
1505419082357000676,16401,1505419082356748454,ardrone_base_link,0.990696132183,-0.131297081709,0.0358082950115
1505419082359971237,16402,1505419082359839189,ardrone_base_link,0.990696132183,-0.131297081709,0.0358082950115
1505419082367087705,16403,1505419082366894939,ardrone_base_link,0.992988228798,-0.118212886155,0.0
1505419082369321643,16404,1505419082369097027,ardrone_base_link,0.992988228798,-0.118212886155,0.0
1505419082376699818,16405,1505419082376502885,ardrone_base_link,0.993307352066,-0.0924006849527,0.0693005099893
1505419082379098657,16406,1505419082378927613,ardrone_base_link,0.993307352066,-0.0924006849527,0.0693005099893
1505419082385465849,16407,1505419082385328841,ardrone_base_link,0.995147168636,-0.0800693109632,0.0571923665702
1505419082389580843,16408,1505419082389050364,ardrone_base_link,0.995147168636,-0.0800693109632,0.0571923665702
1505419082394532137,16409,1505419082394388875,ardrone_base_link,0.99639070034,-0.0840329453349,0.0120047070086
1505419082399493345,16410,1505419082399281928,ardrone_base_link,0.99639070034,-0.0840329453349,0.0120047070086
1505419082404428763,16411,1505419082404253948,ardrone_base_link,0.996713340282,-0.0801953300834,0.0114564755931
1505419082411232062,16412,1505419082410942551,ardrone_base_link,0.996713340282,-0.0801953300834,0.0114564755931
1505419082414132732,16413,1505419082413952508,ardrone_base_link,0.995215952396,-0.0947824716568,-0.0236956179142
1505419082419422841,16414,1505419082419217476,ardrone_base_link,0.995215952396,-0.0947824716568,-0.0236956179142
1505419082424713651,16415,1505419082424522150,ardrone_base_link,0.988438904285,-0.151173010468,0.0116286929697
1505419082429445860,16416,1505419082429241408,ardrone_base_link,0.988438904285,-0.151173010468,0.0116286929697
1505419082434560873,16417,1505419082434342240,ardrone_base_link,0.994373083115,-0.105286560953,-0.0116985067725
1505419082443439857,16418,1505419082443252799,ardrone_base_link,0.994373083115,-0.105286560953,-0.0116985067725
1505419082447926523,16419,1505419082447682110,ardrone_base_link,0.992249011993,-0.115377791226,0.0461511164904
1505419082449527403,16420,1505419082449403970,ardrone_base_link,0.992249011993,-0.115377791226,0.0461511164904
1505419082454703088,16421,1505419082454525917,ardrone_base_link,0.987580358982,-0.157115057111,0.0
1505419082459708306,16422,1505419082459509961,ardrone_base_link,0.987580358982,-0.157115057111,0.0
1505419082464509107,16423,1505419082464352145,ardrone_base_link,0.993883788586,-0.110431529582,0.0
1505419082469578293,16424,1505419082469418875,ardrone_base_link,0.993883788586,-0.110431529582,0.0
1505419082479514778,16425,1505419082479323396,ardrone_base_link,0.98907071352,-0.131876096129,0.0659380480647
1505419082481535355,16426,1505419082481361433,ardrone_base_link,0.98907071352,-0.131876096129,0.0659380480647
1505419082484596894,16427,1505419082484411683,ardrone_base_link,0.993531107903,-0.107732288539,0.0359107628465
1505419082489886300,16428,1505419082489683336,ardrone_base_link,0.993531107903,-0.107732288539,0.0359107628465
1505419082496884008,16429,1505419082496720504,ardrone_base_link,0.995561718941,-0.076581671834,0.0547011941671
1505419082499827585,16430,1505419082499643698,ardrone_base_link,0.995561718941,-0.076581671834,0.0547011941671
1505419082504676379,16431,1505419082504513600,ardrone_base_link,0.997860729694,-0.0560595914721,0.0336357541382
1505419082510077333,16432,1505419082509877401,ardrone_base_link,0.997860729694,-0.0560595914721,0.0336357541382
1505419082514794189,16433,1505419082514590060,ardrone_base_link,0.995274603367,-0.0970999598503,0.0
1505419082520078452,16434,1505419082519889610,ardrone_base_link,0.995274603367,-0.0970999598503,0.0
1505419082524914165,16435,1505419082524744667,ardrone_base_link,0.992593467236,-0.112794712186,0.0451178848743
1505419082532746929,16436,1505419082532570153,ardrone_base_link,0.992593467236,-0.112794712186,0.0451178848743
1505419082534758787,16437,1505419082534556986,ardrone_base_link,0.98907071352,-0.131876096129,0.0659380480647
1505419082543659068,16438,1505419082543465465,ardrone_base_link,0.98907071352,-0.131876096129,0.0659380480647
1505419082544655661,16439,1505419082544491398,ardrone_base_link,0.991600453854,-0.129339188337,0.0
1505419082554666811,16440,1505419082554460890,ardrone_base_link,0.991600453854,-0.129339188337,0.0
1505419082555455514,16441,1505419082555287801,ardrone_base_link,0.986228108406,-0.137613222003,0.0917421504855
1505419082559991842,16442,1505419082559808691,ardrone_base_link,0.986228108406,-0.137613222003,0.0917421504855
1505419082565503931,16443,1505419082565358198,ardrone_base_link,0.989422678947,-0.141346096992,0.0326183289289
1505419082570551612,16444,1505419082570304952,ardrone_base_link,0.989422678947,-0.141346096992,0.0326183289289
1505419082576611412,16445,1505419082576402596,ardrone_base_link,0.992593467236,-0.112794712186,0.0451178848743
1505419082581872936,16446,1505419082581669054,ardrone_base_link,0.992593467236,-0.112794712186,0.0451178848743
1505419082585105790,16447,1505419082584924421,ardrone_base_link,0.989422678947,-0.141346096992,0.0326183289289
1505419082591179597,16448,1505419082590970460,ardrone_base_link,0.989422678947,-0.141346096992,0.0326183289289
1505419082598865064,16449,1505419082598703837,ardrone_base_link,0.990267395973,-0.132035657763,0.0440118834376
1505419082600072696,16450,1505419082599914615,ardrone_base_link,0.990267395973,-0.132035657763,0.0440118834376
1505419082611070602,16451,1505419082610825192,ardrone_base_link,0.989355742931,-0.138049632311,0.0460165478289
1505419082611082528,16452,1505419082610866962,ardrone_base_link,0.989355742931,-0.138049632311,0.0460165478289
1505419082617128097,16453,1505419082616975213,ardrone_base_link,0.99570119381,-0.0926233679056,0.0
1505419082620446045,16454,1505419082620236366,ardrone_base_link,0.99570119381,-0.0926233679056,0.0
