%time,field.transforms0.header.seq,field.transforms0.header.stamp,field.transforms0.header.frame_id,field.transforms0.child_frame_id,field.transforms0.transform.translation.x,field.transforms0.transform.translation.y,field.transforms0.transform.translation.z,field.transforms0.transform.rotation.x,field.transforms0.transform.rotation.y,field.transforms0.transform.rotation.z,field.transforms0.transform.rotation.w
1505402118923520451,0,1505402118922936673,0.0,0.0,0.0,0.0213579948874,0.00753593443746,0.905564905964,-0.423602699274
1505402118927536779,0,1505402118927203943,0.0,0.0,0.0,0.0213658970602,0.00753963186099,0.905564736,-0.423602598324
1505402118932187095,0,1505402118931898772,0.0,0.0,0.0,0.0213658312637,0.00753981831332,0.905561039336,-0.423610500851
1505402118934611932,0,1505402118934445683,0.376706719398,0.844547092915,0.473375588655,-0.0177038367838,-0.998483479023,-0.0309035666287,0.0419806241989
1505402118934633863,0,1505402118934460573,0.452690005302,0.0470136851072,0.51480358839,0.000246948067797,-0.996722996235,0.00200046342798,0.080865085125
1505402118934640781,0,1505402118934485789,0.376701205969,0.844495415688,0.473363399506,-0.0177610311657,-0.998483538628,-0.0308825653046,0.0419703125954
1505402118934675000,0,1505402118934493961,0.452882319689,0.0470377169549,0.517108738422,-0.000306713511236,-0.996721506119,0.0019387381617,0.080885745585
1505402118937133723,0,1505402118936968437,0.0,0.0,0.0,0.0213620686968,0.0075479072434,0.905557276769,-0.423618589781
1505402118943426973,0,1505402118942996351,0.0,0.0,0.0,0.0213620028281,0.00754809366233,0.905553579965,-0.423626492243
1505402118944951497,0,1505402118944816831,0.376700311899,0.844526052475,0.473396122456,-0.0177397076041,-0.998483598232,-0.0308744329959,0.0419815741479
1505402118944960904,0,1505402118944830099,0.452993482351,0.0473167300224,0.519364237785,-0.000343321065884,-0.996690869331,0.00152122392319,0.0812712013721
1505402118946987654,0,1505402118946796853,0.0,0.0,0.0,0.0213620028281,0.00754809366233,0.905553579965,-0.423626492243
1505402118952147729,0,1505402118951919703,0.0,0.0,0.0,0.0213698390007,0.00755197777799,0.90554971303,-0.423634293754
1505402118955191318,0,1505402118955066804,0.376698583364,0.84454536438,0.473382472992,-0.0177508890629,-0.998484730721,-0.0308455359191,0.041972771287
1505402118955198439,0,1505402118955095201,0.453202962875,0.0470105521381,0.521657347679,-0.000315293931635,-0.99669533968,0.0035882408265,0.0811498314142
1505402118958461477,0,1505402118958289762,0.0,0.0,0.0,0.0213697730965,0.00755216426473,0.905546016089,-0.42364219615
1505402118962558496,0,1505402118962289091,0.0,0.0,0.0,0.0213697730965,0.00755216426473,0.905546016089,-0.42364219615
1505402118964402260,0,1505402118964285952,0.376708656549,0.844488203526,0.473337620497,-0.0177457071841,-0.998483419418,-0.0308765675873,0.0419838130474
1505402118964468131,0,1505402118964298956,0.453349709511,0.0468239858747,0.524110615253,0.00041902900557,-0.996616005898,0.00295120012015,0.0821442976594
1505402118968752741,0,1505402118968482722,0.0,0.0,0.0,0.021373912123,0.00756395093126,0.905542082976,-0.423650184098
1505402118968868844,0,1505402118908499956,base_footprint,-0.0969999999999,0.0,0.0,0.0,0.0,0.0,1.0
1505402118974647127,0,1505402118974512540,0.376720696688,0.844516277313,0.473386406898,-0.0177030712366,-0.998484432697,-0.0308911707252,0.041965007782
1505402118974719562,0,1505402118974522469,0.45352062583,0.0470580607653,0.526335477829,0.00023958789825,-0.996641218662,0.00265312800184,0.0818483009934
1505402118975990952,0,1505402118975771116,0.0,0.0,0.0,0.021373912123,0.00756395093126,0.905542082976,-0.423650184098
1505402118977565081,0,1505402118977335896,0.0,0.0,0.0,0.0213738461142,0.00756413745354,0.905538385896,-0.423658086427
1505402118983799184,0,1505402118983378735,0.0,0.0,0.0,0.0213737801039,0.00756432397524,0.905534688748,-0.423665988724
1505402118987837080,0,1505402118987537506,0.0,0.0,0.0,0.0213737140919,0.00756451049637,0.90553099153,-0.423673890989
1505402118992632818,0,1505402118992382772,0.0,0.0,0.0,0.0213736480783,0.00756469701693,0.905527294243,-0.423681793221
1505402118995064071,0,1505402118994911525,0.376694560051,0.844540059566,0.47336679697,-0.0177671946585,-0.998483836651,-0.0308513231575,0.0419819205999
1505402118995155589,0,1505402118994952917,0.453782975674,0.0469335801899,0.528835892677,0.000597219972406,-0.996642529964,0.00285009643994,0.0818241685629
1505402118995166178,0,1505402118994964642,0.37670442462,0.844537436962,0.473389357328,-0.0177654866129,-0.998484790325,-0.0308251492679,0.0419803038239
1505402118995171811,0,1505402118994976715,0.454059541225,0.0469697713852,0.531023919582,-0.000104772334453,-0.996684491634,0.00349488249049,0.0812884047627
1505402118997307105,0,1505402118997162245,0.0,0.0,0.0,0.0213699507563,0.00757259923302,0.905527228194,-0.423681979725
1505402119003314749,0,1505402119002960651,0.0,0.0,0.0,0.0213777864877,0.00757648389661,0.905523360579,-0.423689781069
1505402119004485238,0,1505402119004353536,0.376707524061,0.844513356686,0.4733928442,-0.0177427921444,-0.998485088348,-0.030850507319,0.0419644191861
1505402119004565608,0,1505402119004396292,0.454317778349,0.0469586625695,0.533430337906,-0.000640916056,-0.99671036005,0.00321547593921,0.080979578197
1505402119009620911,0,1505402119009422857,0.0,0.0,0.0,0.0213777864877,0.00757648389661,0.905523360579,-0.423689781069
1505402119012612136,0,1505402119012404114,0.0,0.0,0.0,0.0213777864877,0.00757648389661,0.905523360579,-0.423689781069
1505402119014815665,0,1505402119014670901,0.376722514629,0.844460248947,0.473339766264,-0.0177511256188,-0.998483002186,-0.0308839455247,0.0419848188758
1505402119014887891,0,1505402119014680002,0.454589158297,0.0467214733362,0.53581148386,-0.000119306976558,-0.996708273888,0.00294107012451,0.0810179635882
1505402119017657403,0,1505402119017433710,0.0,0.0,0.0,0.021374022909,0.0075845726022,0.905519597,-0.423697869775
1505402119020917948,0,1505402119020711094,0.21,0.0,0.0,-0.499999999999,0.500000836553,-0.499999999999,0.499999163447
1505402119020928538,0,1505402119020711193,0.0,-0.02,0.0,0.707106189653,0.707107372717,-1.18306495402e-06,-1.18306297463e-06
1505402119024649373,0,1505402119024447665,0.0,0.0,0.0,0.021374022909,0.0075845726022,0.905519597,-0.423697869775
1505402119025004574,0,1505402119024884324,0.376713782549,0.844551503658,0.473382771015,-0.0177480969578,-0.998484075069,-0.0308633577079,0.0419766046107
1505402119029903839,0,1505402119024898671,0.454795002937,0.0469924733043,0.538201987743,0.000199640649953,-0.996752083302,0.00255543156527,0.0804909169674
1505402119031903755,0,1505402119031738721,0.0,0.0,0.0,0.0213623574363,0.00758896293127,0.905516003601,-0.423706059136
1505402119034323275,0,1505402119034086594,0.376706898212,0.844565808773,0.473412245512,-0.0177367851138,-0.998484790325,-0.0308504197747,0.0419737733901
1505402119034332321,0,1505402119034096066,0.454962700605,0.0470857471228,0.540788531303,0.000731436070055,-0.996676266193,0.00224397378042,0.0814294964075
1505402119034680791,0,1505402119034267778,0.0,0.0,0.0,0.0213622912093,0.00758914935272,0.905512306034,-0.423713961237
1505402119037643161,0,1505402119037405309,0.0,0.0,0.0,0.0213622249806,0.00758933577359,0.905508608398,-0.423721863307
1505402119043639994,0,1505402119043254621,0.0,0.0,0.0,0.0213622249806,0.00758933577359,0.905508608398,-0.423721863307
1505402119047649144,0,1505402119047466691,0.0,0.0,0.0,0.0213622249806,0.00758933577359,0.905508608398,-0.423721863307
1505402119052812024,0,1505402119052613101,0.0,0.0,0.0,0.0213621587504,0.00758952219388,0.905504910692,-0.423729765344
1505402119054608974,0,1505402119054447862,0.376721024513,0.844465136528,0.47336179018,-0.0177695825696,-0.998483777046,-0.0308626815677,0.0419739894569
1505402119054701169,0,1505402119054457829,0.455259919167,0.0469521433115,0.543120503426,0.00013062756625,-0.996695280075,0.00177163875196,0.0812113806605
1505402119054708055,0,1505402119054504441,0.37671366334,0.844522356987,0.473393082619,-0.0177421495318,-0.998484432697,-0.0308680441231,0.0419675894082
1505402119054711816,0,1505402119054551797,0.455570101738,0.0468302704394,0.545674800873,-6.48050918244e-05,-0.996735334396,0.00226702145301,0.0807065963745
1505402119058030613,0,1505402119057839774,0.0,0.0,0.0,0.0213621587504,0.00758952219388,0.905504910692,-0.423729765344
1505402119062874318,0,1505402119062578669,0.0,0.0,0.0,0.0213700604064,0.00759322071157,0.905504740374,-0.423729664618
1505402119064981771,0,1505402119064854253,0.376708179712,0.844512701035,0.473373889923,-0.0177513286471,-0.998484253883,-0.03086761944,0.0419662967324
1505402119065066254,0,1505402119064866777,0.455803155899,0.046940099448,0.547973036766,5.46290211787e-05,-0.996778845787,0.0016678320244,0.0801826119423
1505402119067960389,0,1505402119067554270,0.0,0.0,0.0,0.0213699941422,0.00759340720024,0.905501042601,-0.423737566622
1505402119068138581,0,1505402119041896104,base_footprint,-0.0690000000004,0.0,0.0,0.0,0.0,0.0,1.0
1505402119074781749,0,1505402119074499495,0.0,0.0,0.0,0.0213699941422,0.00759340720024,0.905501042601,-0.423737566622
1505402119077898896,0,1505402119077610099,0.0,0.0,0.0,0.0213778957643,0.00759710578631,0.905500872214,-0.423737465863
1505402119084457425,0,1505402119084056278,0.0,0.0,0.0,0.0213778294663,0.00759729234335,0.905497174373,-0.423745367832
1505402119084466833,0,1505402119084279587,0.376713901758,0.844517707825,0.473380446434,-0.0177343506366,-0.998483896255,-0.030886201188,0.0419700928032
1505402119084475198,0,1505402119084290474,0.455925554037,0.0467181690037,0.550449073315,0.00042849133024,-0.996778309345,0.00296818232164,0.0801498815417
1505402119084479372,0,1505402119084297800,0.376715302467,0.844553053379,0.473400145769,-0.0177179165184,-0.99848395586,-0.0308973025531,0.0419678092003
1505402119084484270,0,1505402119084303371,0.456094413996,0.0469732917845,0.552805185318,0.000155365691171,-0.996755123138,0.0020344692748,0.0804674625397
1505402119090472734,0,1505402119090248718,0.0,0.0,0.0,0.0213857310545,0.0076009909978,0.905497003918,-0.423745267039
1505402119094627822,0,1505402119094491740,0.376719623804,0.844475030899,0.473366171122,-0.0177562255412,-0.998483300209,-0.0308832842857,0.0419773310423
1505402119094635670,0,1505402119094501689,0.456385850906,0.0468955524266,0.555253326893,-3.59032710548e-05,-0.996739804745,0.00137484364677,0.0806713923812
1505402119095766519,0,1505402119095411051,0.0,0.0,0.0,0.0213856647225,0.00760117762322,0.905493306009,-0.423753168975
1505402119097986310,0,1505402119097729649,0.0,0.0,0.0,0.0213855983889,0.00760136424806,0.90548960803,-0.423761070879
1505402119103071045,0,1505402119102843953,0.0,0.0,0.0,0.0213934335434,0.00760524973305,0.905485739462,-0.42376887192
1505402119108582128,0,1505402119108364637,0.0,0.0,0.0,0.0213897354616,0.0076131515865,0.905485673059,-0.423769058597
1505402119113137787,0,1505402119112915338,0.0,0.0,0.0,0.0213896690235,0.00761333824686,0.905481974942,-0.423776960434
1505402119115090322,0,1505402119114948256,0.376704663038,0.844533860683,0.473391979933,-0.0177464727312,-0.998484492302,-0.0308624655008,0.0419688001275
1505402119115101251,0,1505402119114960138,0.456471979618,0.0471153184772,0.557783186436,0.000734097964596,-0.996678054333,0.000297381047858,0.0814388468862
1505402119115105967,0,1505402119114969580,0.376705259085,0.844533324242,0.473399966955,-0.017766289413,-0.998485147953,-0.0308313127607,0.0419679395854
1505402119115109630,0,1505402119114977768,0.456821382046,0.0468938499689,0.560085356236,0.000383559527108,-0.996783792973,0.00144232716411,0.080123372376
1505402119120873570,0,1505402119120712802,0.21,0.0,0.0,-0.499999999999,0.500000836553,-0.499999999999,0.499999163447
1505402119120882693,0,1505402119120712917,0.0,-0.02,0.0,0.707106189653,0.707107372717,-1.18306495402e-06,-1.18306297463e-06
1505402119121213320,0,1505402119121022531,0.0,0.0,0.0,0.021385970871,0.00762124006746,0.905481908469,-0.423777147078
1505402119124351384,0,1505402119124207526,0.376708567142,0.844491899014,0.473373442888,-0.0177783593535,-0.998483240604,-0.0308625269681,0.0419840030372
1505402119124358493,0,1505402119124226829,0.456966459751,0.0467524193227,0.562582671642,0.000397263793275,-0.996757626534,0.00103475153446,0.080454595387
1505402119127367861,0,1505402119127132265,0.0,0.0,0.0,0.0213938723286,0.00762493899359,0.905481737815,-0.423777046352
1505402119128447367,0,1505402119128119929,0.0,0.0,0.0,0.0213938057877,0.00762512569005,0.905478039628,-0.423784948155
1505402119133315762,0,1505402119133084452,0.0,0.0,0.0,0.0214017072114,0.00762882468455,0.905477868907,-0.423784847396
1505402119138840884,0,1505402119138543945,0.0,0.0,0.0,0.0214095420263,0.00763271051225,0.905473999862,-0.423792648371
1505402119143230643,0,1505402119142977259,0.0,0.0,0.0,0.0214095420263,0.00763271051225,0.905473999862,-0.423792648371
1505402119144857229,0,1505402119144668170,0.376718878746,0.844543516636,0.473398953676,-0.017724391073,-0.998484730721,-0.0308834072202,0.0419555827975
1505402119144867870,0,1505402119144679335,0.457248747349,0.047061894089,0.5647392869,-0.000232457343373,-0.996802866459,0.000308794929879,0.0798994079232
1505402119144872883,0,1505402119144689720,0.376715421677,0.844516634941,0.47339168191,-0.0177535042167,-0.998484373093,-0.0308748930693,0.0419576838613
1505402119144877144,0,1505402119144725804,0.457403093576,0.0469929948449,0.567122340202,0.000219239402213,-0.996780335903,0.000407090235967,0.0801796391606
1505402119148204035,0,1505402119148016526,0.0,0.0,0.0,0.0214094754175,0.00763289734546,0.905470301539,-0.423800550107
1505402119153745294,0,1505402119153484308,0.0,0.0,0.0,0.0214210751292,0.00762869475888,0.905470197289,-0.423800262362
1505402119155042394,0,1505402119154967162,0.376709491014,0.844537377357,0.473409831524,-0.0177516099066,-0.998485147953,-0.0308568179607,0.041955024004
1505402119155048247,0,1505402119154996919,0.457551121712,0.0471032708883,0.569662094116,0.000232008707826,-0.996734380722,0.000127618535771,0.0807500556111
1505402119158335475,0,1505402119158068771,0.0,0.0,0.0,0.0214210085554,0.00762888169274,0.9054664989,-0.423808164064
1505402119163699747,0,1505402119163299588,0.0,0.0,0.0,0.0214247069785,0.00762098000661,0.90546656544,-0.423807977114
1505402119168484394,0,1505402119108498096,base_footprint,-0.0510000000005,0.0,0.0,0.0,0.0,0.0,1.0
1505402119168493557,0,1505402119168265976,0.0,0.0,0.0,0.0214362402496,0.00761696459076,0.905462762628,-0.423815590734
1505402119174548151,0,1505402119174318502,0.376713484526,0.844527840614,0.47338873148,-0.0177226755768,-0.998483896255,-0.0308941788971,0.0419691987336
1505402119174558751,0,1505402119174330663,0.457758903503,0.0468596555293,0.571881055832,0.0002337784681,-0.996776521206,0.00166068237741,0.0802108198404
1505402119174614137,0,1505402119174340332,0.376709908247,0.844485163689,0.473388940096,-0.0177475940436,-0.998484075069,-0.0308936145157,0.0419534631073
1505402119174657510,0,1505402119174378157,0.45809930563,0.0467346869409,0.574202299118,0.00030547825736,-0.996799409389,0.0015109492233,0.0799280628562
1505402119176165492,0,1505402119175948947,0.0,0.0,0.0,0.0214361737782,0.00761715165696,0.905459064105,-0.423823492371
1505402119179142644,0,1505402119178949201,0.0,0.0,0.0,0.0214398723351,0.00760925003571,0.905459130542,-0.423823305289
1505402119184771311,0,1505402119184602663,0.376710742712,0.844537615776,0.473395556211,-0.0177455935627,-0.998484253883,-0.0308646485209,0.0419733412564
1505402119184784098,0,1505402119184613827,0.458393067122,0.0468134656549,0.576558828354,0.000170488594449,-0.996832787991,0.000800055160653,0.0795227140188
1505402119186888563,0,1505402119186574922,0.0,0.0,0.0,0.0214361073052,0.00761733872257,0.905455365512,-0.423831393976
1505402119188532901,0,1505402119188342961,0.0,0.0,0.0,0.0214282060828,0.00761363931163,0.905455536339,-0.423831495048
1505402119198809553,0,1505402119198589369,0.0,0.0,0.0,0.0214202384486,0.00761012682725,0.905452008433,-0.423839497663
1505402119202317252,0,1505402119202049609,0.0,0.0,0.0,0.0214123372551,0.0076064273462,0.90545217912,-0.423839598672
1505402119204015248,0,1505402119203780881,0.0,0.0,0.0,0.0214043697129,0.00760291465323,0.905448651005,-0.423847601195
1505402119205132720,0,1505402119204983421,0.37670648098,0.844561338425,0.473395377398,-0.0177573263645,-0.998484611511,-0.0308503564447,0.0419684015214
1505402119205145264,0,1505402119204993457,0.458485037088,0.0470555908978,0.578696548939,0.000206612414331,-0.996829330921,0.000200801281608,0.0795691758394
1505402119205151409,0,1505402119205015076,0.376716017723,0.844497382641,0.473393678665,-0.0177487935871,-0.998483538628,-0.0308828819543,0.0419748537242
1505402119205156217,0,1505402119205022794,0.458677709103,0.0471296980977,0.581016600132,0.000164707569638,-0.996809601784,-0.000905075052287,0.0798110738397
1505402119210011161,0,1505402119209677142,0.0,0.0,0.0,0.0213964685485,0.00759921510207,0.905448821554,-0.423847702141
1505402119213719057,0,1505402119213485080,0.0,0.0,0.0,0.0213885010983,0.00759570220051,0.905445293229,-0.423855704571
1505402119214375225,0,1505402119214255190,0.376710385084,0.844494462013,0.473381787539,-0.0177387911826,-0.998484194279,-0.0308797173202,0.0419664047658
1505402119214382354,0,1505402119214267593,0.458895802498,0.0468979179859,0.583142995834,0.000287010363536,-0.996857702732,0.000357733981218,0.0792117789388
1505402119220929419,0,1505402119220718254,0.21,0.0,0.0,-0.499999999999,0.500000836553,-0.499999999999,0.499999163447
1505402119220938062,0,1505402119220718454,0.0,-0.02,0.0,0.707106189653,0.707107372717,-1.18306495402e-06,-1.18306297463e-06
1505402119226903509,0,1505402119226639352,0.0,0.0,0.0,0.0213805337093,0.00759218915989,0.905441764765,-0.42386370694
1505402119232440183,0,1505402119232033138,0.0,0.0,0.0,0.0213688674024,0.00759657741912,0.905438169903,-0.423871895742
1505402119234006386,0,1505402119233762102,0.0,0.0,0.0,0.0213609000663,0.00759306406959,0.90543464119,-0.423879897919
1505402119234944540,0,1505402119234729726,0.376699239016,0.844525516033,0.473378300667,-0.0177514068782,-0.998484969139,-0.0308361835778,0.0419730842113
1505402119234956832,0,1505402119234739938,0.459078282118,0.0469830818474,0.585416197777,0.000217405759031,-0.996840536594,-0.000375100207748,0.0794282481074
1505402119234962099,0,1505402119234746970,0.37670648098,0.844534516335,0.473393768072,-0.0177697762847,-0.998484075069,-0.0308489575982,0.0419764705002
1505402119234966763,0,1505402119234751767,0.459426611662,0.0470024086535,0.587659358978,-0.000166993690073,-0.996864438057,-0.0004583093978,0.0791269168258
1505402119242435571,0,1505402119242153244,0.0,0.0,0.0,0.0213572010156,0.00760096547713,0.905434574894,-0.423880084311
1505402119244227030,0,1505402119243905283,0.0,0.0,0.0,0.0213571346838,0.00760115185358,0.905430875808,-0.423887985702
1505402119245114043,0,1505402119244957605,0.376706570387,0.844510376453,0.473363310099,-0.0177375152707,-0.998484253883,-0.0308676287532,0.0419732816517
1505402119245123932,0,1505402119244967810,0.459565788507,0.0467654913664,0.589784920216,-0.000106624756882,-0.996850788593,0.00101316114888,0.0792934969068
1505402119250086516,0,1505402119249761131,0.0,0.0,0.0,0.0213571346838,0.00760115185358,0.905430875808,-0.423887985702
1505402119254246947,0,1505402119253995443,0.0,0.0,0.0,0.0213571346838,0.00760115185358,0.905430875808,-0.423887985702
1505402119262627670,0,1505402119262196783,0.0,0.0,0.0,0.0213570683504,0.00760133822945,0.905427176653,-0.423895887061
1505402119264544817,0,1505402119264416493,0.376712739468,0.844503998756,0.473343789577,-0.0177330374718,-0.99848395586,-0.0308790076524,0.0419739708304
1505402119264552494,0,1505402119264427637,0.459722369909,0.0465789996088,0.591862976551,0.000107779203972,-0.99682956934,0.0018919208087,0.0795428529382
1505402119264556479,0,1505402119264445568,0.376710414886,0.844528019428,0.47338950634,-0.0177372712642,-0.998484790325,-0.0308588817716,0.0419687069952
1505402119264564305,0,1505402119264451789,0.45992860198,0.0465155802667,0.594053804874,2.06019249163e-05,-0.996830701828,0.00246999692172,0.0795134603977
1505402119264785901,0,1505402119264606496,0.0,0.0,0.0,0.0213570683504,0.00760133822945,0.905427176653,-0.423895887061
1505402119268635765,0,1505402119208486080,base_footprint,-0.0270000000008,0.0,0.0,0.0,0.0,0.0,1.0
1505402119268978857,0,1505402119268786256,0.0,0.0,0.0,0.0213649693294,0.00760503819364,0.90542700632,-0.423895786374
1505402119274825021,0,1505402119274567973,0.0,0.0,0.0,0.0213649029621,0.00760522463788,0.905423307097,-0.423903687699
1505402119274843049,0,1505402119274653272,0.376710295677,0.844566941261,0.473409473896,-0.0177407357842,-0.998484909534,-0.0308421477675,0.0419750362635
1505402119274849051,0,1505402119274662710,0.460039198399,0.0465172752738,0.596146583557,-0.00022217395599,-0.996819257736,0.0032419373747,0.0796289592981
1505402119279171415,0,1505402119278908935,0.0,0.0,0.0,0.0213648365932,0.00760541108154,0.905419607805,-0.423911588991
1505402119284806015,0,1505402119284258933,0.0,0.0,0.0,0.021372737506,0.00760911118306,0.905419437406,-0.423911488268
1505402119284994438,0,1505402119284865673,0.37670725584,0.844510495663,0.473364800215,-0.0177373476326,-0.998483359814,-0.0308841057122,0.0419813357294
1505402119285005039,0,1505402119284875802,0.460205286741,0.0466223545372,0.598246514797,-0.000420023192419,-0.996813058853,0.00296021136455,0.079716771841
1505402119293027771,0,1505402119292804646,0.0,0.0,0.0,0.0213689717078,0.00761719893766,0.905415671608,-0.423919576023
1505402119294196232,0,1505402119293876471,0.0,0.0,0.0,0.0213689717078,0.00761719893766,0.905415671608,-0.423919576023
1505402119295143667,0,1505402119295058828,0.376715362072,0.844493210316,0.473365724087,-0.0177317727357,-0.998483598232,-0.0308936238289,0.0419718287885
1505402119295153596,0,1505402119295069027,0.460405826569,0.0465687811375,0.60039049387,-0.000557181192562,-0.996810138226,0.00320626166649,0.0797430202365
1505402119304535175,0,1505402119304330477,0.376706659794,0.844533085823,0.473366200924,-0.0177329499274,-0.998485207558,-0.0308337230235,0.0419771559536
1505402119304551456,0,1505402119304342796,0.460550278425,0.0464287102222,0.602653264999,-0.000244598544668,-0.996798157692,0.0035151860211,0.0798814147711
1505402119304778266,0,1505402119304374322,0.0,0.0,0.0,0.0213652057684,0.00762528662654,0.905411905668,-0.423927663712
1505402119316456043,0,1505402119316049613,0.0,0.0,0.0,0.0213731066167,0.0076289868624,0.905411735137,-0.423927563091
1505402119316461407,0,1505402119316078991,0.0,0.0,0.0,0.0213730400404,0.00762917337765,0.905408035637,-0.423935464283
1505402119316468844,0,1505402119316093157,0.0,0.0,0.0,0.0213729734625,0.00762935989232,0.905404336068,-0.423943365443
1505402119319077228,0,1505402119318729822,0.0,0.0,0.0,0.0213808742446,0.00763306026549,0.905404165469,-0.423943264787
1505402119321408941,0,1505402119321263971,0.21,0.0,0.0,-0.499999999999,0.500000836553,-0.499999999999,0.499999163447
1505402119321428099,0,1505402119321264084,0.0,-0.02,0.0,0.707106189653,0.707107372717,-1.18306495402e-06,-1.18306297463e-06
1505402119324368074,0,1505402119324096771,0.0,0.0,0.0,0.0213845738467,0.00762515912332,0.905404232046,-0.423943078187
1505402119324868217,0,1505402119324724971,0.376703023911,0.844554662704,0.473385185003,-0.0177467986941,-0.998484611511,-0.0308397468179,0.0419836193323
1505402119324877896,0,1505402119324736047,0.460895955563,0.0461583547294,0.605118513107,-0.000368172564777,-0.996856272221,0.00391407590359,0.0791333690286
1505402119324883558,0,1505402119324766498,0.376711517572,0.844521999359,0.47339001298,-0.0177222248167,-0.998484611511,-0.0308643803,0.0419719517231
1505402119324887545,0,1505402119324771454,0.461071372032,0.0460908450186,0.607335627079,-0.000718262279406,-0.996869325638,0.00475856941193,0.0789204835892
1505402119331310079,0,1505402119331159731,0.0,0.0,0.0,0.0213845073039,0.00762534573864,0.90540053241,-0.423950979314
1505402119335053783,0,1505402119334966785,0.3767105937,0.844485938549,0.47336345911,-0.0177225489169,-0.998483896255,-0.0308986175805,0.0419654659927
1505402119335125776,0,1505402119335025728,0.461392074823,0.0463931262493,0.609498918056,-0.00121969613247,-0.996894299984,0.00321496534161,0.0786767303944
1505402119335424626,0,1505402119335280627,0.0,0.0,0.0,0.0213881404977,0.00761763127521,0.905396899216,-0.423958693777
1505402119345382690,0,1505402119344730098,0.0,0.0,0.0,0.0213960412119,0.00762133178867,0.905396728615,-0.423958592948
1505402119345396834,0,1505402119344784757,0.0,0.0,0.0,0.021400175577,0.0076331201288,0.905392791598,-0.423966579915
1505402119349501018,0,1505402119349235268,0.0,0.0,0.0,0.0214001089647,0.00763330688027,0.905389091757,-0.423974480941
1505402119354503857,0,1505402119354410197,0.376699924469,0.844508051872,0.473370015621,-0.0177432578057,-0.998483717442,-0.0308829061687,0.0419725477695
1505402119354544223,0,1505402119354420574,0.461612582207,0.0465978272259,0.611958384514,-0.00106364954263,-0.996874153614,0.00169837858994,0.0789810121059
1505402119354552251,0,1505402119354436715,0.376707583666,0.84454113245,0.473381489515,-0.017728773877,-0.998484253883,-0.0308589357883,0.0419847816229
1505402119354555669,0,1505402119354442438,0.46175044775,0.0467460937798,0.614134073257,-0.000377928867238,-0.996847450733,0.00118771230336,0.0793318971992
1505402119357423355,0,1505402119357230188,0.0,0.0,0.0,0.0214042430214,0.00764509532508,0.905385154398,-0.42398246791
1505402119359364401,0,1505402119359201788,0.0,0.0,0.0,0.0214078763177,0.00763738116807,0.905381521101,-0.423990182067
1505402119364772758,0,1505402119364441577,0.0,0.0,0.0,0.0214078763177,0.00763738116807,0.905381521101,-0.423990182067
1505402119364997114,0,1505402119364846830,0.376711547375,0.844525754452,0.473358899355,-0.0177292600274,-0.998483717442,-0.0308735631406,0.0419862642884
1505402119365011949,0,1505402119364859014,0.46206343174,0.0468419864774,0.616502165794,-0.000612253090367,-0.996861994267,-0.000254846294411,0.0791571363807
1505402119368893927,0,1505402119341847896,base_footprint,-0.00100000000123,0.0,0.0,0.0,0.0,0.0,1.0
1505402119369574413,0,1505402119369354745,0.0,0.0,0.0,0.0214078096681,0.00763756798674,0.905377821054,-0.423998082995
1505402119375168936,0,1505402119375036052,0.376707553864,0.844516932964,0.473370015621,-0.0177457518876,-0.998483896255,-0.0308604929596,0.0419839806855
1505402119375176562,0,1505402119375042997,0.462279826403,0.0466135516763,0.61880838871,-0.000594556622673,-0.996876358986,0.000958272081334,0.0789707228541
1505402119376172832,0,1505402119376008045,0.0,0.0,0.0,0.0214119433832,0.00764935660664,0.905373883385,-0.424006069896
1505402119382904118,0,1505402119382596048,0.0,0.0,0.0,0.0214119433832,0.00764935660664,0.905373883385,-0.424006069896
1505402119384454650,0,1505402119384302260,0.376698851585,0.844515740871,0.473360031843,-0.0177693385631,-0.998483538628,-0.0308400504291,0.0419968925416
1505402119384462529,0,1505402119384314047,0.462495565414,0.0466345734894,0.621034026146,-0.000856367929373,-0.996881425381,0.000635149481241,0.0789071023464
1505402119384572501,0,1505402119384351607,0.0,0.0,0.0,0.0214119433832,0.00764935660664,0.905373883385,-0.424006069896
1505402119390669053,0,1505402119390502044,0.0,0.0,0.0,0.0214118766291,0.0076495434608,0.9053701832,-0.424013970757
1505402119394837450,0,1505402119394634469,0.376698940992,0.844533026218,0.473382234573,-0.0177476685494,-0.998484790325,-0.0308443717659,0.0419728942215
1505402119394849569,0,1505402119394646756,0.462736189365,0.0465939678252,0.623193025589,-0.000916701799724,-0.996903955936,0.000782829418313,0.0786194503307
1505402119394898594,0,1505402119394741214,0.0,0.0,0.0,0.0214197103244,0.00765343137411,0.905366312011,-0.424021770754
1505402119399470862,0,1505402119399242994,0.0,0.0,0.0,0.0214197103244,0.00765343137411,0.905366312011,-0.424021770754
1505402119405089676,0,1505402119404905914,0.376713186502,0.844502210617,0.473386585712,-0.0177324898541,-0.998484671116,-0.0308662410825,0.0419677570462
1505402119405099540,0,1505402119404918832,0.462857216597,0.0465838946402,0.625228643417,-0.000732123793568,-0.996889173985,0.00127207429614,0.0788025632501
1505402119408622501,0,1505402119408325782,0.0,0.0,0.0,0.0214196435348,0.00765361829605,0.905362611688,-0.42402967155
1505402119410103686,0,1505402119409729529,0.0,0.0,0.0,0.0214159431771,0.00766151907501,0.905362544864,-0.424029858455
1505402119415158080,0,1505402119414897134,0.0,0.0,0.0,0.0214158763169,0.00766170596408,0.905358844471,-0.424037759218
1505402119420918925,0,1505402119420711503,0.21,0.0,0.0,-0.499999999999,0.500000836553,-0.499999999999,0.499999163447
1505402119420927567,0,1505402119420711605,0.0,-0.02,0.0,0.707106189653,0.707107372717,-1.18306495402e-06,-1.18306297463e-06
1505402119423545521,0,1505402119422727326,0.0,0.0,0.0,0.0214158763169,0.00766170596408,0.905358844471,-0.424037759218
1505402119424433210,0,1505402119424305699,0.376716285944,0.844502329826,0.473355203867,-0.0177299138159,-0.99848306179,-0.0309029538184,0.0419774278998
1505402119424440704,0,1505402119424317408,0.463062047958,0.0466169156134,0.62737506628,-0.000933881790843,-0.996934235096,0.00115928880405,0.0782289579511
1505402119424443634,0,1505402119424326851,0.37670135498,0.844536185265,0.473373830318,-0.0177538134158,-0.99848395586,-0.0308521371335,0.0419836938381
1505402119424446643,0,1505402119424332650,0.463158637285,0.0467452742159,0.62948423624,-0.000602542830165,-0.996919035912,0.000895823526662,0.0784306228161
1505402119425297404,0,1505402119425056396,0.0,0.0,0.0,0.0214158763169,0.00766170596408,0.905358844471,-0.424037759218
1505402119429837560,0,1505402119429591430,0.0,0.0,0.0,0.0214195099507,0.00765399213819,0.905355210837,-0.424045473043
1505402119434914320,0,1505402119434616347,0.0,0.0,0.0,0.0214116095966,0.00765029087164,0.905355381768,-0.42404557388
1505402119434943654,0,1505402119434722091,0.376713812351,0.844547331333,0.473411887884,-0.0177187882364,-0.998484730721,-0.0308523122221,0.0419812761247
1505402119434948376,0,1505402119434733915,0.463302046061,0.0467695705593,0.631765663624,-0.000260765547864,-0.996856033802,0.000381082092645,0.0792333334684
1505402119442791084,0,1505402119442225312,0.0,0.0,0.0,0.0214037092409,0.0076465896045,0.905355552631,-0.424045674684
1505402119445160910,0,1505402119444888060,0.0,0.0,0.0,0.0213920416187,0.0076509757367,0.90535195616,-0.424053862856
1505402119445268891,0,1505402119444945136,0.376711279154,0.844528734684,0.473392009735,-0.0177480988204,-0.998483479023,-0.0308664478362,0.0419883318245
1505402119445275390,0,1505402119444954790,0.46350851655,0.0467071868479,0.634041786194,-0.00063688843511,-0.996857881546,-0.000204843599931,0.0792078375816
1505402119450402623,0,1505402119450102298,0.0,0.0,0.0,0.0213920416187,0.0076509757367,0.90535195616,-0.424053862856
1505402119454274340,0,1505402119454158988,0.37671482563,0.844486534595,0.473372966051,-0.0177321452647,-0.998483181,-0.0309020765126,0.0419768802822
1505402119454281625,0,1505402119454167160,0.46373090148,0.046408046037,0.636172056198,-0.00087963079568,-0.996905863285,0.00116595183499,0.0785910189152
1505402119454991232,0,1505402119454738340,0.0,0.0,0.0,0.0213841412911,0.00764727440095,0.905352126916,-0.424053963528
1505402119461341161,0,1505402119460877913,0.0,0.0,0.0,0.0213841412911,0.00764727440095,0.905352126916,-0.424053963528
1505402119464532107,0,1505402119464399902,0.376712501049,0.844507694244,0.473389804363,-0.0177425164729,-0.998484432697,-0.0308747254312,0.0419633202255
1505402119464570054,0,1505402119464412124,0.463905394077,0.0463838502765,0.63830280304,-0.000819298555143,-0.996913731098,0.00138626131229,0.0784876719117
1505402119465328599,0,1505402119464904881,0.0,0.0,0.0,0.0213841412911,0.00764727440095,0.905352126916,-0.424053963528
1505402119468097970,0,1505402119408479928,base_footprint,0.0159999999987,0.0,0.0,0.0,0.0,0.0,1.0
1505402119470069950,0,1505402119469742059,0.0,0.0,0.0,0.0213920416187,0.0076509757367,0.90535195616,-0.424053862856
1505402119474796190,0,1505402119474641553,0.376714318991,0.844529390335,0.473379820585,-0.0177507493645,-0.998483479023,-0.0308783855289,0.0419774390757
1505402119474806052,0,1505402119474651016,0.463943302631,0.0465684942901,0.640513837337,-0.000477066234453,-0.996871888638,0.000442575663328,0.079031072557
1505402119476691697,0,1505402119476283299,0.0,0.0,0.0,0.0213883410498,0.00765887642267,0.905351889358,-0.424054049521
1505402119481544284,0,1505402119481261120,0.0,0.0,0.0,0.0213961745072,0.00766276447349,0.905348017897,-0.424061849553
1505402119485064853,0,1505402119484863671,0.376713752747,0.844533026218,0.473397821188,-0.0177530106157,-0.998484432697,-0.0308518167585,0.0419761650264
1505402119485078097,0,1505402119484876581,0.464063853025,0.0466725230217,0.642502367496,-0.000959359516855,-0.99690759182,0.00070664647501,0.078573487699
1505402119488739637,0,1505402119488362765,0.0,0.0,0.0,0.0213961076361,0.00766295119005,0.905344317225,-0.424069750189
1505402119488874923,0,1505402120475075006,base_link,0.0,0.13,0.015,0.0,0.0,0.0,1.0,0,1505402120475075006,base_link,0.0,-0.13,0.015,0.0,0.0,0.0,1.0
1505402119491659701,0,1505402119491418851,0.0,0.0,0.0,0.0214039409918,0.00766683944594,0.90534044556,-0.42407755012
1505402119495144942,0,1505402119494921701,0.0,0.0,0.0,0.0214038740852,0.00766702623027,0.905336744751,-0.42408545069
1505402119495267004,0,1505402119495082770,0.376718997955,0.844519972801,0.473404198885,-0.0177520271391,-0.998484551907,-0.0308637525886,0.0419637411833
1505402119495274178,0,1505402119495092669,0.464317142963,0.0466120317578,0.644932985306,-0.00139350024983,-0.996886789799,1.75273435161e-05,0.0788337737322
1505402119500217320,0,1505402119499932999,0.0,0.0,0.0,0.0214038071769,0.00766721301402,0.905333043873,-0.424093351227
1505402119504549904,0,1505402119504341542,0.376715898514,0.844498217106,0.473383069038,-0.0177530609071,-0.998484373093,-0.0308645665646,0.0419667623937
1505402119504562424,0,1505402119504354391,0.464526504278,0.0464908145368,0.647218108177,-0.000814474828076,-0.996871471405,0.000212195751374,0.0790346115828
1505402119511021358,0,1505402119510718225,0.0,0.0,0.0,0.0214037402671,0.00766739979718,0.905329342926,-0.424101251732
1505402119511035143,0,1505402119510752632,0.0,0.0,0.0,0.0214037402671,0.00766739979718,0.905329342926,-0.424101251732
1505402119514652296,0,1505402119514525348,0.376715064049,0.844524979591,0.47337448597,-0.0177543051541,-0.998484313488,-0.0308573078364,0.0419724956155
1505402119514663230,0,1505402119514536095,0.464687108994,0.0465207248926,0.649318754673,-0.000262901274255,-0.996887207031,0.000355596275767,0.0788401141763
1505402119516655062,0,1505402119516366275,0.0,0.0,0.0,0.021411573453,0.00767128839486,0.90532547092,-0.424109051494
1505402119520378431,0,1505402119520106328,0.0,0.0,0.0,0.0214115065076,0.0076714752458,0.905321769836,-0.424116951933
1505402119520786188,0,1505402119520710409,0.21,0.0,0.0,-0.499999999999,0.500000836553,-0.499999999999,0.499999163447
1505402119520796726,0,1505402119520710505,0.0,-0.02,0.0,0.707106189653,0.707107372717,-1.18306495402e-06,-1.18306297463e-06
1505402119525114950,0,1505402119524948616,0.37671944499,0.844517350197,0.473387509584,-0.0177528038621,-0.998483717442,-0.0308738984168,0.0419736020267
1505402119525125999,0,1505402119524960745,0.465030908585,0.0465377271175,0.651526451111,-0.000635049305856,-0.996929943562,-0.000208728743019,0.078295879066
1505402119525531702,0,1505402119525331348,0.0,0.0,0.0,0.0214156384042,0.00768326443731,0.905317830612,-0.424124938497
1505402119530379684,0,1505402119530206410,0.0,0.0,0.0,0.021427172608,0.00767925298803,0.905314025281,-0.424132551187
1505402119534186418,0,1505402119534080371,0.376730799675,0.844507575035,0.473369449377,-0.0177514050156,-0.998483598232,-0.0308796875179,0.0419742688537
1505402119534195532,0,1505402119534118108,0.465249300003,0.0466072410345,0.65353679657,-0.00107205507811,-0.99692350626,-0.000402515404858,0.078372746706
1505402119536772635,0,1505402119536543381,0.0,0.0,0.0,0.0214271055931,0.00767943997509,0.905310323992,-0.424140451527
1505402119542355901,0,1505402119542087395,0.0,0.0,0.0,0.0214386398985,0.00767542883017,0.905306518457,-0.424148063947
1505402119544535118,0,1505402119544381867,0.376729369164,0.844518780708,0.473394960165,-0.01772961393,-0.998483598232,-0.0308841113001,0.041981831193
1505402119544568308,0,1505402119544393514,0.465494155884,0.0466412827373,0.655532419682,-0.00169532326981,-0.996932387352,-0.000432294240454,0.0782471001148
1505402119545509641,0,1505402119545278103,0.0,0.0,0.0,0.0214386398985,0.00767542883017,0.905306518457,-0.424148063947
1505402119550277746,0,1505402119550055271,0.0,0.0,0.0,0.021442838437,0.0076870312771,0.905306280182,-0.424148150171
1505402119554754096,0,1505402119554595702,0.376721650362,0.844527363777,0.473400443792,-0.0177741851658,-0.998484373093,-0.030847677961,0.0419691875577
1505402119554763438,0,1505402119554608734,0.465568453074,0.0465262420475,0.657825410366,-0.00148594996426,-0.996861815453,-0.000315771787427,0.0791474878788
1505402119555420654,0,1505402119555238681,0.0,0.0,0.0,0.0214506712496,0.0076909206267,0.905302407428,-0.424155949562
1505402119560421789,0,1505402119560156234,0.0,0.0,0.0,0.0214548696846,0.00770252310402,0.905302168847,-0.424156035894
1505402119564965528,0,1505402119564822158,0.376717031002,0.844521045685,0.473396807909,-0.0177659597248,-0.99848395586,-0.0308602154255,0.0419720448554
1505402119564973830,0,1505402119564834546,0.465666919947,0.0463325977325,0.659885764122,-0.00102701806463,-0.996862232685,0.000704178353772,0.0791463404894
1505402119565665635,0,1505402119565407271,0.0,0.0,0.0,0.0214585039944,0.007694810113,0.905298534537,-0.424163748885
1505402119568369217,0,1505402119508524894,base_footprint,0.0349999999985,0.0,0.0,0.0,0.0,0.0,1.0
1505402119575215542,0,1505402119575091313,0.37672919035,0.844502568245,0.473368287086,-0.0177432559431,-0.998483479023,-0.030899008736,0.0419652275741
1505402119575224743,0,1505402119575099999,0.46585932374,0.0463007204235,0.661915004253,-0.0010940679349,-0.996876358986,0.000683595368173,0.0789670869708
1505402119577107685,0,1505402119576896669,0.0,0.0,0.0,0.0214584368437,0.00769499737349,0.905294832976,-0.424171649089
1505402119581742329,0,1505402119581272552,0.0,0.0,0.0,0.0214583696913,0.00769518463338,0.905291131346,-0.42417954926
1505402119582941106,0,1505402119582493995,0.0,0.0,0.0,0.0214625005666,0.00770697451447,0.905287190962,-0.42418753576
1505402119584526516,0,1505402119584329124,0.376731365919,0.844492137432,0.473370760679,-0.0177457947284,-0.998483896255,-0.0308950524777,0.0419576093554
1505402119584536419,0,1505402119584341076,0.466085165739,0.0463271811604,0.663983821869,-0.00101342750713,-0.996860206127,0.000465924764285,0.0791740342975
1505402119588374006,0,1505402119588049383,0.0,0.0,0.0,0.0214625005666,0.00770697451447,0.905287190962,-0.42418753576
1505402119590604617,0,1505402119590368004,0.0,0.0,0.0,0.0214546008027,0.00770327201556,0.905287362457,-0.424187636642
1505402119594614703,0,1505402119594533593,0.376738667488,0.844532251358,0.473401427269,-0.0177356656641,-0.998485028744,-0.0308497808874,0.0419684872031
1505402119594622184,0,1505402119594544155,0.466169118881,0.0464968122542,0.665934205055,-0.000929378846195,-0.99683201313,0.00060710334219,0.0795282125473
1505402119595630521,0,1505402119595449169,0.0,0.0,0.0,0.0214545335782,0.00770345924198,0.905283660687,-0.424195536749
1505402119600680847,0,1505402119600504392,0.0,0.0,0.0,0.0214465666511,0.00769994383043,0.905280130273,-0.424203537676
1505402119604994474,0,1505402119604808123,0.376729995012,0.844527542591,0.473392814398,-0.0177661925554,-0.998483836651,-0.0308639947325,0.0419734381139
1505402119605007349,0,1505402119604821276,0.46648094058,0.046217892319,0.667998552322,-0.00113045598846,-0.996887147427,0.00220834207721,0.0788022503257
1505402119610457579,0,1505402119610202984,0.0,0.0,0.0,0.0214386669487,0.00769624119247,0.905280301629,-0.424203638497
1505402119611621964,0,1505402119611462016,0.0,0.0,0.0,0.0214269981679,0.0077006256022,0.905276703839,-0.424211826334
1505402119615165097,0,1505402119615057015,0.376726180315,0.844511270523,0.47339335084,-0.0177679713815,-0.998484075069,-0.0308667346835,0.0419649705291
1505402119615172560,0,1505402119615067017,0.466674983501,0.0460658110678,0.670181751251,-0.000953637121711,-0.996871113777,0.00230807787739,0.0790052264929
1505402119617056940,0,1505402119616842852,0.0,0.0,0.0,0.0214190313245,0.00769710981223,0.905273173106,-0.424219827038
1505402119620860801,0,1505402119620400685,0.0,0.0,0.0,0.0214148336973,0.00768550703559,0.905273411389,-0.424219740833
1505402119620915426,0,1505402119620710095,0.21,0.0,0.0,-0.499999999999,0.500000836553,-0.499999999999,0.499999163447
1505402119621591700,0,1505402119620710188,0.0,-0.02,0.0,0.707106189653,0.707107372717,-1.18306495402e-06,-1.18306297463e-06
1505402119629752803,0,1505402119629511919,0.0,0.0,0.0,0.0214068670157,0.00768199106785,0.905269880416,-0.424227741514
1505402119634587571,0,1505402119634458305,0.376729756594,0.844498753548,0.473380625248,-0.017760861665,-0.998483419418,-0.0308817028999,0.0419733896852
1505402119634595990,0,1505402119634470054,0.466784536839,0.0462885051966,0.672085940838,-0.00117218180094,-0.996876060963,0.00179934257176,0.0789528861642
1505402119634602204,0,1505402119634480260,0.376722037792,0.844510197639,0.473373800516,-0.0177579652518,-0.998483657837,-0.0308742970228,0.0419742353261
1505402119634619366,0,1505402119634487384,0.466868877411,0.0463796630502,0.67421412468,-0.00114614900667,-0.9968739748,0.00125021953136,0.0789897441864
1505402119634765204,0,1505402119634360564,0.0,0.0,0.0,0.0213989003954,0.00767847496107,0.905266349303,-0.424235742133
1505402119635856674,0,1505402119635641785,0.0,0.0,0.0,0.0213988333873,0.00767866170142,0.905262647114,-0.424243642056
1505402119640972134,0,1505402119640778749,0.0,0.0,0.0,0.0213950640836,0.00768674831547,0.90525887781,-0.42425172867
1505402119644839623,0,1505402119644699269,0.376727670431,0.84454458952,0.47340670228,-0.0177584476769,-0.998484909534,-0.0308455135673,0.0419665575027
1505402119644850773,0,1505402119644712390,0.466961711645,0.0463815480471,0.676367163658,-0.000966914638411,-0.996826827526,0.00125591945834,0.0795855969191
1505402119646343816,0,1505402119646177309,0.0,0.0,0.0,0.021391361788,0.00769464818917,0.905258810696,-0.424251915361
1505402119653334991,0,1505402119653148768,0.0,0.0,0.0,0.0213955590102,0.00770625111233,0.90525857241,-0.424252001558
1505402119654978020,0,1505402119654894008,0.376729488373,0.844510614872,0.473399966955,-0.0177602972835,-0.998484194279,-0.0308624599129,0.0419685952365
1505402119654985487,0,1505402119654903979,0.467164158821,0.0462556518614,0.678513586521,-0.000789664860349,-0.996821522713,0.00147632567678,0.0796488001943
1505402119656071899,0,1505402119655894500,0.0,0.0,0.0,0.0213954917596,0.00770643782351,0.905254870079,-0.424259901414
1505402119661515453,0,1505402119660831636,0.0,0.0,0.0,0.0213954917596,0.00770643782351,0.905254870079,-0.424259901414
1505402119664301221,0,1505402119664088639,0.376730799675,0.844508051872,0.473397225142,-0.0177566874772,-0.998483657837,-0.0308769196272,0.0419728159904
1505402119664306702,0,1505402119664101155,0.467272132635,0.0463327877223,0.680641233921,-0.000485132593894,-0.99682790041,0.000864209257998,0.0795813202858
1505402119667778712,0,1505402119667369613,0.0,0.0,0.0,0.0213875250527,0.0077029213462,0.905251338779,-0.424267901701
1505402119668636539,0,1505402119641817092,base_footprint,0.062999999998,0.0,0.0,0.0,0.0,0.0,1.0
1505402119671538866,0,1505402119671295610,0.0,0.0,0.0,0.0213874578312,0.00770310798727,0.905247636309,-0.424275801493
1505402119674454750,0,1505402119674326724,0.376735925674,0.844507336617,0.473373532295,-0.0177375916392,-0.998483717442,-0.0308764614165,0.0419790558517
1505402119674462096,0,1505402119674336680,0.467510193586,0.0464588329196,0.68270868063,-0.000490408856422,-0.996843099594,-0.000137366776471,0.0793952122331
1505402119679029361,0,1505402119678769602,0.0,0.0,0.0,0.0213837553256,0.00771100776288,0.905247569052,-0.424275988118
1505402119681931887,0,1505402119681543606,0.0,0.0,0.0,0.0213915874245,0.00771489769534,0.905243695379,-0.424283787478
1505402119686449069,0,1505402119686132580,0.0,0.0,0.0,0.0213957168122,0.0077266874719,0.905239754177,-0.4242917735
1505402119691848755,0,1505402119691593320,0.0,0.0,0.0,0.0213956493833,0.00772687418446,0.905236051499,-0.424299673191
1505402119694931081,0,1505402119694729490,0.376733899117,0.844500482082,0.473379254341,-0.0177407711744,-0.998484015465,-0.030873125419,0.0419739596546
1505402119694938820,0,1505402119694740378,0.467787444592,0.046343266964,0.684808671474,-0.000690155487973,-0.996899604797,-7.41409712646e-06,0.0786807909608
1505402119694946058,0,1505402119694763535,0.376729160547,0.84455037117,0.473380953074,-0.0177270751446,-0.998484432697,-0.0308768153191,0.0419678017497
1505402119694951160,0,1505402119694768472,0.467942029238,0.0463232547045,0.687013983727,-0.000695793016348,-0.99687474966,0.000342003680998,0.07899428159
1505402119696668990,0,1505402119696317411,0.0,0.0,0.0,0.02140341378,0.00773095120517,0.905228474636,-0.424315372076
1505402119701254633,0,1505402119700989826,0.0,0.0,0.0,0.0214070492322,0.00772323840823,0.905224839184,-0.424323084873
1505402119705169771,0,1505402119705033684,0.376728713512,0.844522535801,0.473380953074,-0.0177578721195,-0.998483777046,-0.0308648645878,0.0419772677124
1505402119705179814,0,1505402119705046230,0.468088179827,0.0464071072638,0.688924968243,-0.000709854997694,-0.996843576431,-3.17942867696e-05,0.0793875232339
1505402119714021779,0,1505402119713481492,0.0,0.0,0.0,0.0214070492322,0.00772323840823,0.905224839184,-0.424323084873
1505402119714299623,0,1505402119714060771,0.0,0.0,0.0,0.0214111780393,0.00773502849866,0.905220897433,-0.424331070793
1505402119716639026,0,1505402119716513576,0.37672829628,0.844502985477,0.473384618759,-0.0177558194846,-0.998483777046,-0.0308658387512,0.0419782996178
1505402119716666309,0,1505402119716524286,0.46832844615,0.0463507547975,0.691075384617,-0.000682154961396,-0.996858179569,-0.000162401396665,0.0792044922709
1505402119716994199,0,1505402119716775501,0.0,0.0,0.0,0.0214111105376,0.00773521534615,0.905217194411,-0.424338970319
1505402119720935884,0,1505402119720713377,0.21,0.0,0.0,-0.499999999999,0.500000836553,-0.499999999999,0.499999163447
1505402119720945101,0,1505402119720713473,0.0,-0.02,0.0,0.707106189653,0.707107372717,-1.18306495402e-06,-1.18306297463e-06
1505402119721228375,0,1505402119721053225,0.0,0.0,0.0,0.0214111105376,0.00773521534615,0.905217194411,-0.424338970319
1505402119724923340,0,1505402119724785863,0.376719266176,0.844517767429,0.473386317492,-0.0177384763956,-0.99848306179,-0.0308991614729,0.0419781990349
1505402119724931734,0,1505402119724798617,0.468459188938,0.0463666990399,0.693225264549,-0.000167337915627,-0.996805489063,-0.000738487578928,0.0798649266362
1505402119726385789,0,1505402119726229307,0.0,0.0,0.0,0.0214110430343,0.00773540219304,0.905213491321,-0.424346869813
1505402119731482291,0,1505402119731281449,0.0,0.0,0.0,0.0214109755293,0.00773558903934,0.905209788161,-0.424354769275
1505402119735151678,0,1505402119735033966,0.376722723246,0.844510555267,0.473364919424,-0.0177305527031,-0.998483359814,-0.0308933351189,0.0419779792428
1505402119735163207,0,1505402119735047809,0.468575507402,0.0463130511343,0.695128083229,-1.17094969028e-05,-0.996811687946,-0.000373960123397,0.0797892212868
1505402119736349069,0,1505402119736143112,0.0,0.0,0.0,0.0214109755293,0.00773558903934,0.905209788161,-0.424354769275
1505402119742735433,0,1505402119742413657,0.0,0.0,0.0,0.0214188070849,0.00773947989483,0.905205913502,-0.42436256823
1505402119746373966,0,1505402119746174644,0.0,0.0,0.0,0.0214188070849,0.00773947989483,0.905205913502,-0.42436256823
1505402119754600604,0,1505402119754451029,0.376726537943,0.844518184662,0.473363399506,-0.0177229847759,-0.998482644558,-0.0309119541198,0.0419855006039
1505402119754610778,0,1505402119754461290,0.468805789948,0.0461773909628,0.697113513947,-0.000448480335763,-0.996851921082,0.000612749019638,0.0792815163732
1505402119754614575,0,1505402119754495127,0.376725554466,0.844502031803,0.473370581865,-0.0177387036383,-0.998482942581,-0.0308876540512,0.0419895350933
1505402119754619836,0,1505402119754502595,0.469066411257,0.046179369092,0.699350357056,-0.000790818769019,-0.996818780899,0.000153018976562,0.0796977654099
1505402119763520332,0,1505402119763287924,0.0,0.0,0.0,0.0214188070849,0.00773947989483,0.905205913502,-0.42436256823
1505402119765079347,0,1505402119764746675,0.0,0.0,0.0,0.0214229352417,0.0077512702647,0.905201971099,-0.424370554085
1505402119765088391,0,1505402119764769731,0.0,0.0,0.0,0.0214228675983,0.00775145721478,0.905198267732,-0.424378453446
1505402119765094081,0,1505402119764856450,0.376723617315,0.844518005848,0.473374426365,-0.017737487331,-0.998484730721,-0.0308582000434,0.0419707223773
1505402119765099136,0,1505402119764868751,0.469242364168,0.0462556220591,0.70131456852,-0.00084998877719,-0.996830463409,-7.21020769561e-05,0.0795508101583
1505402119768902884,0,1505402119708498954,base_footprint,0.0779999999979,0.0,0.0,0.0,0.0,0.0,1.0
1505402119773594002,0,1505402119773365355,0.0,0.0,0.0,0.0214227999533,0.00775164416428,0.905194564297,-0.424386352775
1505402119782497299,0,1505402119782108253,0.0,0.0,0.0,0.0214227999533,0.00775164416428,0.905194564297,-0.424386352775
1505402119782512104,0,1505402119782163754,0.0,0.0,0.0,0.0214264358443,0.00774393183244,0.905190928406,-0.424394065107
1505402119782525587,0,1505402119782210347,0.0,0.0,0.0,0.0214227323066,0.00775183111318,0.905190860793,-0.424394252072
1505402119784403494,0,1505402119784278482,0.376716554165,0.844533443451,0.473386108875,-0.0177475791425,-0.998484432697,-0.0308375563473,0.0419871769845
1505402119784413821,0,1505402119784321722,0.469462662935,0.04622951895,0.703472852707,-0.000847096554935,-0.996879160404,-0.000199706249987,0.0789385661483
1505402119784418063,0,1505402119784333730,0.376720011234,0.844489514828,0.473364204168,-0.0177374556661,-0.998483121395,-0.0308913402259,0.0419815927744
1505402119784438324,0,1505402119784340648,0.469636797905,0.0462976023555,0.705635011196,-0.000423467106884,-0.996845841408,-0.00163643271662,0.0793443620205
1505402119786688496,0,1505402119786516499,0.0,0.0,0.0,0.0214306312371,0.007755535396,0.905190689196,-0.424394151596
1505402119792100695,0,1505402119791921970,0.0,0.0,0.0,0.0214306312371,0.007755535396,0.905190689196,-0.424394151596
1505402119794755218,0,1505402119794644376,0.376725465059,0.844491362572,0.473372250795,-0.0177499428391,-0.99848395586,-0.0308582838625,0.0419806055725
1505402119794769625,0,1505402119794657049,0.469810307026,0.0463276915252,0.707487165928,-0.000615837052464,-0.996890127659,-0.00169935682788,0.0787828341126
1505402119796830355,0,1505402119796603807,0.0,0.0,0.0,0.0214306312371,0.007755535396,0.905190689196,-0.424394151596
1505402119801704347,0,1505402119801491288,0.0,0.0,0.0,0.0214305635565,0.00775572241325,0.905186985624,-0.424402050859
1505402119807341338,0,1505402119807084683,0.0,0.0,0.0,0.0214267921979,0.00776380864391,0.905183214265,-0.424410137089
1505402119813220022,0,1505402119813019962,0.0,0.0,0.0,0.0214346232778,0.00776770011518,0.905179338857,-0.424417935843
1505402119815221528,0,1505402119815055562,0.376719772816,0.844531297684,0.473379999399,-0.0177405178547,-0.99848395586,-0.0308666732162,0.0419809743762
1505402119815228221,0,1505402119815067861,0.470025837421,0.0464914031327,0.709575891495,-0.00115587795153,-0.99690669775,-0.00231604860164,0.078551620245
1505402119815231314,0,1505402119815131141,0.376728236675,0.844511985779,0.473371684551,-0.0177411232144,-0.998483359814,-0.0308816879988,0.0419827066362
1505402119815264158,0,1505402119815137496,0.470218390226,0.0465898029506,0.711739122868,-0.00125407567248,-0.996861457825,-0.00359030184336,0.0790737122297
1505402119817459812,0,1505402119817118772,0.0,0.0,0.0,0.021434555491,0.00776788716725,0.905175635078,-0.424425835007
1505402119820865814,0,1505402119820713024,0.21,0.0,0.0,-0.499999999999,0.500000836553,-0.499999999999,0.499999163447
1505402119820874319,0,1505402119820713127,0.0,-0.02,0.0,0.707106189653,0.707107372717,-1.18306495402e-06,-1.18306297463e-06
1505402119821962257,0,1505402119821650008,0.0,0.0,0.0,0.021434555491,0.00776788716725,0.905175635078,-0.424425835007
1505402119824561812,0,1505402119824425546,0.376726180315,0.844515025616,0.473390907049,-0.0177579857409,-0.998483598232,-0.0308563858271,0.0419875942171
1505402119824569419,0,1505402119824439209,0.470488041639,0.0464522503316,0.713674545288,-0.00139099324588,-0.996909201145,-0.00311598926783,0.0784890502691
1505402119826934596,0,1505402119826651687,0.0,0.0,0.0,0.021442386469,0.00777177884354,0.905171759466,-0.42443363366
1505402119831939771,0,1505402119831605862,0.0,0.0,0.0,0.0214344199125,0.00776826126964,0.905168227312,-0.424441633238
1505402119838483249,0,1505402119838273871,0.0,0.0,0.0,0.0214459548419,0.0077642540332,0.905164419354,-0.424449244687
1505402119844062983,0,1505402119843761203,0.0,0.0,0.0,0.0214495911717,0.0077565421665,0.905160783024,-0.424456956554
1505402119845118186,0,1505402119844941921,0.376719743013,0.844515621662,0.473379194736,-0.0177408829331,-0.998483598232,-0.0308598354459,0.04199276492
1505402119845127220,0,1505402119844953080,0.470620691776,0.0464392155409,0.715457320213,-0.00129473244306,-0.996934592724,-0.00276214443147,0.0781802162528
1505402119845137973,0,1505402119844975062,0.376714527607,0.844518780708,0.473373889923,-0.0177567955106,-0.998483836651,-0.0308559667319,0.0419836193323
1505402119845142883,0,1505402119844979898,0.470766842365,0.0462444797158,0.717567741871,-0.000918492383789,-0.996913254261,-0.00212681293488,0.0784766599536
1505402119847230476,0,1505402119847007394,0.0,0.0,0.0,0.0214611939218,0.00775234798374,0.905160678946,-0.424456668632
1505402119852573337,0,1505402119852023679,0.0,0.0,0.0,0.0214764331994,0.00774044220388,0.905156938262,-0.424464092107
1505402119854426962,0,1505402119854288572,0.376725822687,0.844512104988,0.473372787237,-0.01771668531,-0.998483359814,-0.0308875646442,0.0419902205467
1505402119854435454,0,1505402119854298803,0.470829248428,0.0461461432278,0.719404876232,-0.00107678887434,-0.996915996075,-0.00131358858198,0.0784570723772
1505402119858629259,0,1505402119858380644,0.0,0.0,0.0,0.0214922304534,0.00774785201576,0.905156594583,-0.424463890222
1505402119862262581,0,1505402119861890624,0.0,0.0,0.0,0.0215153684462,0.0077396516246,0.90515268167,-0.42447121172
1505402119867602932,0,1505402119867376272,0.0,0.0,0.0,0.021523199459,0.00774354442605,0.905148805411,-0.424479009455
1505402119868109121,0,1505402119808499097,base_footprint,0.0949999999978,0.0,0.0,0.0,0.0,0.0,1.0
1505402119872728878,0,1505402119872509164,0.0,0.0,0.0,0.0215268362293,0.00773583336969,0.905145168641,-0.424486720511
1505402119874824905,0,1505402119874683644,0.376734137535,0.844495952129,0.473364144564,-0.0177489519119,-0.998482704163,-0.030884059146,0.041992738843
1505402119874831676,0,1505402119874695607,0.470990002155,0.0461214743555,0.721191108227,-0.0016931979917,-0.996928930283,-0.000922126637306,0.0782877579331
1505402119874834663,0,1505402119874705619,0.376725018024,0.844536006451,0.47338283062,-0.0177535843104,-0.99848395586,-0.0308560486883,0.0419798344374
1505402119874837664,0,1505402119874733425,0.471130907536,0.0462650470436,0.723156511784,-0.00167444697581,-0.996884167194,-0.00129057804588,0.0788512229919
1505402119880208868,0,1505402119879731908,0.0,0.0,0.0,0.0215268362293,0.00773583336969,0.905145168641,-0.424486720511
1505402119882063795,0,1505402119881857758,0.0,0.0,0.0,0.0215267687206,0.00773602122648,0.905141464261,-0.424494619377
1505402119885092986,0,1505402119884941050,0.37672317028,0.844532251358,0.473378181458,-0.0177519191056,-0.998484075069,-0.0308419279754,0.0419923849404
1505402119885106311,0,1505402119884954085,0.471231669188,0.04634193331,0.724936664104,-0.00145319954026,-0.996862530708,-0.00179412600119,0.0791195482016
1505402119887754705,0,1505402119887386518,0.0,0.0,0.0,0.0215230643054,0.00774392007556,0.905141396717,-0.424494807217
1505402119892619754,0,1505402119892449659,0.0,0.0,0.0,0.0215309627939,0.00774762525757,0.905141224636,-0.424494705985
1505402119897315557,0,1505402119897088122,0.0,0.0,0.0,0.0215308951823,0.00774781315037,0.905137520186,-0.424502604816
1505402119904592623,0,1505402119904345117,0.376725614071,0.8444891572,0.47335934639,-0.0177435111254,-0.998483657837,-0.0308734364808,0.041979636997
1505402119904605687,0,1505402119904358483,0.471365511417,0.0460834093392,0.726856708527,-0.000971682777163,-0.99686986208,-0.0016333713429,0.079037129879
1505402119904615236,0,1505402119904367550,0.376720249653,0.844520688057,0.473372817039,-0.0177470482886,-0.998483181,-0.0308837108314,0.0419830344617
1505402119904619867,0,1505402119904372479,0.471406668425,0.0461460351944,0.728709101677,-0.00061605789233,-0.996830463409,-0.00150509166997,0.0795384794474
1505402119905960744,0,1505402119905745139,0.0,0.0,0.0,0.0215387936369,0.00775151840071,0.905137348037,-0.42450250355
1505402119910840589,0,1505402119910579200,0.0,0.0,0.0,0.0215424305426,0.00774380758042,0.905133711131,-0.424510214371
1505402119913380774,0,1505402119913065512,0.0,0.0,0.0,0.0215386583441,0.00775189432239,0.905129938932,-0.424518301113
1505402119914761136,0,1505402119914580908,0.376727849245,0.844528615475,0.473388254642,-0.0177628863603,-0.998484075069,-0.0308640412986,0.0419679842889
1505402119914769237,0,1505402119914593391,0.471567004919,0.0462020784616,0.730625450611,-0.000383445818443,-0.996777176857,-0.00182435486931,0.0801987797022
1505402119918037869,0,1505402119917563289,0.0,0.0,0.0,0.0215386583441,0.00775189432239,0.905129938932,-0.424518301113
1505402119920870177,0,1505402119920712119,0.21,0.0,0.0,-0.499999999999,0.500000836553,-0.499999999999,0.499999163447
1505402119920878673,0,1505402119920712218,0.0,-0.02,0.0,0.707106189653,0.707107372717,-1.18306495402e-06,-1.18306297463e-06
1505402119926248755,0,1505402119925890015,0.0,0.0,0.0,0.0215385906953,0.00775208228235,0.905126234277,-0.424526199845
1505402119927542762,0,1505402119927383961,0.0,0.0,0.0,0.0215385230448,0.00775227024171,0.905122529552,-0.424534098546
1505402119932362839,0,1505402119932213906,0.0,0.0,0.0,0.0215385230448,0.00775227024171,0.905122529552,-0.424534098546
1505402119935105673,0,1505402119934952368,0.376733899117,0.844519078732,0.473389655352,-0.0177577380091,-0.998484432697,-0.0308514162898,0.0419716462493
1505402119935115230,0,1505402119934963864,0.47189861536,0.0461105033755,0.732392787933,-0.00128141324967,-0.996847093105,-0.00124693638645,0.0793261379004
1505402119935120993,0,1505402119934973233,0.376734346151,0.844519078732,0.473399460316,-0.0177459195256,-0.998483836651,-0.0308808740228,0.0419703274965
1505402119935129462,0,1505402119934979342,0.471983462572,0.0461869239807,0.734110832214,-0.00141016754787,-0.996838331223,-0.00148017669562,0.0794297531247
1505402119937994930,0,1505402119937747250,0.0,0.0,0.0,0.0215385230448,0.00775227024171,0.905122529552,-0.424534098546
1505402119943032127,0,1505402119942769833,0.0,0.0,0.0,0.0215385230448,0.00775227024171,0.905122529552,-0.424534098546
1505402119944419583,0,1505402119944326137,0.376736074686,0.844481885433,0.473373323679,-0.0177542027086,-0.998483479023,-0.0308837536722,0.0419720411301
1505402119944426626,0,1505402119944340071,0.472177147865,0.0460569225252,0.736038804054,-0.000973830465227,-0.996817052364,-0.00202155346051,0.0796914994717
1505402119947597393,0,1505402119947364635,0.0,0.0,0.0,0.0215384553926,0.00775245820049,0.905118824759,-0.424541997213
1505402119952520681,0,1505402119952343280,0.0,0.0,0.0,0.0215383877388,0.00775264615868,0.905115119897,-0.424549895849
1505402119957603605,0,1505402119957359989,0.0,0.0,0.0,0.02154621831,0.0077565398485,0.905111242753,-0.424557693144
1505402119965043005,0,1505402119964704703,0.376726090908,0.844521403313,0.473405152559,-0.0177550893277,-0.998483717442,-0.0308790076524,0.0419704318047
