%time,field.header.seq,field.header.stamp,field.header.frame_id,field.vector.x,field.vector.y,field.vector.z
1505402118923284483,16879,1505402118922936673,ardrone_base_link,-0.424264073372,-0.565685451031,-0.707106769085
1505402118927518854,16880,1505402118927203943,ardrone_base_link,-0.424264073372,-0.565685451031,-0.707106769085
1505402118932112817,16881,1505402118931898772,ardrone_base_link,-0.316032737494,-0.596950769424,-0.737409710884
1505402118937117582,16882,1505402118936968437,ardrone_base_link,-0.316032737494,-0.596950769424,-0.737409710884
1505402118943327782,16883,1505402118942996351,ardrone_base_link,-0.406849682331,-0.480822354555,-0.776713073254
1505402118946949686,16884,1505402118946796853,ardrone_base_link,-0.406849682331,-0.480822354555,-0.776713073254
1505402118952121390,16885,1505402118951919703,ardrone_base_link,-0.457604318857,-0.522976398468,-0.719092488289
1505402118958446030,16886,1505402118958289762,ardrone_base_link,-0.457604318857,-0.522976398468,-0.719092488289
1505402118962542412,16887,1505402118962289091,ardrone_base_link,-0.272681295872,-0.50640809536,-0.818043828011
1505402118968739472,16888,1505402118968482722,ardrone_base_link,-0.272681295872,-0.50640809536,-0.818043828011
1505402118975970228,16889,1505402118975771116,ardrone_base_link,-0.137360557914,-0.549442231655,-0.824163377285
1505402118977555824,16890,1505402118977335896,ardrone_base_link,-0.137360557914,-0.549442231655,-0.824163377285
1505402118983776540,16891,1505402118983378735,ardrone_base_link,-0.335496842861,-0.457495689392,-0.823492288589
1505402118987818236,16892,1505402118987537506,ardrone_base_link,-0.335496842861,-0.457495689392,-0.823492288589
1505402118992591506,16893,1505402118992382772,ardrone_base_link,-0.379304766655,-0.463594734669,-0.800754547119
1505402118997291056,16894,1505402118997162245,ardrone_base_link,-0.379304766655,-0.463594734669,-0.800754547119
1505402119003299229,16895,1505402119002960651,ardrone_base_link,-0.383482515812,-0.613572001457,-0.690268516541
1505402119009616153,16896,1505402119009422857,ardrone_base_link,-0.383482515812,-0.613572001457,-0.690268516541
1505402119012589814,16897,1505402119012404114,ardrone_base_link,-0.514495790005,-0.514495790005,-0.685994386673
1505402119017641962,16898,1505402119017433710,ardrone_base_link,-0.514495790005,-0.514495790005,-0.685994386673
1505402119024639625,16899,1505402119024447665,ardrone_base_link,-0.129219144583,-0.559949636459,-0.818387925625
1505402119031889455,16900,1505402119031738721,ardrone_base_link,-0.129219144583,-0.559949636459,-0.818387925625
1505402119034626010,16901,1505402119034267778,ardrone_base_link,-0.212238192558,-0.551819264889,-0.806505084038
1505402119037630727,16902,1505402119037405309,ardrone_base_link,-0.212238192558,-0.551819264889,-0.806505084038
1505402119043585308,16903,1505402119043254621,ardrone_base_link,-0.447954624891,-0.447954624891,-0.773739814758
1505402119047638011,16904,1505402119047466691,ardrone_base_link,-0.447954624891,-0.447954624891,-0.773739814758
1505402119052802010,16905,1505402119052613101,ardrone_base_link,-0.264764308929,-0.416058212519,-0.869939923286
1505402119058016534,16906,1505402119057839774,ardrone_base_link,-0.264764308929,-0.416058212519,-0.869939923286
1505402119062859705,16907,1505402119062578669,ardrone_base_link,-0.3292927742,-0.548821270466,-0.768349826336
1505402119067821679,16908,1505402119067554270,ardrone_base_link,-0.3292927742,-0.548821270466,-0.768349826336
1505402119074771891,16909,1505402119074499495,ardrone_base_link,-0.332580029964,-0.617648661137,-0.712671518326
1505402119077889717,16910,1505402119077610099,ardrone_base_link,-0.332580029964,-0.617648661137,-0.712671518326
1505402119084448881,16911,1505402119084056278,ardrone_base_link,-0.259160518646,-0.431934207678,-0.863868415356
1505402119090460680,16912,1505402119090248718,ardrone_base_link,-0.259160518646,-0.431934207678,-0.863868415356
1505402119095752689,16913,1505402119095411051,ardrone_base_link,-0.346843987703,-0.520265996456,-0.780399024487
1505402119097978221,16914,1505402119097729649,ardrone_base_link,-0.346843987703,-0.520265996456,-0.780399024487
1505402119103058252,16915,1505402119102843953,ardrone_base_link,-0.182574182749,-0.365148365498,-0.912870883942
1505402119108580721,16916,1505402119108364637,ardrone_base_link,-0.182574182749,-0.365148365498,-0.912870883942
1505402119113125461,16917,1505402119112915338,ardrone_base_link,-0.354925364256,-0.43379765749,-0.828159153461
1505402119121195639,16918,1505402119121022531,ardrone_base_link,-0.354925364256,-0.43379765749,-0.828159153461
1505402119127346674,16919,1505402119127132265,ardrone_base_link,-0.085435770452,-0.512614607811,-0.854357659817
1505402119128442044,16920,1505402119128119929,ardrone_base_link,-0.085435770452,-0.512614607811,-0.854357659817
1505402119133301795,16921,1505402119133084452,ardrone_base_link,-0.34237614274,-0.49454331398,-0.79887765646
1505402119138714523,16922,1505402119138543945,ardrone_base_link,-0.34237614274,-0.49454331398,-0.79887765646
1505402119143220905,16923,1505402119142977259,ardrone_base_link,-0.115470051765,-0.577350258827,-0.808290362358
1505402119148198726,16924,1505402119148016526,ardrone_base_link,-0.115470051765,-0.577350258827,-0.808290362358
1505402119153628426,16925,1505402119153484308,ardrone_base_link,-0.368964016438,-0.614940047264,-0.696932077408
1505402119158220503,16926,1505402119158068771,ardrone_base_link,-0.368964016438,-0.614940047264,-0.696932077408
1505402119163677594,16927,1505402119163299588,ardrone_base_link,-0.270914196968,-0.609556913376,-0.74501401186
1505402119168474168,16928,1505402119168265976,ardrone_base_link,-0.270914196968,-0.609556913376,-0.74501401186
1505402119176150453,16929,1505402119175948947,ardrone_base_link,-0.15409964323,-0.462298959494,-0.873231351376
1505402119179135203,16930,1505402119178949201,ardrone_base_link,-0.15409964323,-0.462298959494,-0.873231351376
1505402119186882210,16931,1505402119186574922,ardrone_base_link,-0.225571841002,-0.547817349434,-0.80561375618
1505402119188524628,16932,1505402119188342961,ardrone_base_link,-0.225571841002,-0.547817349434,-0.80561375618
1505402119198795371,16933,1505402119198589369,ardrone_base_link,-0.227469429374,-0.422443240881,-0.877382099628
1505402119202319813,16934,1505402119202049609,ardrone_base_link,-0.227469429374,-0.422443240881,-0.877382099628
1505402119204003476,16935,1505402119203780881,ardrone_base_link,-0.206372082233,-0.454018592834,-0.866762757301
1505402119209896783,16936,1505402119209677142,ardrone_base_link,-0.206372082233,-0.454018592834,-0.866762757301
1505402119213651285,16937,1505402119213485080,ardrone_base_link,-0.283189684153,-0.445012360811,-0.84956908226
1505402119226889748,16938,1505402119226639352,ardrone_base_link,-0.312960654497,-0.38250747323,-0.869335174561
1505402119232283636,16939,1505402119232033138,ardrone_base_link,-0.312960654497,-0.38250747323,-0.869335174561
1505402119234000667,16940,1505402119233762102,ardrone_base_link,-0.364101022482,-0.525923728943,-0.768657743931
1505402119242415682,16941,1505402119242153244,ardrone_base_link,-0.364101022482,-0.525923728943,-0.768657743931
1505402119244218974,16942,1505402119243905283,ardrone_base_link,-0.271607249975,-0.633750259876,-0.724286019802
1505402119250075091,16943,1505402119249761131,ardrone_base_link,-0.271607249975,-0.633750259876,-0.724286019802
1505402119254148466,16944,1505402119253995443,ardrone_base_link,-0.181818187237,-0.54545456171,-0.818181812763
1505402119262607597,16945,1505402119262196783,ardrone_base_link,-0.181818187237,-0.54545456171,-0.818181812763
1505402119264771348,16946,1505402119264606496,ardrone_base_link,-0.146559581161,-0.537385165691,-0.83050429821
1505402119268971230,16947,1505402119268786256,ardrone_base_link,-0.146559581161,-0.537385165691,-0.83050429821
1505402119274810343,16948,1505402119274567973,ardrone_base_link,-0.173867031932,-0.660694718361,-0.730241537094
1505402119279071153,16949,1505402119278908935,ardrone_base_link,-0.173867031932,-0.660694718361,-0.730241537094
1505402119284496930,16950,1505402119284258933,ardrone_base_link,-0.250801026821,-0.609088182449,-0.752403080463
1505402119293012337,16951,1505402119292804646,ardrone_base_link,-0.250801026821,-0.609088182449,-0.752403080463
1505402119294061583,16952,1505402119293876471,ardrone_base_link,-0.327560901642,-0.524097442627,-0.78614616394
1505402119304739226,16953,1505402119304374322,ardrone_base_link,-0.327560901642,-0.524097442627,-0.78614616394
1505402119316406800,16954,1505402119316049613,ardrone_base_link,-0.406849682331,-0.480822354555,-0.776713073254
1505402119316410856,16955,1505402119316078991,ardrone_base_link,-0.406849682331,-0.480822354555,-0.776713073254
1505402119316418715,16956,1505402119316093157,ardrone_base_link,-0.185952007771,-0.483475208282,-0.855379223824
1505402119319064844,16957,1505402119318729822,ardrone_base_link,-0.185952007771,-0.483475208282,-0.855379223824
1505402119324351909,16958,1505402119324096771,ardrone_base_link,-0.290910094976,-0.540261566639,-0.789613068104
1505402119331300370,16959,1505402119331159731,ardrone_base_link,-0.290910094976,-0.540261566639,-0.789613068104
1505402119335409115,16960,1505402119335280627,ardrone_base_link,-0.155230104923,-0.698535442352,-0.698535442352
1505402119345224606,16961,1505402119344730098,ardrone_base_link,-0.155230104923,-0.698535442352,-0.698535442352
1505402119345377813,16962,1505402119344784757,ardrone_base_link,-0.279751449823,-0.46625238657,-0.839254319668
1505402119349420623,16963,1505402119349235268,ardrone_base_link,-0.279751449823,-0.46625238657,-0.839254319668
1505402119357412502,16964,1505402119357230188,ardrone_base_link,-0.298142403364,-0.596284806728,-0.745356023312
1505402119359353431,16965,1505402119359201788,ardrone_base_link,-0.298142403364,-0.596284806728,-0.745356023312
1505402119364729214,16966,1505402119364441577,ardrone_base_link,-0.333333343267,-0.666666686535,-0.666666686535
1505402119369546642,16967,1505402119369354745,ardrone_base_link,-0.333333343267,-0.666666686535,-0.666666686535
1505402119376156446,16968,1505402119376008045,ardrone_base_link,-0.366508334875,-0.366508334875,-0.855186104774
1505402119382880139,16969,1505402119382596048,ardrone_base_link,-0.366508334875,-0.366508334875,-0.855186104774
1505402119384545933,16970,1505402119384351607,ardrone_base_link,-0.228085771203,-0.608228743076,-0.760285913944
1505402119390656948,16971,1505402119390502044,ardrone_base_link,-0.228085771203,-0.608228743076,-0.760285913944
1505402119394856433,16972,1505402119394741214,ardrone_base_link,-0.145478591323,-0.581914365292,-0.800132274628
1505402119399454771,16973,1505402119399242994,ardrone_base_link,-0.145478591323,-0.581914365292,-0.800132274628
1505402119408582227,16974,1505402119408325782,ardrone_base_link,-0.110356777906,-0.625355124474,-0.772497475147
1505402119409983281,16975,1505402119409729529,ardrone_base_link,-0.110356777906,-0.625355124474,-0.772497475147
1505402119415093377,16976,1505402119414897134,ardrone_base_link,-0.261785149574,-0.560968160629,-0.785355448723
1505402119423512803,16977,1505402119422727326,ardrone_base_link,-0.261785149574,-0.560968160629,-0.785355448723
1505402119425279140,16978,1505402119425056396,ardrone_base_link,-0.433574289083,-0.566981732845,-0.700389206409
1505402119429830075,16979,1505402119429591430,ardrone_base_link,-0.433574289083,-0.566981732845,-0.700389206409
1505402119434781171,16980,1505402119434616347,ardrone_base_link,-0.324442833662,-0.486664265394,-0.811107099056
1505402119442775843,16981,1505402119442225312,ardrone_base_link,-0.324442833662,-0.486664265394,-0.811107099056
1505402119445145064,16982,1505402119444888060,ardrone_base_link,-0.413697570562,-0.564133048058,-0.714568555355
1505402119450235304,16983,1505402119450102298,ardrone_base_link,-0.413697570562,-0.564133048058,-0.714568555355
1505402119454984986,16984,1505402119454738340,ardrone_base_link,-0.179143592715,-0.537430763245,-0.824060499668
1505402119461327796,16985,1505402119460877913,ardrone_base_link,-0.179143592715,-0.537430763245,-0.824060499668
1505402119465177000,16986,1505402119464904881,ardrone_base_link,-0.272681295872,-0.50640809536,-0.818043828011
1505402119470050797,16987,1505402119469742059,ardrone_base_link,-0.272681295872,-0.50640809536,-0.818043828011
1505402119476566472,16988,1505402119476283299,ardrone_base_link,-0.299812674522,-0.674578487873,-0.674578487873
1505402119481501015,16989,1505402119481261120,ardrone_base_link,-0.299812674522,-0.674578487873,-0.674578487873
1505402119488650237,16990,1505402119488362765,ardrone_base_link,-0.496423065662,-0.406164318323,-0.767199277878
1505402119491596711,16991,1505402119491418851,ardrone_base_link,-0.496423065662,-0.406164318323,-0.767199277878
1505402119495135374,16992,1505402119494921701,ardrone_base_link,-0.277786523104,-0.595256865025,-0.753992021084
1505402119500174712,16993,1505402119499932999,ardrone_base_link,-0.277786523104,-0.595256865025,-0.753992021084
1505402119510960840,16994,1505402119510718225,ardrone_base_link,-0.310880899429,-0.577350258827,-0.754996478558
1505402119510965620,16995,1505402119510752632,ardrone_base_link,-0.310880899429,-0.577350258827,-0.754996478558
1505402119516526140,16996,1505402119516366275,ardrone_base_link,-0.174077659845,-0.696310639381,-0.696310639381
1505402119520274711,16997,1505402119520106328,ardrone_base_link,-0.174077659845,-0.696310639381,-0.696310639381
1505402119525523930,16998,1505402119525331348,ardrone_base_link,-0.353006780148,-0.481372892857,-0.802288174629
1505402119530372374,16999,1505402119530206410,ardrone_base_link,-0.353006780148,-0.481372892857,-0.802288174629
1505402119536749954,17000,1505402119536543381,ardrone_base_link,-0.272681295872,-0.50640809536,-0.818043828011
1505402119542337431,17001,1505402119542087395,ardrone_base_link,-0.272681295872,-0.50640809536,-0.818043828011
1505402119545479547,17002,1505402119545278103,ardrone_base_link,-0.237732455134,-0.577350258827,-0.781120955944
1505402119550229936,17003,1505402119550055271,ardrone_base_link,-0.237732455134,-0.577350258827,-0.781120955944
1505402119555406915,17004,1505402119555238681,ardrone_base_link,-0.368964016438,-0.614940047264,-0.696932077408
1505402119560383053,17005,1505402119560156234,ardrone_base_link,-0.368964016438,-0.614940047264,-0.696932077408
1505402119565570788,17006,1505402119565407271,ardrone_base_link,-0.525923728943,-0.364101022482,-0.768657743931
1505402119577096537,17007,1505402119576896669,ardrone_base_link,-0.525923728943,-0.364101022482,-0.768657743931
1505402119581657518,17008,1505402119581272552,ardrone_base_link,-0.660978972912,-0.484717905521,-0.572848439217
1505402119582859866,17009,1505402119582493995,ardrone_base_link,-0.660978972912,-0.484717905521,-0.572848439217
1505402119588270160,17010,1505402119588049383,ardrone_base_link,-0.287641257048,-0.415481805801,-0.862923741341
1505402119590547543,17011,1505402119590368004,ardrone_base_link,-0.287641257048,-0.415481805801,-0.862923741341
1505402119595617049,17012,1505402119595449169,ardrone_base_link,-0.1902089715,-0.570626914501,-0.79887765646
1505402119600662487,17013,1505402119600504392,ardrone_base_link,-0.1902089715,-0.570626914501,-0.79887765646
1505402119610424523,17014,1505402119610202984,ardrone_base_link,-0.172773689032,-0.604707896709,-0.777481555939
1505402119611591507,17015,1505402119611462016,ardrone_base_link,-0.172773689032,-0.604707896709,-0.777481555939
1505402119617038446,17016,1505402119616842852,ardrone_base_link,-0.298142403364,-0.596284806728,-0.745356023312
1505402119620752605,17017,1505402119620400685,ardrone_base_link,-0.298142403364,-0.596284806728,-0.745356023312
1505402119629734564,17018,1505402119629511919,ardrone_base_link,-0.206528514624,-0.619585573673,-0.757271230221
1505402119634575454,17019,1505402119634360564,ardrone_base_link,-0.206528514624,-0.619585573673,-0.757271230221
1505402119635814267,17020,1505402119635641785,ardrone_base_link,-0.279751420021,-0.46625238657,-0.839254319668
1505402119640960687,17021,1505402119640778749,ardrone_base_link,-0.279751420021,-0.46625238657,-0.839254319668
1505402119646329044,17022,1505402119646177309,ardrone_base_link,-0.431889474392,-0.431889474392,-0.791797339916
1505402119653297063,17023,1505402119653148768,ardrone_base_link,-0.431889474392,-0.431889474392,-0.791797339916
1505402119656037201,17024,1505402119655894500,ardrone_base_link,-0.43379765749,-0.354925364256,-0.828159153461
1505402119661485728,17025,1505402119660831636,ardrone_base_link,-0.43379765749,-0.354925364256,-0.828159153461
1505402119667648275,17026,1505402119667369613,ardrone_base_link,-0.345032781363,-0.552052438259,-0.759072124958
1505402119671489524,17027,1505402119671295610,ardrone_base_link,-0.345032781363,-0.552052438259,-0.759072124958
1505402119678946153,17028,1505402119678769602,ardrone_base_link,-0.251577287912,-0.452839136124,-0.855362832546
1505402119681892171,17029,1505402119681543606,ardrone_base_link,-0.251577287912,-0.452839136124,-0.855362832546
1505402119686351273,17030,1505402119686132580,ardrone_base_link,-0.261785149574,-0.560968160629,-0.785355448723
1505402119691770754,17031,1505402119691593320,ardrone_base_link,-0.261785149574,-0.560968160629,-0.785355448723
1505402119696552939,17032,1505402119696317411,ardrone_base_link,-0.198418959975,-0.515889286995,-0.833359599113
1505402119701237929,17033,1505402119700989826,ardrone_base_link,-0.198418959975,-0.515889286995,-0.833359599113
1505402119713968421,17034,1505402119713481492,ardrone_base_link,-0.418039798737,-0.487713098526,-0.766406297684
1505402119714250602,17035,1505402119714060771,ardrone_base_link,-0.418039798737,-0.487713098526,-0.766406297684
1505402119716906147,17036,1505402119716775501,ardrone_base_link,-0.261785149574,-0.560968160629,-0.785355448723
1505402119721214615,17037,1505402119721053225,ardrone_base_link,-0.261785149574,-0.560968160629,-0.785355448723
1505402119726366525,17038,1505402119726229307,ardrone_base_link,-0.401609659195,-0.562253534794,-0.722897410393
1505402119731449785,17039,1505402119731281449,ardrone_base_link,-0.401609659195,-0.562253534794,-0.722897410393
1505402119736336601,17040,1505402119736143112,ardrone_base_link,-0.304114371538,-0.456171542406,-0.836314499378
1505402119742719547,17041,1505402119742413657,ardrone_base_link,-0.304114371538,-0.456171542406,-0.836314499378
1505402119746362294,17042,1505402119746174644,ardrone_base_link,-0.157622084022,-0.472866237164,-0.866921424866
1505402119763506042,17043,1505402119763287924,ardrone_base_link,-0.157622084022,-0.472866237164,-0.866921424866
1505402119765022796,17044,1505402119764746675,ardrone_base_link,-0.121045514941,-0.605227589607,-0.786795854568
1505402119765027209,17045,1505402119764769731,ardrone_base_link,-0.121045514941,-0.605227589607,-0.786795854568
1505402119773583615,17046,1505402119773365355,ardrone_base_link,-0.279553055763,-0.678914606571,-0.678914606571
1505402119782406468,17047,1505402119782108253,ardrone_base_link,-0.279553055763,-0.678914606571,-0.678914606571
1505402119782409430,17048,1505402119782163754,ardrone_base_link,-0.287347882986,-0.574695765972,-0.766261041164
1505402119782412874,17049,1505402119782210347,ardrone_base_link,-0.287347882986,-0.574695765972,-0.766261041164
1505402119786681880,17050,1505402119786516499,ardrone_base_link,-0.239731654525,-0.527409613132,-0.815087616444
1505402119792079709,17051,1505402119791921970,ardrone_base_link,-0.239731654525,-0.527409613132,-0.815087616444
1505402119796809916,17052,1505402119796603807,ardrone_base_link,-0.129219144583,-0.559949636459,-0.818387925625
1505402119801690018,17053,1505402119801491288,ardrone_base_link,-0.129219144583,-0.559949636459,-0.818387925625
1505402119807327422,17054,1505402119807084683,ardrone_base_link,-0.348366498947,-0.627059698105,-0.696732997894
1505402119813184455,17055,1505402119813019962,ardrone_base_link,-0.348366498947,-0.627059698105,-0.696732997894
1505402119817324709,17056,1505402119817118772,ardrone_base_link,-0.239731654525,-0.527409613132,-0.815087616444
1505402119821900954,17057,1505402119821650008,ardrone_base_link,-0.239731654525,-0.527409613132,-0.815087616444
1505402119826873727,17058,1505402119826651687,ardrone_base_link,-0.282138228416,-0.564276456833,-0.775880157948
1505402119831792635,17059,1505402119831605862,ardrone_base_link,-0.282138228416,-0.564276456833,-0.775880157948
1505402119838477877,17060,1505402119838273871,ardrone_base_link,-0.259160518646,-0.431934207678,-0.863868415356
1505402119844032633,17061,1505402119843761203,ardrone_base_link,-0.259160518646,-0.431934207678,-0.863868415356
1505402119847192896,17062,1505402119847007394,ardrone_base_link,-0.3292927742,-0.548821270466,-0.768349826336
1505402119852525269,17063,1505402119852023679,ardrone_base_link,-0.3292927742,-0.548821270466,-0.768349826336
1505402119858623266,17064,1505402119858380644,ardrone_base_link,-0.53469222784,-0.392107665539,-0.748569130898
1505402119862246249,17065,1505402119861890624,ardrone_base_link,-0.53469222784,-0.392107665539,-0.748569130898
1505402119867589815,17066,1505402119867376272,ardrone_base_link,-0.383482515812,-0.613572001457,-0.690268516541
1505402119872716358,17067,1505402119872509164,ardrone_base_link,-0.383482515812,-0.613572001457,-0.690268516541
1505402119880191336,17068,1505402119879731908,ardrone_base_link,-0.125546082854,-0.460335671902,-0.878822624683
1505402119882047591,17069,1505402119881857758,ardrone_base_link,-0.125546082854,-0.460335671902,-0.878822624683
1505402119887738373,17070,1505402119887386518,ardrone_base_link,-0.179143592715,-0.537430763245,-0.824060499668
1505402119892603680,17071,1505402119892449659,ardrone_base_link,-0.179143592715,-0.537430763245,-0.824060499668
1505402119897224689,17072,1505402119897088122,ardrone_base_link,-0.250801026821,-0.752403080463,-0.609088182449
1505402119905925860,17073,1505402119905745139,ardrone_base_link,-0.250801026821,-0.752403080463,-0.609088182449
1505402119910794557,17074,1505402119910579200,ardrone_base_link,-0.272681295872,-0.50640809536,-0.818043828011
1505402119913345438,17075,1505402119913065512,ardrone_base_link,-0.272681295872,-0.50640809536,-0.818043828011
1505402119917973813,17076,1505402119917563289,ardrone_base_link,-0.264764308929,-0.718645989895,-0.642999053001
1505402119926104659,17077,1505402119925890015,ardrone_base_link,-0.264764308929,-0.718645989895,-0.642999053001
1505402119927537435,17078,1505402119927383961,ardrone_base_link,-0.332580029964,-0.617648661137,-0.712671518326
1505402119932348244,17079,1505402119932213906,ardrone_base_link,-0.332580029964,-0.617648661137,-0.712671518326
1505402119937897540,17080,1505402119937747250,ardrone_base_link,-0.419590681791,-0.503508806229,-0.755263209343
1505402119943019032,17081,1505402119942769833,ardrone_base_link,-0.419590681791,-0.503508806229,-0.755263209343
1505402119947534996,17082,1505402119947364635,ardrone_base_link,-0.215365245938,-0.646095752716,-0.732241868973
1505402119952483182,17083,1505402119952343280,ardrone_base_link,-0.215365245938,-0.646095752716,-0.732241868973
1505402119957510948,17084,1505402119957359989,ardrone_base_link,-0.315244168043,-0.630488336086,-0.709299385548
1505402119965260739,17085,1505402119964916904,ardrone_base_link,-0.315244168043,-0.630488336086,-0.709299385548
1505402119967840234,17086,1505402119967554309,ardrone_base_link,-0.472866237164,-0.394055187702,-0.788110375404
1505402119972972644,17087,1505402119972784530,ardrone_base_link,-0.472866237164,-0.394055187702,-0.788110375404
1505402119977706155,17088,1505402119977528782,ardrone_base_link,-0.324442833662,-0.486664265394,-0.811107099056
1505402119983521131,17089,1505402119983150724,ardrone_base_link,-0.324442833662,-0.486664265394,-0.811107099056
1505402119987737545,17090,1505402119987522965,ardrone_base_link,-0.311399579048,-0.544949233532,-0.77849894762
1505402119992801686,17091,1505402119992630142,ardrone_base_link,-0.311399579048,-0.544949233532,-0.77849894762
1505402119997764116,17092,1505402119997585956,ardrone_base_link,-0.392107665539,-0.53469222784,-0.748569130898
1505402120010102496,17093,1505402120009854547,ardrone_base_link,-0.392107665539,-0.53469222784,-0.748569130898
1505402120011911006,17094,1505402120011736089,ardrone_base_link,-0.198418959975,-0.515889286995,-0.833359599113
1505402120018008340,17095,1505402120017886488,ardrone_base_link,-0.198418959975,-0.515889286995,-0.833359599113
1505402120018152283,17096,1505402120018061240,ardrone_base_link,-0.212238192558,-0.551819264889,-0.806505084038
1505402120022999081,17097,1505402120022714823,ardrone_base_link,-0.212238192558,-0.551819264889,-0.806505084038
1505402120028364564,17098,1505402120028167407,ardrone_base_link,-0.181818187237,-0.54545456171,-0.818181812763
1505402120033134658,17099,1505402120032919805,ardrone_base_link,-0.181818187237,-0.54545456171,-0.818181812763
1505402120040345627,17100,1505402120040160003,ardrone_base_link,-0.211079269648,-0.492518275976,-0.84431707859
1505402120043201427,17101,1505402120042922470,ardrone_base_link,-0.211079269648,-0.492518275976,-0.84431707859
1505402120048594999,17102,1505402120048421891,ardrone_base_link,-0.224230527878,-0.523204565048,-0.822178602219
1505402120053267313,17103,1505402120053101637,ardrone_base_link,-0.224230527878,-0.523204565048,-0.822178602219
1505402120058727329,17104,1505402120058604437,ardrone_base_link,-0.239731654525,-0.527409613132,-0.815087616444
1505402120063430648,17105,1505402120062895398,ardrone_base_link,-0.239731654525,-0.527409613132,-0.815087616444
1505402120070886976,17106,1505402120070723676,ardrone_base_link,-0.264764308929,-0.416058212519,-0.869939923286
1505402120077137631,17107,1505402120076945920,ardrone_base_link,-0.264764308929,-0.416058212519,-0.869939923286
1505402120078422062,17108,1505402120078204707,ardrone_base_link,-0.227469429374,-0.422443240881,-0.877382099628
1505402120084163245,17109,1505402120083894909,ardrone_base_link,-0.227469429374,-0.422443240881,-0.877382099628
1505402120089637123,17110,1505402120089411281,ardrone_base_link,-0.358971446753,-0.554774045944,-0.750576615334
1505402120093788569,17111,1505402120093617455,ardrone_base_link,-0.358971446753,-0.554774045944,-0.750576615334
1505402120099817365,17112,1505402120099560439,ardrone_base_link,-0.352208226919,-0.55347007513,-0.754731893539
1505402120103923738,17113,1505402120103235389,ardrone_base_link,-0.352208226919,-0.55347007513,-0.754731893539
1505402120109312654,17114,1505402120109025625,ardrone_base_link,-0.583383321762,-0.388922214508,-0.7130240798
1505402120113288913,17115,1505402120113125779,ardrone_base_link,-0.583383321762,-0.388922214508,-0.7130240798
1505402120119568509,17116,1505402120119256421,ardrone_base_link,-0.364101022482,-0.525923728943,-0.768657743931
1505402120123409269,17117,1505402120123186764,ardrone_base_link,-0.364101022482,-0.525923728943,-0.768657743931
1505402120130940732,17118,1505402120130761996,ardrone_base_link,-0.350590229034,-0.662225961685,-0.662225961685
1505402120133772568,17119,1505402120133610404,ardrone_base_link,-0.350590229034,-0.662225961685,-0.662225961685
1505402120138876885,17120,1505402120138682689,ardrone_base_link,-0.311399579048,-0.544949233532,-0.77849894762
1505402120143641749,17121,1505402120143320467,ardrone_base_link,-0.311399579048,-0.544949233532,-0.77849894762
1505402120152793886,17122,1505402120152586808,ardrone_base_link,-0.256116598845,-0.475645124912,-0.841525971889
1505402120153774721,17123,1505402120153538492,ardrone_base_link,-0.256116598845,-0.475645124912,-0.841525971889
1505402120161957042,17124,1505402120161646981,ardrone_base_link,-0.365636229515,-0.658145189285,-0.658145189285
1505402120170393831,17125,1505402120170245661,ardrone_base_link,-0.365636229515,-0.658145189285,-0.658145189285
1505402120170641055,17126,1505402120170275169,ardrone_base_link,-0.324442833662,-0.486664265394,-0.811107099056
1505402120176198251,17127,1505402120176051767,ardrone_base_link,-0.324442833662,-0.486664265394,-0.811107099056
1505402120179094524,17128,1505402120178940912,ardrone_base_link,-0.311399579048,-0.544949233532,-0.77849894762
1505402120183929302,17129,1505402120183684950,ardrone_base_link,-0.311399579048,-0.544949233532,-0.77849894762
1505402120189292307,17130,1505402120189046002,ardrone_base_link,-0.46569031477,-0.232845157385,-0.853765547276
1505402120193789570,17131,1505402120193602949,ardrone_base_link,-0.46569031477,-0.232845157385,-0.853765547276
1505402120199049872,17132,1505402120198861755,ardrone_base_link,-0.379304766655,-0.463594734669,-0.800754547119
1505402120205040316,17133,1505402120204885213,ardrone_base_link,-0.379304766655,-0.463594734669,-0.800754547119
1505402120210543879,17134,1505402120210321660,ardrone_base_link,-0.179143592715,-0.537430763245,-0.824060499668
1505402120215237422,17135,1505402120215086958,ardrone_base_link,-0.179143592715,-0.537430763245,-0.824060499668
1505402120218835926,17136,1505402120218685109,ardrone_base_link,-0.457495719194,-0.457495719194,-0.762492895126
1505402120223776425,17137,1505402120223582035,ardrone_base_link,-0.457495719194,-0.457495719194,-0.762492895126
1505402120229105524,17138,1505402120228891575,ardrone_base_link,-0.261785149574,-0.560968160629,-0.785355448723
1505402120234145229,17139,1505402120234002766,ardrone_base_link,-0.261785149574,-0.560968160629,-0.785355448723
1505402120241988261,17140,1505402120241785504,ardrone_base_link,-0.315244168043,-0.709299385548,-0.630488336086
1505402120244175123,17141,1505402120243964821,ardrone_base_link,-0.315244168043,-0.709299385548,-0.630488336086
1505402120249229691,17142,1505402120249038169,ardrone_base_link,-0.384371101856,-0.454256772995,-0.803685069084
1505402120254139782,17143,1505402120253944952,ardrone_base_link,-0.384371101856,-0.454256772995,-0.803685069084
1505402120258922545,17144,1505402120258722359,ardrone_base_link,-0.13118083775,-0.655904173851,-0.743358075619
1505402120265820425,17145,1505402120265463650,ardrone_base_link,-0.13118083775,-0.655904173851,-0.743358075619
1505402120269511483,17146,1505402120269343846,ardrone_base_link,-0.203653275967,-0.54307538271,-0.814613103867
1505402120275761961,17147,1505402120275575155,ardrone_base_link,-0.203653275967,-0.54307538271,-0.814613103867
1505402120279311118,17148,1505402120279140281,ardrone_base_link,-0.0920574590564,-0.552344739437,-0.828517138958
1505402120284294475,17149,1505402120284074145,ardrone_base_link,-0.0920574590564,-0.552344739437,-0.828517138958
1505402120289293116,17150,1505402120289138515,ardrone_base_link,-0.272681295872,-0.50640809536,-0.818043828011
1505402120298109488,17151,1505402120297978572,ardrone_base_link,-0.272681295872,-0.50640809536,-0.818043828011
1505402120300090313,17152,1505402120299867795,ardrone_base_link,-0.196116134524,-0.588348388672,-0.784464538097
1505402120306368636,17153,1505402120306130192,ardrone_base_link,-0.196116134524,-0.588348388672,-0.784464538097
1505402120309616863,17154,1505402120309422571,ardrone_base_link,-0.390566706657,-0.650944530964,-0.650944530964
1505402120314401649,17155,1505402120314226666,ardrone_base_link,-0.390566706657,-0.650944530964,-0.650944530964
1505402120319447092,17156,1505402120319260139,ardrone_base_link,-0.239731654525,-0.527409613132,-0.815087616444
1505402120324414832,17157,1505402120324209686,ardrone_base_link,-0.239731654525,-0.527409613132,-0.815087616444
1505402120329961445,17158,1505402120329701093,ardrone_base_link,-0.594635307789,-0.445976495743,-0.668964743614
1505402120338881009,17159,1505402120338671950,ardrone_base_link,-0.594635307789,-0.445976495743,-0.668964743614
1505402120341066016,17160,1505402120340807622,ardrone_base_link,-0.34237614274,-0.49454331398,-0.79887765646
1505402120344778672,17161,1505402120344570421,ardrone_base_link,-0.34237614274,-0.49454331398,-0.79887765646
1505402120349737642,17162,1505402120349529287,ardrone_base_link,-0.277786523104,-0.595256865025,-0.753992021084
1505402120356748600,17163,1505402120356555994,ardrone_base_link,-0.277786523104,-0.595256865025,-0.753992021084
1505402120361341471,17164,1505402120361064095,ardrone_base_link,-0.387657433748,-0.559949636459,-0.732241868973
1505402120364956377,17165,1505402120364756571,ardrone_base_link,-0.387657433748,-0.559949636459,-0.732241868973
1505402120369921756,17166,1505402120369760233,ardrone_base_link,-0.379304766655,-0.463594734669,-0.800754547119
1505402120387303454,17167,1505402120387033886,ardrone_base_link,-0.379304766655,-0.463594734669,-0.800754547119
1505402120387310007,17168,1505402120387084327,ardrone_base_link,-0.277786523104,-0.595256865025,-0.753992021084
1505402120390030219,17169,1505402120389870093,ardrone_base_link,-0.277786523104,-0.595256865025,-0.753992021084
1505402120395529355,17170,1505402120395373171,ardrone_base_link,-0.420903325081,-0.420903325081,-0.803542673588
1505402120395801750,17171,1505402120395697719,ardrone_base_link,-0.420903325081,-0.420903325081,-0.803542673588
1505402120400090140,17172,1505402120399790968,ardrone_base_link,-0.147042915225,-0.661693155766,-0.735214591026
1505402120406376397,17173,1505402120406150289,ardrone_base_link,-0.147042915225,-0.661693155766,-0.735214591026
1505402120410053070,17174,1505402120409883390,ardrone_base_link,-0.392837077379,-0.314269661903,-0.864241600037
1505402120418825454,17175,1505402120418669595,ardrone_base_link,-0.392837077379,-0.314269661903,-0.864241600037
1505402120420258812,17176,1505402120419880492,ardrone_base_link,-0.142494097352,-0.498729377985,-0.854964613914
1505402120426611958,17177,1505402120426275551,ardrone_base_link,-0.142494097352,-0.498729377985,-0.854964613914
1505402120432778425,17178,1505402120432588438,ardrone_base_link,-0.1902089715,-0.570626914501,-0.79887765646
1505402120435404999,17179,1505402120435251955,ardrone_base_link,-0.1902089715,-0.570626914501,-0.79887765646
1505402120443659029,17180,1505402120443425015,ardrone_base_link,-0.315244168043,-0.630488336086,-0.709299385548
1505402120446426407,17181,1505402120446297829,ardrone_base_link,-0.315244168043,-0.630488336086,-0.709299385548
1505402120450407247,17182,1505402120450225769,ardrone_base_link,-0.287347882986,-0.574695765972,-0.766261041164
1505402120458258944,17183,1505402120458096851,ardrone_base_link,-0.287347882986,-0.574695765972,-0.766261041164
1505402120460468900,17184,1505402120460274493,ardrone_base_link,-0.559949636459,-0.387657433748,-0.732241868973
1505402120466446321,17185,1505402120466271720,ardrone_base_link,-0.559949636459,-0.387657433748,-0.732241868973
1505402120470274270,17186,1505402120470089366,ardrone_base_link,-0.392107665539,-0.53469222784,-0.748569130898
1505402120475609022,17187,1505402120475499731,ardrone_base_link,-0.392107665539,-0.53469222784,-0.748569130898
1505402120480318919,17188,1505402120480109302,ardrone_base_link,-0.185952007771,-0.483475208282,-0.855379223824
1505402120485414434,17189,1505402120485197010,ardrone_base_link,-0.185952007771,-0.483475208282,-0.855379223824
1505402120491830940,17190,1505402120491666031,ardrone_base_link,-0.229415744543,-0.688247203827,-0.688247203827
1505402120498067077,17191,1505402120497908147,ardrone_base_link,-0.229415744543,-0.688247203827,-0.688247203827
1505402120500488147,17192,1505402120500336719,ardrone_base_link,-0.468292891979,-0.468292891979,-0.749268651009
1505402120507882954,17193,1505402120507600804,ardrone_base_link,-0.468292891979,-0.468292891979,-0.749268651009
1505402120510516132,17194,1505402120510272269,ardrone_base_link,-0.192450091243,-0.423390179873,-0.885270416737
1505402120515682457,17195,1505402120515523603,ardrone_base_link,-0.192450091243,-0.423390179873,-0.885270416737
1505402120521080088,17196,1505402120520880089,ardrone_base_link,-0.435540527105,-0.53232729435,-0.725900888443
1505402120525689618,17197,1505402120525525570,ardrone_base_link,-0.435540527105,-0.53232729435,-0.725900888443
1505402120530925169,17198,1505402120530718063,ardrone_base_link,-0.413697570562,-0.714568555355,-0.564133048058
1505402120543284351,17199,1505402120542944349,ardrone_base_link,-0.413697570562,-0.714568555355,-0.564133048058
1505402120543287731,17200,1505402120542993247,ardrone_base_link,-0.323380827904,-0.323380827904,-0.889297306538
1505402120545823013,17201,1505402120545581074,ardrone_base_link,-0.323380827904,-0.323380827904,-0.889297306538
1505402120552393282,17202,1505402120552219840,ardrone_base_link,-0.298142403364,-0.596284806728,-0.745356023312
1505402120556438129,17203,1505402120556252979,ardrone_base_link,-0.298142403364,-0.596284806728,-0.745356023312
1505402120561528962,17204,1505402120560800363,ardrone_base_link,-0.256116598845,-0.475645124912,-0.841525971889
1505402120565805416,17205,1505402120565567143,ardrone_base_link,-0.256116598845,-0.475645124912,-0.841525971889
1505402120570883290,17206,1505402120570702432,ardrone_base_link,-0.184900060296,-0.739600241184,-0.647150218487
1505402120578790550,17207,1505402120578609001,ardrone_base_link,-0.184900060296,-0.739600241184,-0.647150218487
1505402120581164711,17208,1505402120580934560,ardrone_base_link,-0.135388106108,-0.496423065662,-0.857457995415
1505402120589195586,17209,1505402120589008988,ardrone_base_link,-0.135388106108,-0.496423065662,-0.857457995415
1505402120591928202,17210,1505402120591776734,ardrone_base_link,-0.3484813869,-0.580802321434,-0.73568290472
1505402120597400135,17211,1505402120597235418,ardrone_base_link,-0.3484813869,-0.580802321434,-0.73568290472
1505402120602288747,17212,1505402120600873116,ardrone_base_link,-0.241746887565,-0.644658386707,-0.725240647793
1505402120608985937,17213,1505402120608790621,ardrone_base_link,-0.241746887565,-0.644658386707,-0.725240647793
1505402120611113169,17214,1505402120610952864,ardrone_base_link,-0.396155297756,-0.61224001646,-0.68426823616
1505402120616014575,17215,1505402120615851573,ardrone_base_link,-0.396155297756,-0.61224001646,-0.68426823616
1505402120623474764,17216,1505402120623218636,ardrone_base_link,-0.212238192558,-0.551819264889,-0.806505084038
1505402120629265303,17217,1505402120629110262,ardrone_base_link,-0.212238192558,-0.551819264889,-0.806505084038
1505402120631753003,17218,1505402120631576350,ardrone_base_link,-0.502570688725,-0.574366509914,-0.646162331104
1505402120636122374,17219,1505402120635955983,ardrone_base_link,-0.502570688725,-0.574366509914,-0.646162331104
1505402120644632291,17220,1505402120644361266,ardrone_base_link,-0.283189684153,-0.445012360811,-0.84956908226
1505402120646091086,17221,1505402120645973954,ardrone_base_link,-0.283189684153,-0.445012360811,-0.84956908226
1505402120651386034,17222,1505402120651176309,ardrone_base_link,-0.151619613171,-0.530668616295,-0.833907842636
1505402120656620854,17223,1505402120656413619,ardrone_base_link,-0.151619613171,-0.530668616295,-0.833907842636
1505402120664139139,17224,1505402120663877133,ardrone_base_link,-0.293294221163,-0.513264894485,-0.806559145451
1505402120669707031,17225,1505402120669522069,ardrone_base_link,-0.293294221163,-0.513264894485,-0.806559145451
1505402120676046550,17226,1505402120675854634,ardrone_base_link,-0.0437269471586,-0.39354249835,-0.918265879154
1505402120676050126,17227,1505402120675879232,ardrone_base_link,-0.0437269471586,-0.39354249835,-0.918265879154
1505402120681208778,17228,1505402120681004454,ardrone_base_link,-0.473118454218,-0.691480815411,-0.545905888081
1505402120687424815,17229,1505402120687243784,ardrone_base_link,-0.473118454218,-0.691480815411,-0.545905888081
1505402120691982548,17230,1505402120691722214,ardrone_base_link,-0.354925364256,-0.43379765749,-0.828159153461
1505402120696599577,17231,1505402120696390423,ardrone_base_link,-0.354925364256,-0.43379765749,-0.828159153461
1505402120709162361,17232,1505402120708855214,ardrone_base_link,-0.368964016438,-0.614940047264,-0.696932077408
1505402120709166844,17233,1505402120708892605,ardrone_base_link,-0.368964016438,-0.614940047264,-0.696932077408
1505402120711418065,17234,1505402120711229810,ardrone_base_link,-0.310880899429,-0.577350258827,-0.754996478558
1505402120717979817,17235,1505402120717740055,ardrone_base_link,-0.310880899429,-0.577350258827,-0.754996478558
1505402120721827157,17236,1505402120721608088,ardrone_base_link,-0.215365245938,-0.646095752716,-0.732241868973
1505402120728992490,17237,1505402120728780109,ardrone_base_link,-0.215365245938,-0.646095752716,-0.732241868973
1505402120734390249,17238,1505402120734188521,ardrone_base_link,-0.218217879534,-0.436435759068,-0.872871518135
1505402120736832635,17239,1505402120736604923,ardrone_base_link,-0.218217879534,-0.436435759068,-0.872871518135
1505402120742486171,17240,1505402120742176861,ardrone_base_link,-0.184900060296,-0.647150218487,-0.739600241184
1505402120747014702,17241,1505402120746739089,ardrone_base_link,-0.184900060296,-0.647150218487,-0.739600241184
1505402120751992521,17242,1505402120751793587,ardrone_base_link,-0.298142403364,-0.596284806728,-0.745356023312
1505402120756814410,17243,1505402120756672946,ardrone_base_link,-0.298142403364,-0.596284806728,-0.745356023312
1505402120763712007,17244,1505402120762865958,ardrone_base_link,-0.364101022482,-0.525923728943,-0.768657743931
1505402120769146546,17245,1505402120769014936,ardrone_base_link,-0.364101022482,-0.525923728943,-0.768657743931
1505402120775424378,17246,1505402120775160024,ardrone_base_link,-0.315905570984,-0.406164318323,-0.857457995415
1505402120778198797,17247,1505402120778008408,ardrone_base_link,-0.315905570984,-0.406164318323,-0.857457995415
1505402120782287541,17248,1505402120781972556,ardrone_base_link,-0.365636229515,-0.658145189285,-0.658145189285
1505402120788383561,17249,1505402120788141666,ardrone_base_link,-0.365636229515,-0.658145189285,-0.658145189285
1505402120792184842,17250,1505402120792008496,ardrone_base_link,-0.197814151645,-0.659380495548,-0.725318551064
1505402120796958432,17251,1505402120796834703,ardrone_base_link,-0.197814151645,-0.659380495548,-0.725318551064
1505402120802191642,17252,1505402120801925348,ardrone_base_link,-0.179143592715,-0.537430763245,-0.824060499668
1505402120808729951,17253,1505402120808481350,ardrone_base_link,-0.179143592715,-0.537430763245,-0.824060499668
1505402120812196095,17254,1505402120812021506,ardrone_base_link,-0.245255723596,-0.551825344563,-0.797081112862
1505402120817437485,17255,1505402120817204520,ardrone_base_link,-0.245255723596,-0.551825344563,-0.797081112862
1505402120823605370,17256,1505402120822702393,ardrone_base_link,-0.394055187702,-0.472866237164,-0.788110375404
1505402120827206635,17257,1505402120826994729,ardrone_base_link,-0.394055187702,-0.472866237164,-0.788110375404
1505402120832174073,17258,1505402120832007966,ardrone_base_link,-0.394055187702,-0.472866237164,-0.788110375404
1505402120840330108,17259,1505402120840018793,ardrone_base_link,-0.394055187702,-0.472866237164,-0.788110375404
1505402120844001828,17260,1505402120843735483,ardrone_base_link,-0.293294221163,-0.513264894485,-0.806559145451
1505402120847691150,17261,1505402120847543052,ardrone_base_link,-0.293294221163,-0.513264894485,-0.806559145451
1505402120852583484,17262,1505402120852408019,ardrone_base_link,-0.232845157385,-0.46569031477,-0.853765547276
1505402120859053652,17263,1505402120858881824,ardrone_base_link,-0.232845157385,-0.46569031477,-0.853765547276
1505402120862454196,17264,1505402120862102474,ardrone_base_link,-0.104828476906,-0.314485430717,-0.943456292152
1505402120867732393,17265,1505402120867482523,ardrone_base_link,-0.104828476906,-0.314485430717,-0.943456292152
1505402120875095770,17266,1505402120874866595,ardrone_base_link,-0.0433963015676,-0.56415194273,-0.824529767036
1505402120877824533,17267,1505402120877610522,ardrone_base_link,-0.0433963015676,-0.56415194273,-0.824529767036
1505402120884214707,17268,1505402120883812263,ardrone_base_link,-0.396155297756,-0.396155297756,-0.828324735165
1505402120887594995,17269,1505402120887353575,ardrone_base_link,-0.396155297756,-0.396155297756,-0.828324735165
1505402120892688273,17270,1505402120892522708,ardrone_base_link,-0.222057789564,-0.488527148962,-0.843819618225
1505402120897669564,17271,1505402120897459499,ardrone_base_link,-0.222057789564,-0.488527148962,-0.843819618225
1505402120903292179,17272,1505402120903049067,ardrone_base_link,-0.0440652668476,-0.749109506607,-0.660978972912
1505402120908907415,17273,1505402120908761810,ardrone_base_link,-0.0440652668476,-0.749109506607,-0.660978972912
1505402120912619287,17274,1505402120912375101,ardrone_base_link,-0.348366498947,-0.696732997894,-0.627059698105
1505402120917794324,17275,1505402120917624501,ardrone_base_link,-0.348366498947,-0.696732997894,-0.627059698105
1505402120922751577,17276,1505402120922498207,ardrone_base_link,-0.40422603488,-0.646761655807,-0.646761655807
1505402120927723158,17277,1505402120927567558,ardrone_base_link,-0.40422603488,-0.646761655807,-0.646761655807
1505402120932854016,17278,1505402120932690328,ardrone_base_link,-0.238667190075,-0.556890070438,-0.795557260513
1505402120940930879,17279,1505402120940669913,ardrone_base_link,-0.238667190075,-0.556890070438,-0.795557260513
1505402120943335472,17280,1505402120943143708,ardrone_base_link,-0.382359564304,-0.382359564304,-0.841191053391
1505402120949983222,17281,1505402120949683161,ardrone_base_link,-0.382359564304,-0.382359564304,-0.841191053391
1505402120952964978,17282,1505402120952796474,ardrone_base_link,-0.104828476906,-0.314485430717,-0.943456292152
1505402120960901833,17283,1505402120960661360,ardrone_base_link,-0.104828476906,-0.314485430717,-0.943456292152
1505402120963066317,17284,1505402120962805308,ardrone_base_link,-0.452678740025,-0.362143009901,-0.814821720123
1505402120970498318,17285,1505402120970310889,ardrone_base_link,-0.452678740025,-0.362143009901,-0.814821720123
1505402120976739819,17286,1505402120976533123,ardrone_base_link,-0.408248275518,-0.408248275518,-0.816496551037
1505402120978936154,17287,1505402120978724284,ardrone_base_link,-0.408248275518,-0.408248275518,-0.816496551037
1505402120983779932,17288,1505402120982955498,ardrone_base_link,-0.122988007963,-0.614940047264,-0.778924047947
1505402120988023279,17289,1505402120987815463,ardrone_base_link,-0.122988007963,-0.614940047264,-0.778924047947
1505402120992885388,17290,1505402120992714754,ardrone_base_link,-0.497431188822,-0.573959052563,-0.650486946106
1505402120997906775,17291,1505402120997720627,ardrone_base_link,-0.497431188822,-0.573959052563,-0.650486946106
1505402121003048070,17292,1505402121002741683,ardrone_base_link,-0.413794577122,-0.541115999222,-0.73209810257
1505402121009783820,17293,1505402121009609509,ardrone_base_link,-0.413794577122,-0.541115999222,-0.73209810257
1505402121013370461,17294,1505402121013234032,ardrone_base_link,-0.304114371538,-0.456171542406,-0.836314499378
1505402121018055138,17295,1505402121017768265,ardrone_base_link,-0.304114371538,-0.456171542406,-0.836314499378
1505402121023466120,17296,1505402121023176763,ardrone_base_link,-0.277786523104,-0.595256865025,-0.753992021084
1505402121028325073,17297,1505402121028146472,ardrone_base_link,-0.277786523104,-0.595256865025,-0.753992021084
1505402121033115553,17298,1505402121032956435,ardrone_base_link,-0.412948310375,-0.688247203827,-0.59648090601
1505402121040204470,17299,1505402121039895467,ardrone_base_link,-0.412948310375,-0.688247203827,-0.59648090601
1505402121043674224,17300,1505402121042870036,ardrone_base_link,-0.254456669092,-0.593732237816,-0.763370037079
1505402121049388155,17301,1505402121049153592,ardrone_base_link,-0.254456669092,-0.593732237816,-0.763370037079
1505402121054084298,17302,1505402121053839441,ardrone_base_link,-0.29408583045,-0.367607295513,-0.882257521152
1505402121058560655,17303,1505402121058341028,ardrone_base_link,-0.29408583045,-0.367607295513,-0.882257521152
1505402121063564809,17304,1505402121063251577,ardrone_base_link,-0.293294221163,-0.513264894485,-0.806559145451
1505402121068015823,17305,1505402121067864720,ardrone_base_link,-0.293294221163,-0.513264894485,-0.806559145451
1505402121075587184,17306,1505402121075428238,ardrone_base_link,-0.283189684153,-0.445012360811,-0.84956908226
1505402121080151271,17307,1505402121079705134,ardrone_base_link,-0.283189684153,-0.445012360811,-0.84956908226
1505402121083826310,17308,1505402121083255856,ardrone_base_link,-0.262431949377,-0.682323038578,-0.682323038578
1505402121088496554,17309,1505402121088249500,ardrone_base_link,-0.262431949377,-0.682323038578,-0.682323038578
1505402121095157913,17310,1505402121095018205,ardrone_base_link,-0.3292927742,-0.548821270466,-0.768349826336
1505402121098419848,17311,1505402121098274612,ardrone_base_link,-0.3292927742,-0.548821270466,-0.768349826336
1505402121103662214,17312,1505402121103365340,ardrone_base_link,-0.270914196968,-0.609556913376,-0.74501401186
1505402121109682395,17313,1505402121109447476,ardrone_base_link,-0.270914196968,-0.609556913376,-0.74501401186
1505402121113568775,17314,1505402121113407561,ardrone_base_link,-0.249136447906,-0.498272895813,-0.830454826355
1505402121118277599,17315,1505402121118147769,ardrone_base_link,-0.249136447906,-0.498272895813,-0.830454826355
1505402121123736847,17316,1505402121123456721,ardrone_base_link,-0.509019255638,-0.509019255638,-0.694117188454
1505402121128706835,17317,1505402121128508953,ardrone_base_link,-0.509019255638,-0.509019255638,-0.694117188454
1505402121134699639,17318,1505402121134479386,ardrone_base_link,-0.276685804129,-0.484200149775,-0.830057382584
1505402121145912104,17319,1505402121145707791,ardrone_base_link,-0.276685804129,-0.484200149775,-0.830057382584
1505402121146587782,17320,1505402121146426901,ardrone_base_link,-0.303774118423,-0.477359324694,-0.824529767036
1505402121149090567,17321,1505402121148899951,ardrone_base_link,-0.303774118423,-0.477359324694,-0.824529767036
1505402121155033579,17322,1505402121154828311,ardrone_base_link,-0.120580181479,-0.522514104843,-0.844061255455
1505402121159890673,17323,1505402121159066282,ardrone_base_link,-0.120580181479,-0.522514104843,-0.844061255455
1505402121164300094,17324,1505402121164030382,ardrone_base_link,-0.241092815995,-0.447743803263,-0.861045718193
1505402121170266864,17325,1505402121170041878,ardrone_base_link,-0.241092815995,-0.447743803263,-0.861045718193
1505402121176652232,17326,1505402121176310381,ardrone_base_link,-0.087370403111,-0.611592829227,-0.786333620548
1505402121179541116,17327,1505402121179355101,ardrone_base_link,-0.087370403111,-0.611592829227,-0.786333620548
1505402121187281918,17328,1505402121187083222,ardrone_base_link,-0.379049032927,-0.530668616295,-0.758098065853
1505402121189083459,17329,1505402121188886787,ardrone_base_link,-0.379049032927,-0.530668616295,-0.758098065853
1505402121194162667,17330,1505402121193967518,ardrone_base_link,-0.513264894485,-0.293294221163,-0.806559145451
1505402121198948748,17331,1505402121198784373,ardrone_base_link,-0.513264894485,-0.293294221163,-0.806559145451
1505402121207028792,17332,1505402121206816126,ardrone_base_link,0.0404556691647,-0.525923728943,-0.84956908226
1505402121210321218,17333,1505402121210116759,ardrone_base_link,0.0404556691647,-0.525923728943,-0.84956908226
1505402121214329327,17334,1505402121214160703,ardrone_base_link,-0.261785149574,-0.560968160629,-0.785355448723
1505402121223559247,17335,1505402121223247482,ardrone_base_link,-0.261785149574,-0.560968160629,-0.785355448723
1505402121224243788,17336,1505402121224095027,ardrone_base_link,-0.202278345823,-0.606835067272,-0.768657743931
1505402121229095143,17337,1505402121228949332,ardrone_base_link,-0.202278345823,-0.606835067272,-0.768657743931
1505402121234309050,17338,1505402121234128383,ardrone_base_link,-0.129219144583,-0.559949636459,-0.818387925625
1505402121242519792,17339,1505402121242245621,ardrone_base_link,-0.129219144583,-0.559949636459,-0.818387925625
1505402121247460809,17340,1505402121247258155,ardrone_base_link,-0.436521708965,-0.595256865025,-0.674624443054
1505402121250580583,17341,1505402121250378637,ardrone_base_link,-0.436521708965,-0.595256865025,-0.674624443054
1505402121257290424,17342,1505402121257144990,ardrone_base_link,-0.332877010107,-0.406849682331,-0.850685715675
1505402121259638858,17343,1505402121259403606,ardrone_base_link,-0.332877010107,-0.406849682331,-0.850685715675
1505402121264414086,17344,1505402121264147272,ardrone_base_link,-0.241746887565,-0.725240647793,-0.644658386707
1505402121269515286,17345,1505402121269344599,ardrone_base_link,-0.241746887565,-0.725240647793,-0.644658386707
1505402121278461192,17346,1505402121278245933,ardrone_base_link,-0.362143009901,-0.452678740025,-0.814821720123
1505402121280820677,17347,1505402121280572953,ardrone_base_link,-0.362143009901,-0.452678740025,-0.814821720123
1505402121284539330,17348,1505402121284336280,ardrone_base_link,-0.364101022482,-0.525923728943,-0.768657743931
1505402121289422826,17349,1505402121289272742,ardrone_base_link,-0.364101022482,-0.525923728943,-0.768657743931
1505402121294741895,17350,1505402121294471107,ardrone_base_link,-0.331861674786,-0.597351014614,-0.730095684528
1505402121299882033,17351,1505402121299712371,ardrone_base_link,-0.331861674786,-0.597351014614,-0.730095684528
1505402121308507227,17352,1505402121308299344,ardrone_base_link,-0.313363045454,-0.671492218971,-0.671492218971
1505402121309748270,17353,1505402121309595984,ardrone_base_link,-0.313363045454,-0.671492218971,-0.671492218971
1505402121314755122,17354,1505402121314569460,ardrone_base_link,-0.154303357005,-0.61721342802,-0.771516740322
1505402121319832990,17355,1505402121319616498,ardrone_base_link,-0.154303357005,-0.61721342802,-0.771516740322
1505402121324763027,17356,1505402121324527838,ardrone_base_link,-0.282138228416,-0.564276456833,-0.775880157948
1505402121329804528,17357,1505402121329595375,ardrone_base_link,-0.282138228416,-0.564276456833,-0.775880157948
1505402121334737234,17358,1505402121334562023,ardrone_base_link,-0.315244168043,-0.630488336086,-0.709299385548
1505402121342931086,17359,1505402121342622346,ardrone_base_link,-0.315244168043,-0.630488336086,-0.709299385548
1505402121348390884,17360,1505402121348187450,ardrone_base_link,-0.401609659195,-0.562253534794,-0.722897410393
1505402121349923371,17361,1505402121349648740,ardrone_base_link,-0.401609659195,-0.562253534794,-0.722897410393
1505402121355019793,17362,1505402121354847235,ardrone_base_link,-0.358971446753,-0.554774045944,-0.750576615334
1505402121359787060,17363,1505402121359602249,ardrone_base_link,-0.358971446753,-0.554774045944,-0.750576615334
1505402121364809567,17364,1505402121364621333,ardrone_base_link,-0.238667190075,-0.556890070438,-0.795557260513
1505402121370307599,17365,1505402121370124025,ardrone_base_link,-0.238667190075,-0.556890070438,-0.795557260513
1505402121375214309,17366,1505402121375087702,ardrone_base_link,-0.284988194704,-0.641223490238,-0.712470531464
1505402121381435411,17367,1505402121381280572,ardrone_base_link,-0.284988194704,-0.641223490238,-0.712470531464
1505402121387119678,17368,1505402121386937070,ardrone_base_link,-0.087370403111,-0.611592829227,-0.786333620548
1505402121389945874,17369,1505402121389779583,ardrone_base_link,-0.087370403111,-0.611592829227,-0.786333620548
1505402121401305234,17370,1505402121401075548,ardrone_base_link,-0.259160518646,-0.431934207678,-0.863868415356
1505402121401308672,17371,1505402121401111202,ardrone_base_link,-0.259160518646,-0.431934207678,-0.863868415356
1505402121406208514,17372,1505402121406033743,ardrone_base_link,-0.382359564304,-0.382359564304,-0.841191053391
1505402121410286305,17373,1505402121410034490,ardrone_base_link,-0.382359564304,-0.382359564304,-0.841191053391
1505402121416378997,17374,1505402121416155939,ardrone_base_link,-0.477359324694,-0.477359324694,-0.737737119198
1505402121421034891,17375,1505402121420708451,ardrone_base_link,-0.477359324694,-0.477359324694,-0.737737119198
1505402121425302093,17376,1505402121425090450,ardrone_base_link,-0.163846388459,-0.655385553837,-0.737308740616
1505402121430473610,17377,1505402121430320892,ardrone_base_link,-0.163846388459,-0.655385553837,-0.737308740616
1505402121435633183,17378,1505402121435476382,ardrone_base_link,-0.346843987703,-0.520265996456,-0.780399024487
1505402121442953543,17379,1505402121442586114,ardrone_base_link,-0.346843987703,-0.520265996456,-0.780399024487
1505402121447189865,17380,1505402121446278016,ardrone_base_link,-0.184900060296,-0.647150218487,-0.739600241184
1505402121450503764,17381,1505402121450309406,ardrone_base_link,-0.184900060296,-0.647150218487,-0.739600241184
1505402121455721647,17382,1505402121455526652,ardrone_base_link,-0.544949233532,-0.311399579048,-0.77849894762
1505402121461730802,17383,1505402121460511351,ardrone_base_link,-0.544949233532,-0.311399579048,-0.77849894762
1505402121468205353,17384,1505402121467887714,ardrone_base_link,-0.161690413952,-0.565916478634,-0.808452069759
1505402121477029860,17385,1505402121476820772,ardrone_base_link,-0.161690413952,-0.565916478634,-0.808452069759
1505402121479239708,17386,1505402121479010594,ardrone_base_link,-0.472866237164,-0.394055187702,-0.788110375404
1505402121482306512,17387,1505402121482087831,ardrone_base_link,-0.472866237164,-0.394055187702,-0.788110375404
1505402121485630096,17388,1505402121485384309,ardrone_base_link,-0.479632079601,-0.548150956631,-0.68518871069
1505402121490462350,17389,1505402121490336147,ardrone_base_link,-0.479632079601,-0.548150956631,-0.68518871069
1505402121496179669,17390,1505402121496024245,ardrone_base_link,-0.439678758383,-0.635091543198,-0.635091543198
1505402121501263995,17391,1505402121500771402,ardrone_base_link,-0.439678758383,-0.635091543198,-0.635091543198
1505402121508650664,17392,1505402121508441147,ardrone_base_link,-0.311457842588,-0.519096434116,-0.795947849751
1505402121510779229,17393,1505402121510605388,ardrone_base_link,-0.311457842588,-0.519096434116,-0.795947849751
1505402121515916691,17394,1505402121515711184,ardrone_base_link,-0.169030845165,-0.507092535496,-0.845154225826
1505402121521553552,17395,1505402121521387548,ardrone_base_link,-0.169030845165,-0.507092535496,-0.845154225826
1505402121525802421,17396,1505402121525619271,ardrone_base_link,-0.349215149879,-0.419058173895,-0.83811634779
1505402121535446406,17397,1505402121535276676,ardrone_base_link,-0.349215149879,-0.419058173895,-0.83811634779
1505402121542324124,17398,1505402121542117372,ardrone_base_link,-0.151376217604,-0.635780096054,-0.756881058216
1505402121546984574,17399,1505402121546781339,ardrone_base_link,-0.151376217604,-0.635780096054,-0.756881058216
1505402121546991687,17400,1505402121546807599,ardrone_base_link,-0.282138228416,-0.564276456833,-0.775880157948
1505402121553282799,17401,1505402121553103267,ardrone_base_link,-0.282138228416,-0.564276456833,-0.775880157948
1505402121556056598,17402,1505402121555852119,ardrone_base_link,-0.261785149574,-0.560968160629,-0.785355448723
1505402121563960708,17403,1505402121563692154,ardrone_base_link,-0.261785149574,-0.560968160629,-0.785355448723
1505402121566933334,17404,1505402121566522380,ardrone_base_link,-0.295014828444,-0.632174611092,-0.716464579105
1505402121576403782,17405,1505402121576176958,ardrone_base_link,-0.295014828444,-0.632174611092,-0.716464579105
1505402121576407531,17406,1505402121576208561,ardrone_base_link,-0.180070593953,-0.396155297756,-0.900352954865
1505402121581436129,17407,1505402121581115518,ardrone_base_link,-0.180070593953,-0.396155297756,-0.900352954865
1505402121586235501,17408,1505402121585964393,ardrone_base_link,-0.366508334875,-0.366508334875,-0.855186104774
1505402121590978188,17409,1505402121590748372,ardrone_base_link,-0.366508334875,-0.366508334875,-0.855186104774
1505402121597842912,17410,1505402121597656400,ardrone_base_link,-0.22750787437,-0.591520488262,-0.773526787758
1505402121601612018,17411,1505402121601324710,ardrone_base_link,-0.22750787437,-0.591520488262,-0.773526787758
1505402121608543128,17412,1505402121608281143,ardrone_base_link,-0.283189684153,-0.445012360811,-0.84956908226
1505402121611366491,17413,1505402121611158568,ardrone_base_link,-0.283189684153,-0.445012360811,-0.84956908226
