%time,field.header.seq,field.header.stamp,field.header.frame_id,field.orientation.x,field.orientation.y,field.orientation.z,field.orientation.w,field.orientation_covariance0,field.orientation_covariance1,field.orientation_covariance2,field.orientation_covariance3,field.orientation_covariance4,field.orientation_covariance5,field.orientation_covariance6,field.orientation_covariance7,field.orientation_covariance8,field.angular_velocity.x,field.angular_velocity.y,field.angular_velocity.z,field.angular_velocity_covariance0,field.angular_velocity_covariance1,field.angular_velocity_covariance2,field.angular_velocity_covariance3,field.angular_velocity_covariance4,field.angular_velocity_covariance5,field.angular_velocity_covariance6,field.angular_velocity_covariance7,field.angular_velocity_covariance8,field.linear_acceleration.x,field.linear_acceleration.y,field.linear_acceleration.z,field.linear_acceleration_covariance0,field.linear_acceleration_covariance1,field.linear_acceleration_covariance2,field.linear_acceleration_covariance3,field.linear_acceleration_covariance4,field.linear_acceleration_covariance5,field.linear_acceleration_covariance6,field.linear_acceleration_covariance7,field.linear_acceleration_covariance8
1505402118923124234,16879,1505402118922936673,ardrone_base_link,-0.0213580264581,-0.00753591599396,-0.905565427197,0.423601583734,1.0,0.0,0.0,0.0,1.0,0.0,0.0,0.0,100000.0,0.0003895573318,0.000470266677439,0.000585336587392,1.0,0.0,0.0,0.0,1.0,0.0,0.0,0.0,1.0,0.185331435874,0.112581760436,9.23232754469,0.1,0.0,0.0,0.0,0.1,0.0,0.0,0.0,0.1
1505402118927508299,16880,1505402118927203943,ardrone_base_link,-0.0213659299552,-0.00753961402524,-0.905565257204,0.423601482767,1.0,0.0,0.0,0.0,1.0,0.0,0.0,0.0,100000.0,-0.000697702169418,0.000391040928662,0.000189049635082,1.0,0.0,0.0,0.0,1.0,0.0,0.0,0.0,1.0,0.184890001267,0.11280650273,9.23783993721,0.1,0.0,0.0,0.0,0.1,0.0,0.0,0.0,0.1
1505402118932115558,16881,1505402118931898772,ardrone_base_link,-0.0213658636929,-0.00753980179816,-0.905561534372,0.423609441258,1.0,0.0,0.0,0.0,1.0,0.0,0.0,0.0,100000.0,0.00138319283724,0.000835145881865,0.00142970134038,1.0,0.0,0.0,0.0,1.0,0.0,0.0,0.0,1.0,0.185555995628,0.113244542107,9.2567696929,0.1,0.0,0.0,0.0,0.1,0.0,0.0,0.0,0.1
1505402118937092701,16882,1505402118936968437,ardrone_base_link,-0.0213621017177,-0.00754788911504,-0.905557802046,0.423617465566,1.0,0.0,0.0,0.0,1.0,0.0,0.0,0.0,100000.0,0.00100473314524,0.000679801276419,0.000500004272908,1.0,0.0,0.0,0.0,1.0,0.0,0.0,0.0,1.0,0.185957727954,0.113876766711,9.28581591845,0.1,0.0,0.0,0.0,0.1,0.0,0.0,0.0,0.1
1505402118943217205,16883,1505402118942996351,ardrone_base_link,-0.0213620353827,-0.00754807685432,-0.905554079074,0.423625423991,1.0,0.0,0.0,0.0,1.0,0.0,0.0,0.0,100000.0,0.000925373286009,0.000783390365541,0.00136661529541,1.0,0.0,0.0,0.0,1.0,0.0,0.0,0.0,1.0,0.185751312599,0.114338773489,9.30558798313,0.1,0.0,0.0,0.0,0.1,0.0,0.0,0.0,0.1
1505402118946995237,16884,1505402118946796853,ardrone_base_link,-0.0213620353827,-0.00754807685432,-0.905554079074,0.423625423991,1.0,0.0,0.0,0.0,1.0,0.0,0.0,0.0,100000.0,1.52848660946e-05,0.000194100663066,0.000472312327474,1.0,0.0,0.0,0.0,1.0,0.0,0.0,0.0,1.0,0.186277737468,0.114135826379,9.29090248346,0.1,0.0,0.0,0.0,0.1,0.0,0.0,0.0,0.1
1505402118952079235,16885,1505402118951919703,ardrone_base_link,-0.0213698715344,-0.00755195917184,-0.905550242393,0.42363316089,1.0,0.0,0.0,0.0,1.0,0.0,0.0,0.0,100000.0,-0.000322587817209,-0.000235287472606,0.000290720723569,1.0,0.0,0.0,0.0,1.0,0.0,0.0,0.0,1.0,0.186243255809,0.113900651969,9.28224107027,0.1,0.0,0.0,0.0,0.1,0.0,0.0,0.0,0.1
1505402118958430189,16886,1505402118958289762,ardrone_base_link,-0.0213698051637,-0.00755214697941,-0.905546519283,0.423641119249,1.0,0.0,0.0,0.0,1.0,0.0,0.0,0.0,100000.0,-4.68902289867e-05,-0.000250546261668,0.000439622905105,1.0,0.0,0.0,0.0,1.0,0.0,0.0,0.0,1.0,0.186461152881,0.113658732735,9.27677657604,0.1,0.0,0.0,0.0,0.1,0.0,0.0,0.0,0.1
1505402118962532660,16887,1505402118962289091,ardrone_base_link,-0.0213698051637,-0.00755214697941,-0.905546519283,0.423641119249,1.0,0.0,0.0,0.0,1.0,0.0,0.0,0.0,100000.0,0.000767454504967,-4.11160290241e-05,0.000114289119665,1.0,0.0,0.0,0.0,1.0,0.0,0.0,0.0,1.0,0.186467395723,0.113608516194,9.27995889187,0.1,0.0,0.0,0.0,0.1,0.0,0.0,0.0,0.1
1505402118968719259,16888,1505402118968482722,ardrone_base_link,-0.0213739441131,-0.007563931994,-0.905542616423,0.42364904259,1.0,0.0,0.0,0.0,1.0,0.0,0.0,0.0,100000.0,0.00080531463027,0.000610545277596,0.000738586764783,1.0,0.0,0.0,0.0,1.0,0.0,0.0,0.0,1.0,0.186062907055,0.113786838762,9.29088788033,0.1,0.0,0.0,0.0,0.1,0.0,0.0,0.0,0.1
1505402118975962026,16889,1505402118975771116,ardrone_base_link,-0.0213739441131,-0.007563931994,-0.905542616423,0.42364904259,1.0,0.0,0.0,0.0,1.0,0.0,0.0,0.0,100000.0,0.00120789557695,0.000284876674414,0.000520632835105,1.0,0.0,0.0,0.0,1.0,0.0,0.0,0.0,1.0,0.185842363164,0.113754447177,9.28524172306,0.1,0.0,0.0,0.0,0.1,0.0,0.0,0.0,0.1
1505402118977525838,16890,1505402118977335896,ardrone_base_link,-0.0213738776371,-0.00756411983735,-0.905538893174,0.423657000881,1.0,0.0,0.0,0.0,1.0,0.0,0.0,0.0,100000.0,0.000460240989923,0.000332315452397,0.000740957038943,1.0,0.0,0.0,0.0,1.0,0.0,0.0,0.0,1.0,0.185436687991,0.113793729618,9.28557175398,0.1,0.0,0.0,0.0,0.1,0.0,0.0,0.0,0.1
1505402118983775530,16891,1505402118983378735,ardrone_base_link,-0.0213738121667,-0.00756430483403,-0.905535226269,0.42366483856,1.0,0.0,0.0,0.0,1.0,0.0,0.0,0.0,100000.0,6.42500817776e-05,-0.000493135303259,0.00132095324807,1.0,0.0,0.0,0.0,1.0,0.0,0.0,0.0,1.0,0.170017617941,0.113628212176,9.28288711309,0.1,0.0,0.0,0.0,0.1,0.0,0.0,0.0,0.1
1505402118987810332,16892,1505402118987537506,ardrone_base_link,-0.0213737456874,-0.00756449267622,-0.90553150288,0.423672796787,1.0,0.0,0.0,0.0,1.0,0.0,0.0,0.0,100000.0,-0.000252481549978,-8.86404886842e-05,0.000852329656482,1.0,0.0,0.0,0.0,1.0,0.0,0.0,0.0,1.0,0.166541815549,0.11349334307,9.28254773617,0.1,0.0,0.0,0.0,0.1,0.0,0.0,0.0,0.1
1505402118992577359,16893,1505402118992382772,ardrone_base_link,-0.0213736792065,-0.00756468051783,-0.905527779422,0.423680754981,1.0,0.0,0.0,0.0,1.0,0.0,0.0,0.0,100000.0,-0.000442314893007,-0.000436908565462,0.00127424066886,1.0,0.0,0.0,0.0,1.0,0.0,0.0,0.0,1.0,0.150542818382,0.113371899724,9.28583986759,0.1,0.0,0.0,0.0,0.1,0.0,0.0,0.0,0.1
1505402118997278322,16894,1505402118997162245,ardrone_base_link,-0.0213699819372,-0.00757258264483,-0.905527713374,0.423680941483,1.0,0.0,0.0,0.0,1.0,0.0,0.0,0.0,100000.0,0.000418443232775,-0.000362205319107,0.000267665833235,1.0,0.0,0.0,0.0,1.0,0.0,0.0,0.0,1.0,0.168900897726,0.113427692838,9.28436086178,0.1,0.0,0.0,0.0,0.1,0.0,0.0,0.0,0.1
1505402119003288828,16895,1505402119002960651,ardrone_base_link,-0.0213778176494,-0.00757646550994,-0.905523876015,0.423688678217,1.0,0.0,0.0,0.0,1.0,0.0,0.0,0.0,100000.0,5.78723847866e-05,-0.000244199298322,-1.65994279087e-05,1.0,0.0,0.0,0.0,1.0,0.0,0.0,0.0,1.0,0.179798909277,0.113603313826,9.28506940603,0.1,0.0,0.0,0.0,0.1,0.0,0.0,0.0,0.1
1505402119009606880,16896,1505402119009422857,ardrone_base_link,-0.0213778176494,-0.00757646550994,-0.905523876015,0.423688678217,1.0,0.0,0.0,0.0,1.0,0.0,0.0,0.0,100000.0,0.00058988109231,-0.000345324195223,-0.000406069448218,1.0,0.0,0.0,0.0,1.0,0.0,0.0,0.0,1.0,0.17688594833,0.113755679317,9.28430361748,0.1,0.0,0.0,0.0,0.1,0.0,0.0,0.0,0.1
1505402119012579594,16897,1505402119012404114,ardrone_base_link,-0.0213778176494,-0.00757646550994,-0.905523876015,0.423688678217,1.0,0.0,0.0,0.0,1.0,0.0,0.0,0.0,100000.0,0.000307217240334,0.000189609825611,-0.00130344624631,1.0,0.0,0.0,0.0,1.0,0.0,0.0,0.0,1.0,0.179719249159,0.113920566998,9.28385851383,0.1,0.0,0.0,0.0,0.1,0.0,0.0,0.0,0.1
1505402119017614025,16898,1505402119017433710,ardrone_base_link,-0.0213740535453,-0.00758455568329,-0.905520086263,0.423696822887,1.0,0.0,0.0,0.0,1.0,0.0,0.0,0.0,100000.0,0.00113310664892,-0.000197656452656,-0.000365050858818,1.0,0.0,0.0,0.0,1.0,0.0,0.0,0.0,1.0,0.129153802991,0.113763546757,9.28459100723,0.1,0.0,0.0,0.0,0.1,0.0,0.0,0.0,0.1
1505402119024629471,16899,1505402119024447665,ardrone_base_link,-0.0213740535453,-0.00758455568329,-0.905520086263,0.423696822887,1.0,0.0,0.0,0.0,1.0,0.0,0.0,0.0,100000.0,0.00175705552101,-0.000126847065985,-0.000118215102702,1.0,0.0,0.0,0.0,1.0,0.0,0.0,0.0,1.0,0.152405713312,0.113826741837,9.28418387175,0.1,0.0,0.0,0.0,0.1,0.0,0.0,0.0,0.1
1505402119031961973,16900,1505402119031738721,ardrone_base_link,-0.0213623892271,-0.00758894467232,-0.905516523099,0.423704947622,1.0,0.0,0.0,0.0,1.0,0.0,0.0,0.0,100000.0,0.00160099938512,-0.000245611183345,0.00167102832347,1.0,0.0,0.0,0.0,1.0,0.0,0.0,0.0,1.0,0.136924735084,0.113605933264,9.28442803621,0.1,0.0,0.0,0.0,0.1,0.0,0.0,0.0,0.1
1505402119034619674,16901,1505402119034267778,ardrone_base_link,-0.0213623225313,-0.00758913241413,-0.905512799359,0.423712905684,1.0,0.0,0.0,0.0,1.0,0.0,0.0,0.0,100000.0,0.00106384605169,1.67852267623e-05,0.00183718558401,1.0,0.0,0.0,0.0,1.0,0.0,0.0,0.0,1.0,0.164399516955,0.11348084826,9.2844186902,0.1,0.0,0.0,0.0,0.1,0.0,0.0,0.0,0.1
1505402119037621889,16902,1505402119037405309,ardrone_base_link,-0.0213622568444,-0.00758931731079,-0.90550913197,0.423720743137,1.0,0.0,0.0,0.0,1.0,0.0,0.0,0.0,100000.0,-0.000591047108173,0.000203942894586,0.000711467117071,1.0,0.0,0.0,0.0,1.0,0.0,0.0,0.0,1.0,0.161556194723,0.113136643171,9.28418387175,0.1,0.0,0.0,0.0,0.1,0.0,0.0,0.0,0.1
1505402119043529123,16903,1505402119043254621,ardrone_base_link,-0.0213622568444,-0.00758931731079,-0.90550913197,0.423720743137,1.0,0.0,0.0,0.0,1.0,0.0,0.0,0.0,100000.0,-0.000989776104689,-0.00012962333858,-0.000353960786015,1.0,0.0,0.0,0.0,1.0,0.0,0.0,0.0,1.0,0.131563019566,0.11269846689,9.28430361748,0.1,0.0,0.0,0.0,0.1,0.0,0.0,0.0,0.1
1505402119047629653,16904,1505402119047466691,ardrone_base_link,-0.0213622568444,-0.00758931731079,-0.90550913197,0.423720743137,1.0,0.0,0.0,0.0,1.0,0.0,0.0,0.0,100000.0,-0.000742122530937,-0.00063784327358,-0.00175399146974,1.0,0.0,0.0,0.0,1.0,0.0,0.0,0.0,1.0,0.151434568129,0.112670127675,9.28424637318,0.1,0.0,0.0,0.0,0.1,0.0,0.0,0.0,0.1
1505402119052795243,16905,1505402119052613101,ardrone_base_link,-0.0213621901453,-0.00758950505143,-0.90550540809,0.423728701135,1.0,0.0,0.0,0.0,1.0,0.0,0.0,0.0,100000.0,2.94111669064e-05,-0.00105443410575,-0.00132769532502,1.0,0.0,0.0,0.0,1.0,0.0,0.0,0.0,1.0,0.146548230387,0.112819910236,9.28434684277,0.1,0.0,0.0,0.0,0.1,0.0,0.0,0.0,0.1
1505402119058008578,16906,1505402119057839774,ardrone_base_link,-0.0213621901453,-0.00758950505143,-0.90550540809,0.423728701135,1.0,0.0,0.0,0.0,1.0,0.0,0.0,0.0,100000.0,0.00116680562496,-0.000505256466568,-0.000532382167876,1.0,0.0,0.0,0.0,1.0,0.0,0.0,0.0,1.0,0.193672200665,0.113492904976,9.28462897539,0.1,0.0,0.0,0.0,0.1,0.0,0.0,0.0,0.1
1505402119062849496,16907,1505402119062578669,ardrone_base_link,-0.0213700912414,-0.00759320329571,-0.905505237783,0.423728600416,1.0,0.0,0.0,0.0,1.0,0.0,0.0,0.0,100000.0,0.000108741231088,8.43536108732e-05,-0.000377397518605,1.0,0.0,0.0,0.0,1.0,0.0,0.0,0.0,1.0,0.200188212097,0.114068825357,9.28459100723,0.1,0.0,0.0,0.0,0.1,0.0,0.0,0.0,0.1
1505402119067779182,16908,1505402119067554270,ardrone_base_link,-0.0213700255192,-0.0075933882596,-0.905501570259,0.423736437804,1.0,0.0,0.0,0.0,1.0,0.0,0.0,0.0,100000.0,-1.09486281872e-05,0.000519876368344,0.000243842136115,1.0,0.0,0.0,0.0,1.0,0.0,0.0,0.0,1.0,0.194223487377,0.114463639446,9.28465759754,0.1,0.0,0.0,0.0,0.1,0.0,0.0,0.0,0.1
1505402119074627452,16909,1505402119074499495,ardrone_base_link,-0.0213700255192,-0.0075933882596,-0.905501570259,0.423736437804,1.0,0.0,0.0,0.0,1.0,0.0,0.0,0.0,100000.0,-0.00140708684921,0.000229672528803,-0.000992171932012,1.0,0.0,0.0,0.0,1.0,0.0,0.0,0.0,1.0,0.18602267541,0.114581924863,9.2845285058,0.1,0.0,0.0,0.0,0.1,0.0,0.0,0.0,0.1
1505402119077883403,16910,1505402119077610099,ardrone_base_link,-0.0213779284656,-0.0075970874535,-0.905501399844,0.423736337028,1.0,0.0,0.0,0.0,1.0,0.0,0.0,0.0,100000.0,-0.000995729118586,-0.000612833537161,-0.000891062663868,1.0,0.0,0.0,0.0,1.0,0.0,0.0,0.0,1.0,0.174302707985,0.114453015663,9.28449053764,0.1,0.0,0.0,0.0,0.1,0.0,0.0,0.0,0.1
1505402119084439780,16911,1505402119084056278,ardrone_base_link,-0.0213778616982,-0.00759727533187,-0.905497675827,0.423744294958,1.0,0.0,0.0,0.0,1.0,0.0,0.0,0.0,100000.0,-0.000576667487621,-0.000385337509215,-0.00125993648544,1.0,0.0,0.0,0.0,1.0,0.0,0.0,0.0,1.0,0.183422166854,0.114332393743,9.28455712795,0.1,0.0,0.0,0.0,0.1,0.0,0.0,0.0,0.1
1505402119090452203,16912,1505402119090248718,ardrone_base_link,-0.0213857627265,-0.00760097371282,-0.905497505384,0.423744194172,1.0,0.0,0.0,0.0,1.0,0.0,0.0,0.0,100000.0,-0.000329565285938,-0.000531325116754,-0.000228400807828,1.0,0.0,0.0,0.0,1.0,0.0,0.0,0.0,1.0,0.189824036509,0.1142374916,9.28456238508,0.1,0.0,0.0,0.0,0.1,0.0,0.0,0.0,0.1
1505402119095743380,16913,1505402119095411051,ardrone_base_link,-0.0213856969371,-0.00760115881236,-0.905493837724,0.423752031493,1.0,0.0,0.0,0.0,1.0,0.0,0.0,0.0,100000.0,0.000211074948311,3.95970419049e-05,0.000870655057952,1.0,0.0,0.0,0.0,1.0,0.0,0.0,0.0,1.0,0.186790216342,0.114170527086,9.28457640409,0.1,0.0,0.0,0.0,0.1,0.0,0.0,0.0,0.1
1505402119097969379,16914,1505402119097729649,ardrone_base_link,-0.0213856301339,-0.007601346759,-0.90549011357,0.423759989356,1.0,0.0,0.0,0.0,1.0,0.0,0.0,0.0,100000.0,-0.000168316066265,-0.000115304253995,0.00136986281723,1.0,0.0,0.0,0.0,1.0,0.0,0.0,0.0,1.0,0.187938388065,0.114140636288,9.28456238508,0.1,0.0,0.0,0.0,0.1,0.0,0.0,0.0,0.1
1505402119103048522,16915,1505402119102843953,ardrone_base_link,-0.0213934652715,-0.00760523044397,-0.905486275264,0.42376772579,1.0,0.0,0.0,0.0,1.0,0.0,0.0,0.0,100000.0,0.000451356172562,-0.000529712997377,0.00105174514465,1.0,0.0,0.0,0.0,1.0,0.0,0.0,0.0,1.0,0.182949755341,0.114031204022,9.28453317881,0.1,0.0,0.0,0.0,0.1,0.0,0.0,0.0,0.1
1505402119108572476,16916,1505402119108364637,ardrone_base_link,-0.0213897671882,-0.00761313232652,-0.905486208862,0.423767912468,1.0,0.0,0.0,0.0,1.0,0.0,0.0,0.0,100000.0,0.000767104327679,0.000330029055476,0.000117372022942,1.0,0.0,0.0,0.0,1.0,0.0,0.0,0.0,1.0,0.184917601198,0.113875370286,9.28455712795,0.1,0.0,0.0,0.0,0.1,0.0,0.0,0.0,0.1
1505402119113119900,16917,1505402119112915338,ardrone_base_link,-0.0213897002798,-0.00761332030894,-0.905482484567,0.423775870264,1.0,0.0,0.0,0.0,1.0,0.0,0.0,0.0,100000.0,0.00144870206714,0.000211308710277,-0.000218122033402,1.0,0.0,0.0,0.0,1.0,0.0,0.0,0.0,1.0,0.186471137777,0.113652900606,9.28455245495,0.1,0.0,0.0,0.0,0.1,0.0,0.0,0.0,0.1
1505402119121194288,16918,1505402119121022531,ardrone_base_link,-0.0213860021254,-0.00762122215841,-0.905482418094,0.423776056908,1.0,0.0,0.0,0.0,1.0,0.0,0.0,0.0,100000.0,0.00179901346564,0.00106801930815,-0.000475551001728,1.0,0.0,0.0,0.0,1.0,0.0,0.0,0.0,1.0,0.185593379661,0.113377275504,9.28456238508,0.1,0.0,0.0,0.0,0.1,0.0,0.0,0.0,0.1
1505402119127337563,16919,1505402119127132265,ardrone_base_link,-0.0213939049071,-0.00762492169276,-0.905482247412,0.423775956166,1.0,0.0,0.0,0.0,1.0,0.0,0.0,0.0,100000.0,0.00142372399569,-0.000144894234836,-7.99324479885e-05,1.0,0.0,0.0,0.0,1.0,0.0,0.0,0.0,1.0,0.186640296876,0.113083432987,9.28455712795,0.1,0.0,0.0,0.0,0.1,0.0,0.0,0.0,0.1
1505402119128430513,16920,1505402119128119929,ardrone_base_link,-0.0213938378951,-0.00762510971154,-0.905478523047,0.423783913927,1.0,0.0,0.0,0.0,1.0,0.0,0.0,0.0,100000.0,0.000657588243484,-0.00104948040098,-0.000299279228784,1.0,0.0,0.0,0.0,1.0,0.0,0.0,0.0,1.0,0.185081211105,0.112767968699,9.28455245495,0.1,0.0,0.0,0.0,0.1,0.0,0.0,0.0,0.1
1505402119133292466,16921,1505402119133084452,ardrone_base_link,-0.0214017387587,-0.00762880843285,-0.905478352337,0.423783813175,1.0,0.0,0.0,0.0,1.0,0.0,0.0,0.0,100000.0,-0.000554170459509,-0.00108835753053,-8.3455699496e-05,1.0,0.0,0.0,0.0,1.0,0.0,0.0,0.0,1.0,0.185637499392,0.112506435625,9.28455245495,0.1,0.0,0.0,0.0,0.1,0.0,0.0,0.0,0.1
1505402119138680183,16922,1505402119138543945,ardrone_base_link,-0.0214095735584,-0.00763269245978,-0.905474513557,0.423791549544,1.0,0.0,0.0,0.0,1.0,0.0,0.0,0.0,100000.0,-0.000904075801373,-0.00141736399382,-2.15248437598e-05,1.0,0.0,0.0,0.0,1.0,0.0,0.0,0.0,1.0,0.186126668006,0.112386060134,9.28455712795,0.1,0.0,0.0,0.0,0.1,0.0,0.0,0.0,0.1
1505402119143209810,16923,1505402119142977259,ardrone_base_link,-0.0214095735584,-0.00763269245978,-0.905474513557,0.423791549544,1.0,0.0,0.0,0.0,1.0,0.0,0.0,0.0,100000.0,-0.00125360861421,0.000453351996839,-0.000141819997225,1.0,0.0,0.0,0.0,1.0,0.0,0.0,0.0,1.0,0.185675850883,0.112510615773,9.28455245495,0.1,0.0,0.0,0.0,0.1,0.0,0.0,0.0,0.1
1505402119148188734,16924,1505402119148016526,ardrone_base_link,-0.0214095064781,-0.00763288061626,-0.905470789055,0.423799507237,1.0,0.0,0.0,0.0,1.0,0.0,0.0,0.0,100000.0,-0.000626944005489,-4.86690587422e-05,-0.000203229370527,1.0,0.0,0.0,0.0,1.0,0.0,0.0,0.0,1.0,0.185950809717,0.112935649231,9.28455712795,0.1,0.0,0.0,0.0,0.1,0.0,0.0,0.0,0.1
1505402119153584754,16925,1505402119153484308,ardrone_base_link,-0.0214211075159,-0.00762867860966,-0.905470684776,0.423799219475,1.0,0.0,0.0,0.0,1.0,0.0,0.0,0.0,100000.0,-0.00087833404541,0.000572754070163,-0.000552570039872,1.0,0.0,0.0,0.0,1.0,0.0,0.0,0.0,1.0,0.185166548193,0.0985815221444,9.2846336484,0.1,0.0,0.0,0.0,0.1,0.0,0.0,0.0,0.1
1505402119158213711,16926,1505402119158068771,ardrone_base_link,-0.0214210414868,-0.00762886401512,-0.90546701664,0.423807056564,1.0,0.0,0.0,0.0,1.0,0.0,0.0,0.0,100000.0,-0.000398725271225,-7.09760934114e-05,-0.000297094346024,1.0,0.0,0.0,0.0,1.0,0.0,0.0,0.0,1.0,0.185149699822,0.0808996045962,9.28471542597,0.1,0.0,0.0,0.0,0.1,0.0,0.0,0.0,0.1
1505402119163665925,16927,1505402119163299588,ardrone_base_link,-0.0214247399116,-0.00762096230005,-0.90546708318,0.423806869613,1.0,0.0,0.0,0.0,1.0,0.0,0.0,0.0,100000.0,-0.000221025198698,-0.000461804680526,0.000345798092894,1.0,0.0,0.0,0.0,1.0,0.0,0.0,0.0,1.0,0.185350182652,0.0623874530196,9.28481122255,0.1,0.0,0.0,0.0,0.1,0.0,0.0,0.0,0.1
1505402119168465873,16928,1505402119168265976,ardrone_base_link,-0.0214362720991,-0.00761694802409,-0.905463254199,0.423814539199,1.0,0.0,0.0,0.0,1.0,0.0,0.0,0.0,100000.0,0.00033857676317,7.24829733372e-05,0.000568296294659,1.0,0.0,0.0,0.0,1.0,0.0,0.0,0.0,1.0,0.185415020585,0.0499548889697,9.28488248587,0.1,0.0,0.0,0.0,0.1,0.0,0.0,0.0,0.1
1505402119176142939,16929,1505402119175948947,ardrone_base_link,-0.0214362061714,-0.0076171335608,-0.90545958593,0.423822376224,1.0,0.0,0.0,0.0,1.0,0.0,0.0,0.0,100000.0,0.0010220259428,-0.000329934991896,0.000729111314286,1.0,0.0,0.0,0.0,1.0,0.0,0.0,0.0,1.0,0.185832195729,0.0752273168415,9.28474404812,0.1,0.0,0.0,0.0,0.1,0.0,0.0,0.0,0.1
1505402119179127901,16930,1505402119178949201,ardrone_base_link,-0.0214399047851,-0.00760923179283,-0.905459652369,0.423822189138,1.0,0.0,0.0,0.0,1.0,0.0,0.0,0.0,100000.0,0.000446870923042,0.000267550349236,0.000217286054976,1.0,0.0,0.0,0.0,1.0,0.0,0.0,0.0,1.0,0.170595737919,0.0819662725553,9.28461962938,0.1,0.0,0.0,0.0,0.1,0.0,0.0,0.0,0.1
1505402119186875426,16931,1505402119186574922,ardrone_base_link,-0.0214361392279,-0.00761732195134,-0.905455861157,0.423830333786,1.0,0.0,0.0,0.0,1.0,0.0,0.0,0.0,100000.0,0.000635251402855,-0.000114171765745,-0.000282691791654,1.0,0.0,0.0,0.0,1.0,0.0,0.0,0.0,1.0,0.151952295005,0.117567892373,9.28429427147,0.1,0.0,0.0,0.0,0.1,0.0,0.0,0.0,0.1
1505402119188517910,16932,1505402119188342961,ardrone_base_link,-0.0214282385654,-0.00761362281384,-0.905456031972,0.423830434851,1.0,0.0,0.0,0.0,1.0,0.0,0.0,0.0,100000.0,-0.000622093677521,-0.000141643919051,-0.000209114630707,1.0,0.0,0.0,0.0,1.0,0.0,0.0,0.0,1.0,0.117350725457,0.114615840651,9.28408340216,0.1,0.0,0.0,0.0,0.1,0.0,0.0,0.0,0.1
1505402119198786635,16933,1505402119198589369,ardrone_base_link,-0.0214202701505,-0.00761010819253,-0.905452534351,0.423838372871,1.0,0.0,0.0,0.0,1.0,0.0,0.0,0.0,100000.0,-0.000112108886242,-9.27038490772e-06,-0.000373479968403,1.0,0.0,0.0,0.0,1.0,0.0,0.0,0.0,1.0,0.100821114145,0.115293371491,9.28395431042,0.1,0.0,0.0,0.0,0.1,0.0,0.0,0.0,0.1
1505402119202270658,16934,1505402119202049609,ardrone_base_link,-0.0214123695168,-0.00760640898549,-0.905452705026,0.423838473872,1.0,0.0,0.0,0.0,1.0,0.0,0.0,0.0,100000.0,-0.000201713293791,-0.000183422118425,4.27570194006e-05,1.0,0.0,0.0,0.0,1.0,0.0,0.0,0.0,1.0,0.0952950403094,0.118994810618,9.28390173912,0.1,0.0,0.0,0.0,0.1,0.0,0.0,0.0,0.1
1505402119203993628,16935,1505402119203780881,ardrone_base_link,-0.0214044020646,-0.00760289788949,-0.905449150718,0.423846532344,1.0,0.0,0.0,0.0,1.0,0.0,0.0,0.0,100000.0,0.000137131661177,5.05028292537e-05,0.000174055414391,1.0,0.0,0.0,0.0,1.0,0.0,0.0,0.0,1.0,0.101971211657,0.10148586724,9.28402615786,0.1,0.0,0.0,0.0,0.1,0.0,0.0,0.0,0.1
1505402119209886964,16936,1505402119209677142,ardrone_base_link,-0.0213964995762,-0.00759919772982,-0.905449321295,0.423846633307,1.0,0.0,0.0,0.0,1.0,0.0,0.0,0.0,100000.0,0.000473417341709,-0.000284758396447,0.000387809006497,1.0,0.0,0.0,0.0,1.0,0.0,0.0,0.0,1.0,0.11489778161,0.120460983925,9.28403083086,0.1,0.0,0.0,0.0,0.1,0.0,0.0,0.0,0.1
1505402119213633345,16937,1505402119213485080,ardrone_base_link,-0.0213885332281,-0.0075956835757,-0.905445823216,0.423854571119,1.0,0.0,0.0,0.0,1.0,0.0,0.0,0.0,100000.0,-0.000361073762178,-0.000562963075936,0.000791916740127,1.0,0.0,0.0,0.0,1.0,0.0,0.0,0.0,1.0,0.108599402569,0.10553918723,9.28405478001,0.1,0.0,0.0,0.0,0.1,0.0,0.0,0.0,0.1
1505402119226878855,16938,1505402119226639352,ardrone_base_link,-0.0213805659298,-0.00759217213066,-0.905442268557,0.423862629437,1.0,0.0,0.0,0.0,1.0,0.0,0.0,0.0,100000.0,-0.000195596367121,-0.000538487918675,0.000659910030663,1.0,0.0,0.0,0.0,1.0,0.0,0.0,0.0,1.0,0.102236076072,0.11482380759,9.30233440399,0.1,0.0,0.0,0.0,0.1,0.0,0.0,0.0,0.1
1505402119232275986,16939,1505402119232033138,ardrone_base_link,-0.0213688988943,-0.00759655816782,-0.905438703983,0.423870753643,1.0,0.0,0.0,0.0,1.0,0.0,0.0,0.0,100000.0,0.000836037157569,0.000334528274834,9.87674575299e-05,1.0,0.0,0.0,0.0,1.0,0.0,0.0,0.0,1.0,0.121129360422,0.111031299643,9.31818757057,0.1,0.0,0.0,0.0,0.1,0.0,0.0,0.0,0.1
1505402119233988906,16940,1505402119233762102,ardrone_base_link,-0.0213609316488,-0.00759304641275,-0.905435149075,0.423878811767,1.0,0.0,0.0,0.0,1.0,0.0,0.0,0.0,100000.0,0.00153260305524,0.000634212046862,0.000201727263629,1.0,0.0,0.0,0.0,1.0,0.0,0.0,0.0,1.0,0.142107041925,0.117301102169,9.31535456181,0.1,0.0,0.0,0.0,0.1,0.0,0.0,0.0,0.1
1505402119242403647,16941,1505402119242153244,ardrone_base_link,-0.0213572325961,-0.00760094784915,-0.905435082778,0.423878998161,1.0,0.0,0.0,0.0,1.0,0.0,0.0,0.0,100000.0,0.00147490948439,0.00161702651531,0.000123640755191,1.0,0.0,0.0,0.0,1.0,0.0,0.0,0.0,1.0,0.175506097823,0.112075706944,9.32327880859,0.1,0.0,0.0,0.0,0.1,0.0,0.0,0.0,0.1
1505402119244209562,16942,1505402119243905283,ardrone_base_link,-0.0213571668069,-0.00760113270175,-0.905431413952,0.423886834942,1.0,0.0,0.0,0.0,1.0,0.0,0.0,0.0,100000.0,0.00135182216763,0.00181438680738,-0.0001252082875,1.0,0.0,0.0,0.0,1.0,0.0,0.0,0.0,1.0,0.193583468348,0.115725834295,9.33038002253,0.1,0.0,0.0,0.0,0.1,0.0,0.0,0.0,0.1
1505402119250067469,16943,1505402119249761131,ardrone_base_link,-0.0213571668069,-0.00760113270175,-0.905431413952,0.423886834942,1.0,0.0,0.0,0.0,1.0,0.0,0.0,0.0,100000.0,0.000189829617739,0.00190155673772,-0.000445852987468,1.0,0.0,0.0,0.0,1.0,0.0,0.0,0.0,1.0,0.19668767564,0.114831802808,9.32197737694,0.1,0.0,0.0,0.0,0.1,0.0,0.0,0.0,0.1
1505402119254139500,16944,1505402119253995443,ardrone_base_link,-0.0213571668069,-0.00760113270175,-0.905431413952,0.423886834942,1.0,0.0,0.0,0.0,1.0,0.0,0.0,0.0,100000.0,0.000254761427641,0.00152762234211,-0.000909339403734,1.0,0.0,0.0,0.0,1.0,0.0,0.0,0.0,1.0,0.191066982597,0.112474199198,9.312335217,0.1,0.0,0.0,0.0,0.1,0.0,0.0,0.0,0.1
1505402119262596039,16945,1505402119262196783,ardrone_base_link,-0.021357100004,-0.00760132039765,-0.905427688612,0.423894792256,1.0,0.0,0.0,0.0,1.0,0.0,0.0,0.0,100000.0,-0.000627160072327,0.000448435544968,-0.000916711520404,1.0,0.0,0.0,0.0,1.0,0.0,0.0,0.0,1.0,0.179120739549,0.114016546123,9.28118847609,0.1,0.0,0.0,0.0,0.1,0.0,0.0,0.0,0.1
1505402119264763227,16946,1505402119264606496,ardrone_base_link,-0.021357100004,-0.00760132039765,-0.905427688612,0.423894792256,1.0,0.0,0.0,0.0,1.0,0.0,0.0,0.0,100000.0,-0.000375736504793,0.000180778108188,-0.000195263652131,1.0,0.0,0.0,0.0,1.0,0.0,0.0,0.0,1.0,0.185233156756,0.111687811092,9.2732642293,0.1,0.0,0.0,0.0,0.1,0.0,0.0,0.0,0.1
1505402119268962744,16947,1505402119268786256,ardrone_base_link,-0.0213650004232,-0.00760502008807,-0.905427518292,0.423894691576,1.0,0.0,0.0,0.0,1.0,0.0,0.0,0.0,100000.0,-0.00109113007784,-0.00049124006182,-0.000280007719994,1.0,0.0,0.0,0.0,1.0,0.0,0.0,0.0,1.0,0.184109116718,0.113108860701,9.27421168089,0.1,0.0,0.0,0.0,0.1,0.0,0.0,0.0,0.1
1505402119274804727,16948,1505402119274567973,ardrone_base_link,-0.0213649335861,-0.00760520785282,-0.905423792884,0.423902648856,1.0,0.0,0.0,0.0,1.0,0.0,0.0,0.0,100000.0,-0.00079532340169,-0.000158634036779,0.000640808371827,1.0,0.0,0.0,0.0,1.0,0.0,0.0,0.0,1.0,0.191428830102,0.113681595773,9.28636149168,0.1,0.0,0.0,0.0,0.1,0.0,0.0,0.0,0.1
1505402119279027860,16949,1505402119278908935,ardrone_base_link,-0.0213648677601,-0.00760539277208,-0.905420123852,0.423910485539,1.0,0.0,0.0,0.0,1.0,0.0,0.0,0.0,100000.0,-0.000149741768837,-8.64369794726e-05,-7.1583839599e-05,1.0,0.0,0.0,0.0,1.0,0.0,0.0,0.0,1.0,0.187474920973,0.11355602704,9.29192178249,0.1,0.0,0.0,0.0,0.1,0.0,0.0,0.0,0.1
1505402119284484434,16950,1505402119284258933,ardrone_base_link,-0.0213727699968,-0.0076090934819,-0.905419953424,0.423910384799,1.0,0.0,0.0,0.0,1.0,0.0,0.0,0.0,100000.0,0.000721376389265,3.44682484865e-05,0.00026061286917,1.0,0.0,0.0,0.0,1.0,0.0,0.0,0.0,1.0,0.184710930288,0.114674618281,9.27254633904,0.1,0.0,0.0,0.0,0.1,0.0,0.0,0.0,0.1
1505402119292949794,16951,1505402119292804646,ardrone_base_link,-0.0213690037263,-0.00761718258621,-0.90541616144,0.423918528509,1.0,0.0,0.0,0.0,1.0,0.0,0.0,0.0,100000.0,0.00164324045181,0.000461414456367,0.000159963557962,1.0,0.0,0.0,0.0,1.0,0.0,0.0,0.0,1.0,0.18511720784,0.113834928721,9.24789799452,0.1,0.0,0.0,0.0,0.1,0.0,0.0,0.0,0.1
1505402119294023042,16952,1505402119293876471,ardrone_base_link,-0.0213690037263,-0.00761718258621,-0.90541616144,0.423918528509,1.0,0.0,0.0,0.0,1.0,0.0,0.0,0.0,100000.0,0.00141125905793,0.000382312573493,-0.00030275050085,1.0,0.0,0.0,0.0,1.0,0.0,0.0,0.0,1.0,0.183400170878,0.113800218888,9.21534935236,0.1,0.0,0.0,0.0,0.1,0.0,0.0,0.0,0.1
1505402119304730463,16953,1505402119304374322,ardrone_base_link,-0.0213652383289,-0.00762526877937,-0.905412425762,0.423926551589,1.0,0.0,0.0,0.0,1.0,0.0,0.0,0.0,100000.0,0.000856589525938,0.000628191977739,0.000634325959254,1.0,0.0,0.0,0.0,1.0,0.0,0.0,0.0,1.0,0.185543728992,0.113576763496,9.21508649588,0.1,0.0,0.0,0.0,0.1,0.0,0.0,0.0,0.1
1505402119316390993,16954,1505402119316049613,ardrone_base_link,-0.0213731386175,-0.00762896874127,-0.905412255243,0.423926450976,1.0,0.0,0.0,0.0,1.0,0.0,0.0,0.0,100000.0,-8.54954123497e-06,9.74964350462e-05,-7.93824438006e-06,1.0,0.0,0.0,0.0,1.0,0.0,0.0,0.0,1.0,0.184827755392,0.112999875657,9.23056173325,0.1,0.0,0.0,0.0,0.1,0.0,0.0,0.0,0.1
1505402119316399309,16955,1505402119316078991,ardrone_base_link,-0.02137307157,-0.00762915657755,-0.905408529556,0.423934408122,1.0,0.0,0.0,0.0,1.0,0.0,0.0,0.0,100000.0,-0.000424146652222,-0.000157081522048,0.000588315306231,1.0,0.0,0.0,0.0,1.0,0.0,0.0,0.0,1.0,0.184463534877,0.113369846158,9.270675385,0.1,0.0,0.0,0.0,0.1,0.0,0.0,0.0,0.1
1505402119316403178,16956,1505402119316093157,ardrone_base_link,-0.0213730055367,-0.00762934156724,-0.905404860249,0.423942244673,1.0,0.0,0.0,0.0,1.0,0.0,0.0,0.0,100000.0,-0.000435370951891,0.000244465656579,-0.000235835555941,1.0,0.0,0.0,0.0,1.0,0.0,0.0,0.0,1.0,0.185257817805,0.112988777272,9.29805626869,0.1,0.0,0.0,0.0,0.1,0.0,0.0,0.0,0.1
1505402119319054909,16957,1505402119318729822,ardrone_base_link,-0.0213809057591,-0.00763304166637,-0.905404689663,0.423942144025,1.0,0.0,0.0,0.0,1.0,0.0,0.0,0.0,100000.0,0.000386547297239,0.000451503321528,-0.000877687591128,1.0,0.0,0.0,0.0,1.0,0.0,0.0,0.0,1.0,0.184970720112,0.0978735985234,9.29762576818,0.1,0.0,0.0,0.0,0.1,0.0,0.0,0.0,0.1
1505402119324339690,16958,1505402119324096771,ardrone_base_link,-0.0213846053629,-0.00762514049521,-0.90540475624,0.423941957424,1.0,0.0,0.0,0.0,1.0,0.0,0.0,0.0,100000.0,0.00072742626071,0.00135258783121,-0.000436611648183,1.0,0.0,0.0,0.0,1.0,0.0,0.0,0.0,1.0,0.18608764112,0.079522912018,9.29299832582,0.1,0.0,0.0,0.0,0.1,0.0,0.0,0.0,0.1
1505402119331292661,16959,1505402119331159731,ardrone_base_link,-0.021384538349,-0.00762532843225,-0.905401030416,0.423949914504,1.0,0.0,0.0,0.0,1.0,0.0,0.0,0.0,100000.0,0.00144468992949,0.000365059822798,-0.000294785364531,1.0,0.0,0.0,0.0,1.0,0.0,0.0,0.0,1.0,0.186139591783,0.06030777907,9.27285767794,0.1,0.0,0.0,0.0,0.1,0.0,0.0,0.0,0.1
1505402119335400673,16960,1505402119335280627,ardrone_base_link,-0.0213881720887,-0.00761761241398,-0.905397427486,0.423957564359,1.0,0.0,0.0,0.0,1.0,0.0,0.0,0.0,100000.0,0.00100788474083,-0.000123787671328,0.00124313042033,1.0,0.0,0.0,0.0,1.0,0.0,0.0,0.0,1.0,0.186076560989,0.0632476052269,9.28267682791,0.1,0.0,0.0,0.0,0.1,0.0,0.0,0.0,0.1
1505402119345205796,16961,1505402119344730098,ardrone_base_link,-0.0213960741269,-0.00762131353559,-0.905397256857,0.423957463513,1.0,0.0,0.0,0.0,1.0,0.0,0.0,0.0,100000.0,0.00105773285031,-0.00115484558046,0.00112974364311,1.0,0.0,0.0,0.0,1.0,0.0,0.0,0.0,1.0,0.186283432692,0.0920708682388,9.28232284784,0.1,0.0,0.0,0.0,0.1,0.0,0.0,0.0,0.1
1505402119345216865,16962,1505402119344784757,ardrone_base_link,-0.0214002074594,-0.00763310295334,-0.905393293662,0.42396550644,1.0,0.0,0.0,0.0,1.0,0.0,0.0,0.0,100000.0,0.000748191028833,-0.00120364129543,0.00111707951874,1.0,0.0,0.0,0.0,1.0,0.0,0.0,0.0,1.0,0.185914959013,0.115130865946,9.28924181461,0.1,0.0,0.0,0.0,0.1,0.0,0.0,0.0,0.1
1505402119349411200,16963,1505402119349235268,ardrone_base_link,-0.0214001413919,-0.0076332881779,-0.905389624087,0.42397334286,1.0,0.0,0.0,0.0,1.0,0.0,0.0,0.0,100000.0,0.00072418153286,-0.000640246085823,0.000825841911137,1.0,0.0,0.0,0.0,1.0,0.0,0.0,0.0,1.0,0.185980928689,0.133296348155,9.28686851263,0.1,0.0,0.0,0.0,0.1,0.0,0.0,0.0,0.1
1505402119357409958,16964,1505402119357230188,ardrone_base_link,-0.0214042744153,-0.00764507770051,-0.905385660549,0.423981385789,1.0,0.0,0.0,0.0,1.0,0.0,0.0,0.0,100000.0,0.000349912792444,-0.000812652520835,0.000347451772541,1.0,0.0,0.0,0.0,1.0,0.0,0.0,0.0,1.0,0.185645695403,0.1201689668,9.28222237825,0.1,0.0,0.0,0.0,0.1,0.0,0.0,0.0,0.1
1505402119359347100,16965,1505402119359201788,ardrone_base_link,-0.0214079082588,-0.00763736198719,-0.90538205752,0.423989035338,1.0,0.0,0.0,0.0,1.0,0.0,0.0,0.0,100000.0,-0.000394620001316,-1.06366351247e-05,0.0013474188745,1.0,0.0,0.0,0.0,1.0,0.0,0.0,0.0,1.0,0.185211270303,0.109365346283,9.28434684277,0.1,0.0,0.0,0.0,0.1,0.0,0.0,0.0,0.1
1505402119364708431,16966,1505402119364441577,ardrone_base_link,-0.0214079082588,-0.00763736198719,-0.90538205752,0.423989035338,1.0,0.0,0.0,0.0,1.0,0.0,0.0,0.0,100000.0,-0.000485070049763,-0.000288378447294,0.000522578600794,1.0,0.0,0.0,0.0,1.0,0.0,0.0,0.0,1.0,0.18494483605,0.107223558798,9.28332754374,0.1,0.0,0.0,0.0,0.1,0.0,0.0,0.0,0.1
1505402119369538665,16967,1505402119369354745,ardrone_base_link,-0.0214078411374,-0.00763755012903,-0.905378331282,0.423996992219,1.0,0.0,0.0,0.0,1.0,0.0,0.0,0.0,100000.0,-0.00048091262579,0.000847587361932,0.00118281319737,1.0,0.0,0.0,0.0,1.0,0.0,0.0,0.0,1.0,0.184617798775,0.108926832303,9.28548588753,0.1,0.0,0.0,0.0,0.1,0.0,0.0,0.0,0.1
1505402119376148195,16968,1505402119376008045,ardrone_base_link,-0.0214119757019,-0.00764934070979,-0.905374367392,0.424005035055,1.0,0.0,0.0,0.0,1.0,0.0,0.0,0.0,100000.0,0.000670917332172,0.000621511600912,-0.000212794635445,1.0,0.0,0.0,0.0,1.0,0.0,0.0,0.0,1.0,0.184702259675,0.119651093893,9.28539476395,0.1,0.0,0.0,0.0,0.1,0.0,0.0,0.0,0.1
1505402119382900907,16969,1505402119382596048,ardrone_base_link,-0.0214119757019,-0.00764934070979,-0.905374367392,0.424005035055,1.0,0.0,0.0,0.0,1.0,0.0,0.0,0.0,100000.0,0.000298015773296,0.000910566188395,-0.000218229368329,1.0,0.0,0.0,0.0,1.0,0.0,0.0,0.0,1.0,0.184949563816,0.114989607967,9.28396891356,0.1,0.0,0.0,0.0,0.1,0.0,0.0,0.0,0.1
1505402119384542839,16970,1505402119384351607,ardrone_base_link,-0.0214119757019,-0.00764934070979,-0.905374367392,0.424005035055,1.0,0.0,0.0,0.0,1.0,0.0,0.0,0.0,100000.0,0.000512678176165,0.000171086750925,-0.000116723007523,1.0,0.0,0.0,0.0,1.0,0.0,0.0,0.0,1.0,0.185344998538,0.114804184623,9.29972161055,0.1,0.0,0.0,0.0,0.1,0.0,0.0,0.0,0.1
1505402119390647807,16971,1505402119390502044,ardrone_base_link,-0.0214119094939,-0.00764952603621,-0.905370697475,0.424012871311,1.0,0.0,0.0,0.0,1.0,0.0,0.0,0.0,100000.0,-0.000590231269598,1.88061985682e-05,-0.00011809089483,1.0,0.0,0.0,0.0,1.0,0.0,0.0,0.0,1.0,0.185889403522,0.113580058329,9.30242961645,0.1,0.0,0.0,0.0,0.1,0.0,0.0,0.0,0.1
1505402119394852656,16972,1505402119394741214,ardrone_base_link,-0.0214197421567,-0.00765341499952,-0.905366800105,0.424020727267,1.0,0.0,0.0,0.0,1.0,0.0,0.0,0.0,100000.0,-0.000487253069878,-4.07109037042e-05,0.000969529617578,1.0,0.0,0.0,0.0,1.0,0.0,0.0,0.0,1.0,0.186275382712,0.113016961329,9.31877111197,0.1,0.0,0.0,0.0,0.1,0.0,0.0,0.0,0.1
1505402119399444557,16973,1505402119399242994,ardrone_base_link,-0.0214197421567,-0.00765341499952,-0.905366800105,0.424020727267,1.0,0.0,0.0,0.0,1.0,0.0,0.0,0.0,100000.0,0.000159703195095,-3.35481017828e-05,0.000267480267212,1.0,0.0,0.0,0.0,1.0,0.0,0.0,0.0,1.0,0.186573962122,0.115847241133,9.30095586777,0.1,0.0,0.0,0.0,0.1,0.0,0.0,0.0,0.1
1505402119408572741,16974,1505402119408325782,ardrone_base_link,-0.0214196759134,-0.00765360039316,-0.905363130052,0.424028563456,1.0,0.0,0.0,0.0,1.0,0.0,0.0,0.0,100000.0,0.000124391168356,0.000526681542397,0.000111671164632,1.0,0.0,0.0,0.0,1.0,0.0,0.0,0.0,1.0,0.186604391411,0.114175464772,9.28981133699,0.1,0.0,0.0,0.0,0.1,0.0,0.0,0.0,0.1
1505402119409930481,16975,1505402119409729529,ardrone_base_link,-0.021415975609,-0.00766150108334,-0.905363063228,0.42402875036,1.0,0.0,0.0,0.0,1.0,0.0,0.0,0.0,100000.0,0.00143493711948,0.000300320796669,-0.000365168205462,1.0,0.0,0.0,0.0,1.0,0.0,0.0,0.0,1.0,0.186419406161,0.114045405574,9.27803536654,0.1,0.0,0.0,0.0,0.1,0.0,0.0,0.0,0.1
1505402119415049143,16976,1505402119414897134,ardrone_base_link,-0.0214159082756,-0.00766168929608,-0.905359336642,0.424036707073,1.0,0.0,0.0,0.0,1.0,0.0,0.0,0.0,100000.0,0.000210534781218,0.000672919675708,-0.00100097421091,1.0,0.0,0.0,0.0,1.0,0.0,0.0,0.0,1.0,0.186146491766,0.113496154174,9.27157026529,0.1,0.0,0.0,0.0,0.1,0.0,0.0,0.0,0.1
1505402119423506206,16977,1505402119422727326,ardrone_base_link,-0.0214159082756,-0.00766168929608,-0.905359336642,0.424036707073,1.0,0.0,0.0,0.0,1.0,0.0,0.0,0.0,100000.0,0.000469107180834,3.88799235225e-05,0.000245534116402,1.0,0.0,0.0,0.0,1.0,0.0,0.0,0.0,1.0,0.170560398325,0.112983063795,9.29062969685,0.1,0.0,0.0,0.0,0.1,0.0,0.0,0.0,0.1
1505402119425267187,16978,1505402119425056396,ardrone_base_link,-0.0214159082756,-0.00766168929608,-0.905359336642,0.424036707073,1.0,0.0,0.0,0.0,1.0,0.0,0.0,0.0,100000.0,-0.000815495848656,-0.000310861505568,-0.000467095058411,1.0,0.0,0.0,0.0,1.0,0.0,0.0,0.0,1.0,0.151642571576,0.113634610176,9.28232284784,0.1,0.0,0.0,0.0,0.1,0.0,0.0,0.0,0.1
1505402119429821992,16979,1505402119429591430,ardrone_base_link,-0.0214195424029,-0.0076539740309,-0.905355733277,0.424044356296,1.0,0.0,0.0,0.0,1.0,0.0,0.0,0.0,100000.0,-0.00161565095186,-0.000239499844611,0.000133431400172,1.0,0.0,0.0,0.0,1.0,0.0,0.0,0.0,1.0,0.116820065677,0.113026900589,9.29218989611,0.1,0.0,0.0,0.0,0.1,0.0,0.0,0.0,0.1
1505402119434771114,16980,1505402119434616347,ardrone_base_link,-0.0214116426084,-0.00765027303842,-0.905355904197,0.424044457125,1.0,0.0,0.0,0.0,1.0,0.0,0.0,0.0,100000.0,-0.000375032454031,-0.000276598148048,-0.000900747952983,1.0,0.0,0.0,0.0,1.0,0.0,0.0,0.0,1.0,0.115582440607,0.112956540845,9.28048986197,0.1,0.0,0.0,0.0,0.1,0.0,0.0,0.0,0.1
1505402119442444902,16981,1505402119442225312,ardrone_base_link,-0.0214037409287,-0.0076465711629,-0.905356075089,0.424044557946,1.0,0.0,0.0,0.0,1.0,0.0,0.0,0.0,100000.0,-0.000943161547184,0.000671401619911,-0.00126648182049,1.0,0.0,0.0,0.0,1.0,0.0,0.0,0.0,1.0,0.113447854295,0.113071038574,9.28170542717,0.1,0.0,0.0,0.0,0.1,0.0,0.0,0.0,0.1
1505402119445133820,16982,1505402119444888060,ardrone_base_link,-0.0213920734469,-0.00765095880262,-0.905352452412,0.424052802059,1.0,0.0,0.0,0.0,1.0,0.0,0.0,0.0,100000.0,0.00122028961778,0.000254021026194,-0.000852939905599,1.0,0.0,0.0,0.0,1.0,0.0,0.0,0.0,1.0,0.136143540218,0.113265305944,9.28548588753,0.1,0.0,0.0,0.0,0.1,0.0,0.0,0.0,0.1
1505402119450225991,16983,1505402119450102298,ardrone_base_link,-0.0213920734469,-0.00765095880262,-0.905352452412,0.424052802059,1.0,0.0,0.0,0.0,1.0,0.0,0.0,0.0,100000.0,-0.00011245533824,0.000368294306099,-0.0018556737341,1.0,0.0,0.0,0.0,1.0,0.0,0.0,0.0,1.0,0.130934728682,0.113895796426,9.28264820576,0.1,0.0,0.0,0.0,0.1,0.0,0.0,0.0,0.1
1505402119454979214,16984,1505402119454738340,ardrone_base_link,-0.0213841736792,-0.00764725774045,-0.905352623156,0.424052902724,1.0,0.0,0.0,0.0,1.0,0.0,0.0,0.0,100000.0,-6.41569495201e-05,-0.000377456657588,-0.00126703234855,1.0,0.0,0.0,0.0,1.0,0.0,0.0,0.0,1.0,0.129091593623,0.114017294534,9.28678264618,0.1,0.0,0.0,0.0,0.1,0.0,0.0,0.0,0.1
1505402119461205032,16985,1505402119460877913,ardrone_base_link,-0.0213841736792,-0.00764725774045,-0.905352623156,0.424052902724,1.0,0.0,0.0,0.0,1.0,0.0,0.0,0.0,100000.0,-4.70019876957e-05,-0.000469600781798,-0.00269571878016,1.0,0.0,0.0,0.0,1.0,0.0,0.0,0.0,1.0,0.13774001915,0.114090930857,9.28348058462,0.1,0.0,0.0,0.0,0.1,0.0,0.0,0.0,0.1
1505402119465134660,16986,1505402119464904881,ardrone_base_link,-0.0213841736792,-0.00764725774045,-0.905352623156,0.424052902724,1.0,0.0,0.0,0.0,1.0,0.0,0.0,0.0,100000.0,-0.000324890017509,-0.000609220936894,-0.00179639738053,1.0,0.0,0.0,0.0,1.0,0.0,0.0,0.0,1.0,0.157955864072,0.114023026265,9.28371014595,0.1,0.0,0.0,0.0,0.1,0.0,0.0,0.0,0.1
1505402119469870890,16987,1505402119469742059,ardrone_base_link,-0.0213920734469,-0.00765095880262,-0.905352452412,0.424052802059,1.0,0.0,0.0,0.0,1.0,0.0,0.0,0.0,100000.0,0.00168617069721,-0.000880164094269,-0.00140920933336,1.0,0.0,0.0,0.0,1.0,0.0,0.0,0.0,1.0,0.197497912496,0.113851987012,9.28516987562,0.1,0.0,0.0,0.0,0.1,0.0,0.0,0.0,0.1
1505402119476559060,16988,1505402119476283299,ardrone_base_link,-0.0213883728759,-0.00765885951735,-0.90535238561,0.424052988725,1.0,0.0,0.0,0.0,1.0,0.0,0.0,0.0,100000.0,0.000611554831266,-0.000852959230542,-0.000303238630295,1.0,0.0,0.0,0.0,1.0,0.0,0.0,0.0,1.0,0.196945567057,0.113688942976,9.28382054567,0.1,0.0,0.0,0.0,0.1,0.0,0.0,0.0,0.1
1505402119481499712,16989,1505402119481261120,ardrone_base_link,-0.0213962063204,-0.00766274576795,-0.905348544433,0.42406072416,1.0,0.0,0.0,0.0,1.0,0.0,0.0,0.0,100000.0,0.0012236610055,-0.00110812112689,0.000647701788694,1.0,0.0,0.0,0.0,1.0,0.0,0.0,0.0,1.0,0.199212850258,0.113431097195,9.28550457954,0.1,0.0,0.0,0.0,0.1,0.0,0.0,0.0,0.1
1505402119488585082,16990,1505402119488362765,ardrone_base_link,-0.021396138976,-0.00766293380695,-0.905344817566,0.424068680746,1.0,0.0,0.0,0.0,1.0,0.0,0.0,0.0,100000.0,-0.000100389122963,-0.000363909639418,0.00107417348772,1.0,0.0,0.0,0.0,1.0,0.0,0.0,0.0,1.0,0.175502483547,0.113104644045,9.28429427147,0.1,0.0,0.0,0.0,0.1,0.0,0.0,0.0,0.1
1505402119491587579,16991,1505402119491418851,ardrone_base_link,-0.0214039742026,-0.0076668211445,-0.905340976145,0.424076416057,1.0,0.0,0.0,0.0,1.0,0.0,0.0,0.0,100000.0,-0.00032490119338,-0.000114790163934,0.00159946759231,1.0,0.0,0.0,0.0,1.0,0.0,0.0,0.0,1.0,0.180285631865,0.112946209125,9.28433749676,0.1,0.0,0.0,0.0,0.1,0.0,0.0,0.0,0.1
1505402119495054664,16992,1505402119494921701,ardrone_base_link,-0.0214039068224,-0.00766700925176,-0.905337249139,0.424084372576,1.0,0.0,0.0,0.0,1.0,0.0,0.0,0.0,100000.0,-0.000437296926975,0.00100090168417,0.00182853662409,1.0,0.0,0.0,0.0,1.0,0.0,0.0,0.0,1.0,0.182439302653,0.112817984447,9.28477734327,0.1,0.0,0.0,0.0,0.1,0.0,0.0,0.0,0.1
1505402119500166105,16993,1505402119499932999,ardrone_base_link,-0.0214038404615,-0.00766719450834,-0.905333578535,0.42409220851,1.0,0.0,0.0,0.0,1.0,0.0,0.0,0.0,100000.0,-0.000773657113314,0.000577385537326,0.00136770354584,1.0,0.0,0.0,0.0,1.0,0.0,0.0,0.0,1.0,0.188564059511,0.112951457128,9.28424170017,0.1,0.0,0.0,0.0,0.1,0.0,0.0,0.0,0.1
1505402119510933712,16994,1505402119510718225,ardrone_base_link,-0.021403773078,-0.00766738261443,-0.905329851391,0.424100164964,1.0,0.0,0.0,0.0,1.0,0.0,0.0,0.0,100000.0,-0.000412415713072,0.000817618332803,0.00143245339859,1.0,0.0,0.0,0.0,1.0,0.0,0.0,0.0,1.0,0.188755634427,0.1132005319,9.28484919071,0.1,0.0,0.0,0.0,0.1,0.0,0.0,0.0,0.1
1505402119510942743,16995,1505402119510752632,ardrone_base_link,-0.021403773078,-0.00766738261443,-0.905329851391,0.424100164964,1.0,0.0,0.0,0.0,1.0,0.0,0.0,0.0,100000.0,-0.000237509608269,-7.70809056121e-05,0.000682503916323,1.0,0.0,0.0,0.0,1.0,0.0,0.0,0.0,1.0,0.184137611091,0.113580706343,9.28449053764,0.1,0.0,0.0,0.0,0.1,0.0,0.0,0.0,0.1
1505402119516499812,16996,1505402119516366275,ardrone_base_link,-0.0214116062518,-0.00767126941056,-0.905326009673,0.424107900131,1.0,0.0,0.0,0.0,1.0,0.0,0.0,0.0,100000.0,0.000708162784576,-0.000545720569789,0.00119985779747,1.0,0.0,0.0,0.0,1.0,0.0,0.0,0.0,1.0,0.185105324537,0.114023847692,9.28448528051,0.1,0.0,0.0,0.0,0.1,0.0,0.0,0.0,0.1
1505402119520241782,16997,1505402119520106328,ardrone_base_link,-0.0214115388325,-0.0076714575849,-0.90532228239,0.424115856519,1.0,0.0,0.0,0.0,1.0,0.0,0.0,0.0,100000.0,0.00110979750752,-0.000715242698789,0.00122449640185,1.0,0.0,0.0,0.0,1.0,0.0,0.0,0.0,1.0,0.185283209011,0.114348256402,9.28465292454,0.1,0.0,0.0,0.0,0.1,0.0,0.0,0.0,0.1
1505402119525515490,16998,1505402119525331348,ardrone_base_link,-0.0214156696929,-0.00768324785503,-0.905318316979,0.424123899039,1.0,0.0,0.0,0.0,1.0,0.0,0.0,0.0,100000.0,0.00151601072866,-0.00110802252311,0.00129747902974,1.0,0.0,0.0,0.0,1.0,0.0,0.0,0.0,1.0,0.186974361911,0.0995002603158,9.28450455666,0.1,0.0,0.0,0.0,0.1,0.0,0.0,0.0,0.1
1505402119530365041,16999,1505402119530206410,ardrone_base_link,-0.0214272038873,-0.00767923457479,-0.905314541937,0.424131447134,1.0,0.0,0.0,0.0,1.0,0.0,0.0,0.0,100000.0,0.000734977424145,-0.00059302803129,0.00190148176625,1.0,0.0,0.0,0.0,1.0,0.0,0.0,0.0,1.0,0.187606057152,0.0809670163319,9.28481589556,0.1,0.0,0.0,0.0,0.1,0.0,0.0,0.0,0.1
1505402119536741514,17000,1505402119536543381,ardrone_base_link,-0.021427136398,-0.00767942288621,-0.905310814448,0.424139403421,1.0,0.0,0.0,0.0,1.0,0.0,0.0,0.0,100000.0,0.000436134636402,-0.00068243779242,0.000662944279611,1.0,0.0,0.0,0.0,1.0,0.0,0.0,0.0,1.0,0.185939802602,0.0614824965596,9.28479194641,0.1,0.0,0.0,0.0,0.1,0.0,0.0,0.0,0.1
1505402119542304268,17001,1505402119542087395,ardrone_base_link,-0.0214386725772,-0.00767541079205,-0.905307039162,0.424146951222,1.0,0.0,0.0,0.0,1.0,0.0,0.0,0.0,100000.0,0.000614013522863,-0.00095278210938,0.000982764177024,1.0,0.0,0.0,0.0,1.0,0.0,0.0,0.0,1.0,0.185759654641,0.0632362467237,9.28477267027,0.1,0.0,0.0,0.0,0.1,0.0,0.0,0.0,0.1
1505402119545448319,17002,1505402119545278103,ardrone_base_link,-0.0214386725772,-0.00767541079205,-0.905307039162,0.424146951222,1.0,0.0,0.0,0.0,1.0,0.0,0.0,0.0,100000.0,0.00106618180871,-0.00117626786232,-0.000941006990615,1.0,0.0,0.0,0.0,1.0,0.0,0.0,0.0,1.0,0.184910938516,0.0914470860735,9.28471542597,0.1,0.0,0.0,0.0,0.1,0.0,0.0,0.0,0.1
1505402119550224712,17003,1505402119550055271,ardrone_base_link,-0.0214428705543,-0.00768701299385,-0.905306800898,0.424147037454,1.0,0.0,0.0,0.0,1.0,0.0,0.0,0.0,100000.0,0.00200829282403,-0.00197430420667,-0.00067188590765,1.0,0.0,0.0,0.0,1.0,0.0,0.0,0.0,1.0,0.184876621142,0.114014437795,9.28448528051,0.1,0.0,0.0,0.0,0.1,0.0,0.0,0.0,0.1
1505402119555373307,17004,1505402119555238681,ardrone_base_link,-0.0214507023322,-0.00769090339517,-0.905302901955,0.4241548928,1.0,0.0,0.0,0.0,1.0,0.0,0.0,0.0,100000.0,0.000966653227806,-0.00153006054461,-0.000204578216653,1.0,0.0,0.0,0.0,1.0,0.0,0.0,0.0,1.0,0.184983242303,0.132229141705,9.28449521065,0.1,0.0,0.0,0.0,0.1,0.0,0.0,0.0,0.1
1505402119560375977,17005,1505402119560156234,ardrone_base_link,-0.0214549020886,-0.0077025065103,-0.905302663346,0.424154979116,1.0,0.0,0.0,0.0,1.0,0.0,0.0,0.0,100000.0,0.000292934477329,-0.00118717644364,0.0006721203099,1.0,0.0,0.0,0.0,1.0,0.0,0.0,0.0,1.0,0.184550496563,0.119451341219,9.28451915979,0.1,0.0,0.0,0.0,0.1,0.0,0.0,0.0,0.1
1505402119565563778,17006,1505402119565407271,ardrone_base_link,-0.0214585369499,-0.00769479195947,-0.905299059315,0.424162627505,1.0,0.0,0.0,0.0,1.0,0.0,0.0,0.0,100000.0,-0.000696316361427,-0.000441380776465,0.00240716664121,1.0,0.0,0.0,0.0,1.0,0.0,0.0,0.0,1.0,0.184727869928,0.108823241293,9.28456705809,0.1,0.0,0.0,0.0,0.1,0.0,0.0,0.0,0.1
1505402119577088306,17007,1505402119576896669,ardrone_base_link,-0.0214584693238,-0.00769498054626,-0.905295331552,0.424170583656,1.0,0.0,0.0,0.0,1.0,0.0,0.0,0.0,100000.0,-0.000625140964985,0.000176169909537,0.00143461674452,1.0,0.0,0.0,0.0,1.0,0.0,0.0,0.0,1.0,0.184643792361,0.106968624517,9.28460035324,0.1,0.0,0.0,0.0,0.1,0.0,0.0,0.0,0.1
1505402119581654810,17008,1505402119581272552,ardrone_base_link,-0.0214584027208,-0.00769516627509,-0.905291660202,0.424178419227,1.0,0.0,0.0,0.0,1.0,0.0,0.0,0.0,100000.0,0.000476393848658,0.000112892128527,0.0012396927923,1.0,0.0,0.0,0.0,1.0,0.0,0.0,0.0,1.0,0.184886715561,0.108839304745,9.28455712795,0.1,0.0,0.0,0.0,0.1,0.0,0.0,0.0,0.1
1505402119582831213,17009,1505402119582493995,ardrone_base_link,-0.0214625325588,-0.00770695723751,-0.905287693627,0.424186461681,1.0,0.0,0.0,0.0,1.0,0.0,0.0,0.0,100000.0,0.000166606158018,-0.000129682943225,-0.00028665130958,1.0,0.0,0.0,0.0,1.0,0.0,0.0,0.0,1.0,0.170058835298,0.11967723351,9.28443796635,0.1,0.0,0.0,0.0,0.1,0.0,0.0,0.0,0.1
1505402119588258680,17010,1505402119588049383,ardrone_base_link,-0.0214625325588,-0.00770695723751,-0.905287693627,0.424186461681,1.0,0.0,0.0,0.0,1.0,0.0,0.0,0.0,100000.0,0.000309444993036,3.75472009182e-05,-0.000859196763486,1.0,0.0,0.0,0.0,1.0,0.0,0.0,0.0,1.0,0.166931390762,0.115175743215,9.2844140172,0.1,0.0,0.0,0.0,0.1,0.0,0.0,0.0,0.1
1505402119590535539,17011,1505402119590368004,ardrone_base_link,-0.0214546333547,-0.00770325501238,-0.90528786511,0.424186562557,1.0,0.0,0.0,0.0,1.0,0.0,0.0,0.0,100000.0,-0.000523794442415,-0.000603532418609,-0.000348548433976,1.0,0.0,0.0,0.0,1.0,0.0,0.0,0.0,1.0,0.136240934022,0.114606166072,9.28420314789,0.1,0.0,0.0,0.0,0.1,0.0,0.0,0.0,0.1
1505402119595608797,17012,1505402119595449169,ardrone_base_link,-0.0214545666801,-0.00770344070801,-0.905284193622,0.424194398063,1.0,0.0,0.0,0.0,1.0,0.0,0.0,0.0,100000.0,-7.99261033535e-05,-8.4257684648e-05,5.05077623529e-05,1.0,0.0,0.0,0.0,1.0,0.0,0.0,0.0,1.0,0.136099320091,0.113340575993,9.28423177004,0.1,0.0,0.0,0.0,0.1,0.0,0.0,0.0,0.1
1505402119600654035,17013,1505402119600504392,ardrone_base_link,-0.0214465979535,-0.00769992601362,-0.905280637033,0.424202454953,1.0,0.0,0.0,0.0,1.0,0.0,0.0,0.0,100000.0,0.00062735384563,-0.000617599172983,0.00098667817656,1.0,0.0,0.0,0.0,1.0,0.0,0.0,0.0,1.0,0.11250708364,0.112377499044,9.28403083086,0.1,0.0,0.0,0.0,0.1,0.0,0.0,0.0,0.1
1505402119610414694,17014,1505402119610202984,ardrone_base_link,-0.0214386988107,-0.00769622364952,-0.905280808377,0.424202555767,1.0,0.0,0.0,0.0,1.0,0.0,0.0,0.0,100000.0,0.000764336436987,-0.000656630843878,0.000810836150777,1.0,0.0,0.0,0.0,1.0,0.0,0.0,0.0,1.0,0.108420149051,0.115466373041,9.28403083086,0.1,0.0,0.0,0.0,0.1,0.0,0.0,0.0,0.1
1505402119611582937,17015,1505402119611462016,ardrone_base_link,-0.0214270311374,-0.00770060683314,-0.905277240858,0.424210678998,1.0,0.0,0.0,0.0,1.0,0.0,0.0,0.0,100000.0,0.000705160200596,-0.000217422842979,0.00056946487166,1.0,0.0,0.0,0.0,1.0,0.0,0.0,0.0,1.0,0.108915889077,0.113916916214,9.28400688171,0.1,0.0,0.0,0.0,0.1,0.0,0.0,0.0,0.1
1505402119617030986,17016,1505402119616842852,ardrone_base_link,-0.0214190624945,-0.00769709175867,-0.905273683949,0.424218735665,1.0,0.0,0.0,0.0,1.0,0.0,0.0,0.0,100000.0,-0.000183504074812,-0.0004967385903,0.000109016429633,1.0,0.0,0.0,0.0,1.0,0.0,0.0,0.0,1.0,0.0960914224386,0.113740492053,9.2839402914,0.1,0.0,0.0,0.0,0.1,0.0,0.0,0.0,0.1
1505402119620597375,17017,1505402119620400685,ardrone_base_link,-0.0214148654289,-0.0076854892271,-0.90527392222,0.424218649451,1.0,0.0,0.0,0.0,1.0,0.0,0.0,0.0,100000.0,-0.000507541000843,0.000686856918037,0.000529186334461,1.0,0.0,0.0,0.0,1.0,0.0,0.0,0.0,1.0,0.117168971151,0.113189835101,9.28408340216,0.1,0.0,0.0,0.0,0.1,0.0,0.0,0.0,0.1
1505402119629643528,17018,1505402119629511919,ardrone_base_link,-0.0214068988324,-0.00768197485643,-0.90527036503,0.42422670607,1.0,0.0,0.0,0.0,1.0,0.0,0.0,0.0,100000.0,-0.000686254352331,-0.000318881124258,0.000824781833217,1.0,0.0,0.0,0.0,1.0,0.0,0.0,0.0,1.0,0.100139759108,0.112222285941,9.28396424055,0.1,0.0,0.0,0.0,0.1,0.0,0.0,0.0,0.1
1505402119634566221,17019,1505402119634360564,ardrone_base_link,-0.0213989333202,-0.00767845749631,-0.905266864189,0.424234642084,1.0,0.0,0.0,0.0,1.0,0.0,0.0,0.0,100000.0,-0.00024925917387,-0.000195813365281,0.00159334950149,1.0,0.0,0.0,0.0,1.0,0.0,0.0,0.0,1.0,0.114169285819,0.113233817928,9.28406938314,0.1,0.0,0.0,0.0,0.1,0.0,0.0,0.0,0.1
1505402119635806771,17020,1505402119635641785,ardrone_base_link,-0.0213988658377,-0.00767864555927,-0.905263135793,0.424242597952,1.0,0.0,0.0,0.0,1.0,0.0,0.0,0.0,100000.0,0.000406187027693,-0.00133280456066,0.00113535951823,1.0,0.0,0.0,0.0,1.0,0.0,0.0,0.0,1.0,0.119667960517,0.112903987803,9.28409800529,0.1,0.0,0.0,0.0,0.1,0.0,0.0,0.0,0.1
1505402119640955841,17021,1505402119640778749,ardrone_base_link,-0.0213950970804,-0.00768673067546,-0.905259396775,0.424250619968,1.0,0.0,0.0,0.0,1.0,0.0,0.0,0.0,100000.0,0.00179112330079,-0.00111251231283,0.000502452719957,1.0,0.0,0.0,0.0,1.0,0.0,0.0,0.0,1.0,0.138574186899,0.113396077044,9.28423177004,0.1,0.0,0.0,0.0,0.1,0.0,0.0,0.0,0.1
1505402119646320469,17022,1505402119646177309,ardrone_base_link,-0.021391394783,-0.00769463057812,-0.905259329661,0.42425080666,1.0,0.0,0.0,0.0,1.0,0.0,0.0,0.0,100000.0,0.00229471921921,-0.000562088564038,-0.000162634067237,1.0,0.0,0.0,0.0,1.0,0.0,0.0,0.0,1.0,0.178535464033,0.113794122078,9.28450922966,0.1,0.0,0.0,0.0,0.1,0.0,0.0,0.0,0.1
1505402119653291029,17023,1505402119653148768,ardrone_base_link,-0.0213955914438,-0.00770623325611,-0.905259091387,0.424250892865,1.0,0.0,0.0,0.0,1.0,0.0,0.0,0.0,100000.0,0.00267950841226,-0.000170459039509,-0.00093165691942,1.0,0.0,0.0,0.0,1.0,0.0,0.0,0.0,1.0,0.18939297013,0.11389944721,9.29955396652,0.1,0.0,0.0,0.0,0.1,0.0,0.0,0.0,0.1
1505402119656032647,17024,1505402119655894500,ardrone_base_link,-0.0213955237172,-0.00770642128971,-0.905255362848,0.424258848665,1.0,0.0,0.0,0.0,1.0,0.0,0.0,0.0,100000.0,0.00142919272184,0.000412586145103,-0.000432944274507,1.0,0.0,0.0,0.0,1.0,0.0,0.0,0.0,1.0,0.184664291516,0.114118622057,9.30292729139,0.1,0.0,0.0,0.0,0.1,0.0,0.0,0.0,0.1
1505402119661467845,17025,1505402119660831636,ardrone_base_link,-0.0213955237172,-0.00770642128971,-0.905255362848,0.424258848665,1.0,0.0,0.0,0.0,1.0,0.0,0.0,0.0,100000.0,0.000153228640556,2.48868018389e-05,-0.000332946656272,1.0,0.0,0.0,0.0,1.0,0.0,0.0,0.0,1.0,0.171518857032,0.113743996806,9.31850825548,0.1,0.0,0.0,0.0,0.1,0.0,0.0,0.0,0.1
1505402119667537894,17026,1505402119667369613,ardrone_base_link,-0.02138755812,-0.00770290356003,-0.905251861823,0.424266784348,1.0,0.0,0.0,0.0,1.0,0.0,0.0,0.0,100000.0,-0.000290349125862,0.000527612864971,0.000551765668206,1.0,0.0,0.0,0.0,1.0,0.0,0.0,0.0,1.0,0.142130041867,0.112891292199,9.30038634539,0.1,0.0,0.0,0.0,0.1,0.0,0.0,0.0,0.1
1505402119671480327,17027,1505402119671295610,ardrone_base_link,-0.0213874904226,-0.00770309152302,-0.905248133144,0.424274740084,1.0,0.0,0.0,0.0,1.0,0.0,0.0,0.0,100000.0,-0.000113267458801,0.000397507101297,0.000699331401847,1.0,0.0,0.0,0.0,1.0,0.0,0.0,0.0,1.0,0.168841371685,0.112525200658,9.28988318443,0.1,0.0,0.0,0.0,0.1,0.0,0.0,0.0,0.1
1505402119678941497,17028,1505402119678769602,ardrone_base_link,-0.0213837879148,-0.00771099132739,-0.905248065887,0.424274926709,1.0,0.0,0.0,0.0,1.0,0.0,0.0,0.0,100000.0,0.0016397126019,0.000512112863362,0.000899003061932,1.0,0.0,0.0,0.0,1.0,0.0,0.0,0.0,1.0,0.175582380965,0.112247521989,9.27782449722,0.1,0.0,0.0,0.0,0.1,0.0,0.0,0.0,0.1
1505402119681798922,17029,1505402119681543606,ardrone_base_link,-0.0213916200047,-0.00771487945982,-0.905244222514,0.42428266148,1.0,0.0,0.0,0.0,1.0,0.0,0.0,0.0,100000.0,0.00200939178467,-0.000234693303355,0.00121634057723,1.0,0.0,0.0,0.0,1.0,0.0,0.0,0.0,1.0,0.198426781595,0.112736900523,9.2718290329,0.1,0.0,0.0,0.0,0.1,0.0,0.0,0.0,0.1
1505402119686351046,17030,1505402119686132580,ardrone_base_link,-0.0213957483539,-0.00772667031354,-0.905240255115,0.424290703454,1.0,0.0,0.0,0.0,1.0,0.0,0.0,0.0,100000.0,0.00180608406663,-0.0012015979737,0.00195100018755,1.0,0.0,0.0,0.0,1.0,0.0,0.0,0.0,1.0,0.200267123803,0.113524703309,9.29080668688,0.1,0.0,0.0,0.0,0.1,0.0,0.0,0.0,0.1
1505402119691733177,17031,1505402119691593320,ardrone_base_link,-0.0213956814766,-0.0077268554995,-0.905236582725,0.424298538548,1.0,0.0,0.0,0.0,1.0,0.0,0.0,0.0,100000.0,0.000385589897633,-0.00106409005821,0.00246335542761,1.0,0.0,0.0,0.0,1.0,0.0,0.0,0.0,1.0,0.178490340337,0.113750814646,9.28240871429,0.1,0.0,0.0,0.0,0.1,0.0,0.0,0.0,0.1
1505402119696548975,17032,1505402119696317411,ardrone_base_link,-0.0214034453881,-0.00773093204157,-0.905229009955,0.424314228787,1.0,0.0,0.0,0.0,1.0,0.0,0.0,0.0,100000.0,-0.000935927033424,-0.00096046552062,0.00243830028921,1.0,0.0,0.0,0.0,1.0,0.0,0.0,0.0,1.0,0.18886738494,0.114184254035,9.29275883436,0.1,0.0,0.0,0.0,0.1,0.0,0.0,0.0,0.1
1505402119701238536,17033,1505402119700989826,ardrone_base_link,-0.0214070803646,-0.00772322053866,-0.905225348292,0.424321997526,1.0,0.0,0.0,0.0,1.0,0.0,0.0,0.0,100000.0,-0.000816605985165,0.000113287009299,0.00151512399316,1.0,0.0,0.0,0.0,1.0,0.0,0.0,0.0,1.0,0.175641760975,0.114125741087,9.29580271244,0.1,0.0,0.0,0.0,0.1,0.0,0.0,0.0,0.1
1505402119713912995,17034,1505402119713481492,ardrone_base_link,-0.0214070803646,-0.00772322053866,-0.905225348292,0.424321997526,1.0,0.0,0.0,0.0,1.0,0.0,0.0,0.0,100000.0,-0.000355910509825,0.000270096585155,0.000655421987176,1.0,0.0,0.0,0.0,1.0,0.0,0.0,0.0,1.0,0.190683832765,0.114295420423,9.30067373514,0.1,0.0,0.0,0.0,0.1,0.0,0.0,0.0,0.1
1505402119714242849,17035,1505402119714060771,ardrone_base_link,-0.0214112110456,-0.00773500973931,-0.905221436803,0.424329918835,1.0,0.0,0.0,0.0,1.0,0.0,0.0,0.0,100000.0,0.000609148293734,0.000347198918462,0.000610468909144,1.0,0.0,0.0,0.0,1.0,0.0,0.0,0.0,1.0,0.187830653414,0.114670629799,9.31988620758,0.1,0.0,0.0,0.0,0.1,0.0,0.0,0.0,0.1
1505402119716875267,17036,1505402119716775501,ardrone_base_link,-0.0214111430661,-0.00773519791017,-0.905217707569,0.424337874304,1.0,0.0,0.0,0.0,1.0,0.0,0.0,0.0,100000.0,0.000871494412422,0.000788274221122,0.000387551292079,1.0,0.0,0.0,0.0,1.0,0.0,0.0,0.0,1.0,0.183267683908,0.114527473412,9.29911353588,0.1,0.0,0.0,0.0,0.1,0.0,0.0,0.0,0.1
1505402119721203701,17037,1505402119721053225,ardrone_base_link,-0.0214111430661,-0.00773519791017,-0.905217707569,0.424337874304,1.0,0.0,0.0,0.0,1.0,0.0,0.0,0.0,100000.0,0.000430684536695,0.000762889161706,0.00111290626228,1.0,0.0,0.0,0.0,1.0,0.0,0.0,0.0,1.0,0.187047687918,0.114645412005,9.29265369177,0.1,0.0,0.0,0.0,0.1,0.0,0.0,0.0,0.1
1505402119726358140,17038,1505402119726229307,ardrone_base_link,-0.0214110750849,-0.00773538608044,-0.905213978266,0.42434582974,1.0,0.0,0.0,0.0,1.0,0.0,0.0,0.0,100000.0,-0.000103112310171,0.00121600180864,0.000277868937701,1.0,0.0,0.0,0.0,1.0,0.0,0.0,0.0,1.0,0.181863190606,0.114390149154,9.27709726095,0.1,0.0,0.0,0.0,0.1,0.0,0.0,0.0,0.1
1505402119731470212,17039,1505402119731281449,ardrone_base_link,-0.0214110081321,-0.00773557139906,-0.905210305399,0.424353664607,1.0,0.0,0.0,0.0,1.0,0.0,0.0,0.0,100000.0,-0.00089194253087,0.000496543012559,0.000601581996307,1.0,0.0,0.0,0.0,1.0,0.0,0.0,0.0,1.0,0.18687164709,0.11417736318,9.27111114264,0.1,0.0,0.0,0.0,0.1,0.0,0.0,0.0,0.1
1505402119736328566,17040,1505402119736143112,ardrone_base_link,-0.0214110081321,-0.00773557139906,-0.905210305399,0.424353664607,1.0,0.0,0.0,0.0,1.0,0.0,0.0,0.0,100000.0,-0.00109973177314,0.000150546431541,-0.000346639892086,1.0,0.0,0.0,0.0,1.0,0.0,0.0,0.0,1.0,0.186843371764,0.114234233275,9.29125179052,0.1,0.0,0.0,0.0,0.1,0.0,0.0,0.0,0.1
1505402119742702129,17041,1505402119742413657,ardrone_base_link,-0.02141883865,-0.00773946330425,-0.905206404538,0.424361519511,1.0,0.0,0.0,0.0,1.0,0.0,0.0,0.0,100000.0,-0.000708870589733,-0.000289089977741,-0.000436776783317,1.0,0.0,0.0,0.0,1.0,0.0,0.0,0.0,1.0,0.185760001466,0.113835010864,9.28163825274,0.1,0.0,0.0,0.0,0.1,0.0,0.0,0.0,0.1
1505402119746353183,17042,1505402119746174644,ardrone_base_link,-0.02141883865,-0.00773946330425,-0.905206404538,0.424361519511,1.0,0.0,0.0,0.0,1.0,0.0,0.0,0.0,100000.0,0.000257194042206,-0.000526470132172,-0.000379341741791,1.0,0.0,0.0,0.0,1.0,0.0,0.0,0.0,1.0,0.187668394297,0.113947701454,9.29361107349,0.1,0.0,0.0,0.0,0.1,0.0,0.0,0.0,0.1
1505402119763490487,17043,1505402119763287924,ardrone_base_link,-0.02141883865,-0.00773946330425,-0.905206404538,0.424361519511,1.0,0.0,0.0,0.0,1.0,0.0,0.0,0.0,100000.0,0.00112030282617,-0.000276938080788,-0.000170492159668,1.0,0.0,0.0,0.0,1.0,0.0,0.0,0.0,1.0,0.185393809527,0.113765426911,9.28069547415,0.1,0.0,0.0,0.0,0.1,0.0,0.0,0.0,0.1
1505402119765015415,17044,1505402119764746675,ardrone_base_link,-0.0214229668532,-0.0077512517829,-0.905202492441,0.424369440777,1.0,0.0,0.0,0.0,1.0,0.0,0.0,0.0,100000.0,0.00126867741346,-0.000469258055091,0.00109148293268,1.0,0.0,0.0,0.0,1.0,0.0,0.0,0.0,1.0,0.186558355018,0.113895887695,9.28207868338,0.1,0.0,0.0,0.0,0.1,0.0,0.0,0.0,0.1
1505402119765024677,17045,1505402119764769731,ardrone_base_link,-0.021422898731,-0.00775144005708,-0.90519876286,0.424377396079,1.0,0.0,0.0,0.0,1.0,0.0,0.0,0.0,100000.0,0.000381167978048,0.00018331874162,0.000799437402748,1.0,0.0,0.0,0.0,1.0,0.0,0.0,0.0,1.0,0.18600894846,0.113957029209,9.28606008291,0.1,0.0,0.0,0.0,0.1,0.0,0.0,0.0,0.1
1505402119773573640,17046,1505402119773365355,ardrone_base_link,-0.0214228316393,-0.00775162547803,-0.90519508972,0.424385230815,1.0,0.0,0.0,0.0,1.0,0.0,0.0,0.0,100000.0,-0.000271130353212,0.000399717129767,0.000924991210923,1.0,0.0,0.0,0.0,1.0,0.0,0.0,0.0,1.0,0.18504130803,0.113723196462,9.28264820576,0.1,0.0,0.0,0.0,0.1,0.0,0.0,0.0,0.1
1505402119782392367,17047,1505402119782108253,ardrone_base_link,-0.0214228316393,-0.00775162547803,-0.90519508972,0.424385230815,1.0,0.0,0.0,0.0,1.0,0.0,0.0,0.0,100000.0,-0.000747088342905,0.00106177758425,-0.000254657585174,1.0,0.0,0.0,0.0,1.0,0.0,0.0,0.0,1.0,0.185462809354,0.113510291837,9.28747600317,0.1,0.0,0.0,0.0,0.1,0.0,0.0,0.0,0.1
1505402119782402304,17048,1505402119782163754,ardrone_base_link,-0.0214264669984,-0.00774391455922,-0.905191427613,0.424392999089,1.0,0.0,0.0,0.0,1.0,0.0,0.0,0.0,100000.0,-0.000352628529072,0.00101314950734,-0.000593886245042,1.0,0.0,0.0,0.0,1.0,0.0,0.0,0.0,1.0,0.184494584799,0.113172813319,9.28372474909,0.1,0.0,0.0,0.0,0.1,0.0,0.0,0.0,0.1
1505402119782552312,17049,1505402119782210347,ardrone_base_link,-0.0214227635137,-0.00775181375103,-0.905191360001,0.424393186052,1.0,0.0,0.0,0.0,1.0,0.0,0.0,0.0,100000.0,1.13882124424e-05,0.000730813480914,-0.00118693197146,1.0,0.0,0.0,0.0,1.0,0.0,0.0,0.0,1.0,0.185073745251,0.113083743304,9.28386318684,0.1,0.0,0.0,0.0,0.1,0.0,0.0,0.0,0.1
1505402119786676068,17050,1505402119786516499,ardrone_base_link,-0.0214306637677,-0.00775551864318,-0.905191188374,0.424393085559,1.0,0.0,0.0,0.0,1.0,0.0,0.0,0.0,100000.0,0.000113487243652,0.000698591582477,-0.0012010417413,1.0,0.0,0.0,0.0,1.0,0.0,0.0,0.0,1.0,0.185358323902,0.113221250102,9.28518915176,0.1,0.0,0.0,0.0,0.1,0.0,0.0,0.0,0.1
