%time,field.header.seq,field.header.stamp,field.header.frame_id,field.pose.position.x,field.pose.position.y,field.pose.position.z,field.pose.orientation.x,field.pose.orientation.y,field.pose.orientation.z,field.pose.orientation.w
1505402118934656595,0,1505402118934456852,world,0.452690005302,0.0470136851072,0.51480358839,0.000246948067797,-0.996722996235,0.00200046342798,0.080865085125
1505402118934660071,1,1505402118934492792,world,0.452882319689,0.0470377169549,0.517108738422,-0.000306713511236,-0.996721506119,0.0019387381617,0.080885745585
1505402118944981104,2,1505402118944826847,world,0.452993482351,0.0473167300224,0.519364237785,-0.000343321065884,-0.996690869331,0.00152122392319,0.0812712013721
1505402118955205002,3,1505402118955081548,world,0.453202962875,0.0470105521381,0.521657347679,-0.000315293931635,-0.99669533968,0.0035882408265,0.0811498314142
1505402118964418009,4,1505402118964296767,world,0.453349709511,0.0468239858747,0.524110615253,0.00041902900557,-0.996616005898,0.00295120012015,0.0821442976594
1505402118974659308,5,1505402118974521083,world,0.45352062583,0.0470580607653,0.526335477829,0.00023958789825,-0.996641218662,0.00265312800184,0.0818483009934
1505402118995093740,6,1505402118994922535,world,0.453782975674,0.0469335801899,0.528835892677,0.000597219972406,-0.996642529964,0.00285009643994,0.0818241685629
1505402118995097989,7,1505402118994974884,world,0.454059541225,0.0469697713852,0.531023919582,-0.000104772334453,-0.996684491634,0.00349488249049,0.0812884047627
1505402119004511052,8,1505402119004364784,world,0.454317778349,0.0469586625695,0.533430337906,-0.000640916056,-0.99671036005,0.00321547593921,0.080979578197
1505402119014844651,9,1505402119014678548,world,0.454589158297,0.0467214733362,0.53581148386,-0.000119306976558,-0.996708273888,0.00294107012451,0.0810179635882
1505402119025037486,10,1505402119024895209,world,0.454795002937,0.0469924733043,0.538201987743,0.000199640649953,-0.996752083302,0.00255543156527,0.0804909169674
1505402119034350158,11,1505402119034094661,world,0.454962700605,0.0470857471228,0.540788531303,0.000731436070055,-0.996676266193,0.00224397378042,0.0814294964075
1505402119054634886,12,1505402119054456307,world,0.455259919167,0.0469521433115,0.543120503426,0.00013062756625,-0.996695280075,0.00177163875196,0.0812113806605
1505402119054641102,13,1505402119054547686,world,0.455570101738,0.0468302704394,0.545674800873,-6.48050918244e-05,-0.996735334396,0.00226702145301,0.0807065963745
1505402119064996962,14,1505402119064864771,world,0.455803155899,0.046940099448,0.547973036766,5.46290211787e-05,-0.996778845787,0.0016678320244,0.0801826119423
1505402119084471636,15,1505402119084289465,world,0.455925554037,0.0467181690037,0.550449073315,0.00042849133024,-0.996778309345,0.00296818232164,0.0801498815417
1505402119084480861,16,1505402119084301685,world,0.456094413996,0.0469732917845,0.552805185318,0.000155365691171,-0.996755123138,0.0020344692748,0.0804674625397
1505402119094640209,17,1505402119094500388,world,0.456385850906,0.0468955524266,0.555253326893,-3.59032710548e-05,-0.996739804745,0.00137484364677,0.0806713923812
1505402119115128419,18,1505402119114958613,world,0.456471979618,0.0471153184772,0.557783186436,0.000734097964596,-0.996678054333,0.000297381047858,0.0814388468862
1505402119115137065,19,1505402119114974846,world,0.456821382046,0.0468938499689,0.560085356236,0.000383559527108,-0.996783792973,0.00144232716411,0.080123372376
1505402119124366980,20,1505402119124225812,world,0.456966459751,0.0467524193227,0.562582671642,0.000397263793275,-0.996757626534,0.00103475153446,0.080454595387
1505402119144891641,21,1505402119144678045,world,0.457248747349,0.047061894089,0.5647392869,-0.000232457343373,-0.996802866459,0.000308794929879,0.0798994079232
1505402119144906115,22,1505402119144694572,world,0.457403093576,0.0469929948449,0.567122340202,0.000219239402213,-0.996780335903,0.000407090235967,0.0801796391606
1505402119155075974,23,1505402119154995057,world,0.457551121712,0.0471032708883,0.569662094116,0.000232008707826,-0.996734380722,0.000127618535771,0.0807500556111
1505402119174652546,24,1505402119174329188,world,0.457758903503,0.0468596555293,0.571881055832,0.0002337784681,-0.996776521206,0.00166068237741,0.0802108198404
1505402119174658080,25,1505402119174375560,world,0.45809930563,0.0467346869409,0.574202299118,0.00030547825736,-0.996799409389,0.0015109492233,0.0799280628562
1505402119184786304,26,1505402119184612827,world,0.458393067122,0.0468134656549,0.576558828354,0.000170488594449,-0.996832787991,0.000800055160653,0.0795227140188
1505402119205152536,27,1505402119204992394,world,0.458485037088,0.0470555908978,0.578696548939,0.000206612414331,-0.996829330921,0.000200801281608,0.0795691758394
1505402119205156340,28,1505402119205021692,world,0.458677709103,0.0471296980977,0.581016600132,0.000164707569638,-0.996809601784,-0.000905075052287,0.0798110738397
1505402119214398596,29,1505402119214264826,world,0.458895802498,0.0468979179859,0.583142995834,0.000287010363536,-0.996857702732,0.000357733981218,0.0792117789388
1505402119234979342,30,1505402119234738932,world,0.459078282118,0.0469830818474,0.585416197777,0.000217405759031,-0.996840536594,-0.000375100207748,0.0794282481074
1505402119235000930,31,1505402119234750944,world,0.459426611662,0.0470024086535,0.587659358978,-0.000166993690073,-0.996864438057,-0.0004583093978,0.0791269168258
1505402119245133238,32,1505402119244966777,world,0.459565788507,0.0467654913664,0.589784920216,-0.000106624756882,-0.996850788593,0.00101316114888,0.0792934969068
1505402119264577348,33,1505402119264426616,world,0.459722369909,0.0465789996088,0.591862976551,0.000107779203972,-0.99682956934,0.0018919208087,0.0795428529382
1505402119264584738,34,1505402119264450945,world,0.45992860198,0.0465155802667,0.594053804874,2.06019249163e-05,-0.996830701828,0.00246999692172,0.0795134603977
1505402119274853096,35,1505402119274661298,world,0.460039198399,0.0465172752738,0.596146583557,-0.00022217395599,-0.996819257736,0.0032419373747,0.0796289592981
1505402119285017904,36,1505402119284874748,world,0.460205286741,0.0466223545372,0.598246514797,-0.000420023192419,-0.996813058853,0.00296021136455,0.079716771841
1505402119295176107,37,1505402119295066751,world,0.460405826569,0.0465687811375,0.60039049387,-0.000557181192562,-0.996810138226,0.00320626166649,0.0797430202365
1505402119304553106,38,1505402119304341878,world,0.460550278425,0.0464287102222,0.602653264999,-0.000244598544668,-0.996798157692,0.0035151860211,0.0798814147711
1505402119324933702,39,1505402119324734885,world,0.460895955563,0.0461583547294,0.605118513107,-0.000368172564777,-0.996856272221,0.00391407590359,0.0791333690286
1505402119324939334,40,1505402119324770623,world,0.461071372032,0.0460908450186,0.607335627079,-0.000718262279406,-0.996869325638,0.00475856941193,0.0789204835892
1505402119335133518,41,1505402119335021324,world,0.461392074823,0.0463931262493,0.609498918056,-0.00121969613247,-0.996894299984,0.00321496534161,0.0786767303944
1505402119354567667,42,1505402119354419522,world,0.461612582207,0.0465978272259,0.611958384514,-0.00106364954263,-0.996874153614,0.00169837858994,0.0789810121059
1505402119354571313,43,1505402119354441579,world,0.46175044775,0.0467460937798,0.614134073257,-0.000377928867238,-0.996847450733,0.00118771230336,0.0793318971992
1505402119364989582,44,1505402119364857561,world,0.46206343174,0.0468419864774,0.616502165794,-0.000612253090367,-0.996861994267,-0.000254846294411,0.0791571363807
1505402119375183361,45,1505402119375042135,world,0.462279826403,0.0466135516763,0.61880838871,-0.000594556622673,-0.996876358986,0.000958272081334,0.0789707228541
1505402119384470773,46,1505402119384312498,world,0.462495565414,0.0466345734894,0.621034026146,-0.000856367929373,-0.996881425381,0.000635149481241,0.0789071023464
1505402119394845126,47,1505402119394643639,world,0.462736189365,0.0465939678252,0.623193025589,-0.000916701799724,-0.996903955936,0.000782829418313,0.0786194503307
1505402119405108957,48,1505402119404917436,world,0.462857216597,0.0465838946402,0.625228643417,-0.000732123793568,-0.996889173985,0.00127207429614,0.0788025632501
1505402119424490246,49,1505402119424315981,world,0.463062047958,0.0466169156134,0.62737506628,-0.000933881790843,-0.996934235096,0.00115928880405,0.0782289579511
1505402119424494084,50,1505402119424331584,world,0.463158637285,0.0467452742159,0.62948423624,-0.000602542830165,-0.996919035912,0.000895823526662,0.0784306228161
1505402119434956061,51,1505402119434732477,world,0.463302046061,0.0467695705593,0.631765663624,-0.000260765547864,-0.996856033802,0.000381082092645,0.0792333334684
1505402119445326193,52,1505402119444953820,world,0.46350851655,0.0467071868479,0.634041786194,-0.00063688843511,-0.996857881546,-0.000204843599931,0.0792078375816
1505402119454291661,53,1505402119454166277,world,0.46373090148,0.046408046037,0.636172056198,-0.00087963079568,-0.996905863285,0.00116595183499,0.0785910189152
1505402119464582968,54,1505402119464410923,world,0.463905394077,0.0463838502765,0.63830280304,-0.000819298555143,-0.996913731098,0.00138626131229,0.0784876719117
1505402119474824381,55,1505402119474649641,world,0.463943302631,0.0465684942901,0.640513837337,-0.000477066234453,-0.996871888638,0.000442575663328,0.079031072557
1505402119485073753,56,1505402119484875144,world,0.464063853025,0.0466725230217,0.642502367496,-0.000959359516855,-0.99690759182,0.00070664647501,0.078573487699
1505402119495290842,57,1505402119495091699,world,0.464317142963,0.0466120317578,0.644932985306,-0.00139350024983,-0.996886789799,1.75273435161e-05,0.0788337737322
1505402119504557871,58,1505402119504353092,world,0.464526504278,0.0464908145368,0.647218108177,-0.000814474828076,-0.996871471405,0.000212195751374,0.0790346115828
1505402119514659505,59,1505402119514533495,world,0.464687108994,0.0465207248926,0.649318754673,-0.000262901274255,-0.996887207031,0.000355596275767,0.0788401141763
1505402119525137467,60,1505402119524959393,world,0.465030908585,0.0465377271175,0.651526451111,-0.000635049305856,-0.996929943562,-0.000208728743019,0.078295879066
1505402119534195133,61,1505402119534115527,world,0.465249300003,0.0466072410345,0.65353679657,-0.00107205507811,-0.99692350626,-0.000402515404858,0.078372746706
1505402119544578754,62,1505402119544392067,world,0.465494155884,0.0466412827373,0.655532419682,-0.00169532326981,-0.996932387352,-0.000432294240454,0.0782471001148
1505402119554805129,63,1505402119554607099,world,0.465568453074,0.0465262420475,0.657825410366,-0.00148594996426,-0.996861815453,-0.000315771787427,0.0791474878788
1505402119564996811,64,1505402119564833151,world,0.465666919947,0.0463325977325,0.659885764122,-0.00102701806463,-0.996862232685,0.000704178353772,0.0791463404894
1505402119575273333,65,1505402119575098891,world,0.46585932374,0.0463007204235,0.661915004253,-0.0010940679349,-0.996876358986,0.000683595368173,0.0789670869708
1505402119584547700,66,1505402119584339684,world,0.466085165739,0.0463271811604,0.663983821869,-0.00101342750713,-0.996860206127,0.000465924764285,0.0791740342975
1505402119594636532,67,1505402119594542987,world,0.466169118881,0.0464968122542,0.665934205055,-0.000929378846195,-0.99683201313,0.00060710334219,0.0795282125473
1505402119605052881,68,1505402119604819919,world,0.46648094058,0.046217892319,0.667998552322,-0.00113045598846,-0.996887147427,0.00220834207721,0.0788022503257
1505402119615192089,69,1505402119615065569,world,0.466674983501,0.0460658110678,0.670181751251,-0.000953637121711,-0.996871113777,0.00230807787739,0.0790052264929
1505402119634671861,70,1505402119634468596,world,0.466784536839,0.0462885051966,0.672085940838,-0.00117218180094,-0.996876060963,0.00179934257176,0.0789528861642
1505402119634675537,71,1505402119634486150,world,0.466868877411,0.0463796630502,0.67421412468,-0.00114614900667,-0.9968739748,0.00125021953136,0.0789897441864
1505402119644949662,72,1505402119644710970,world,0.466961711645,0.0463815480471,0.676367163658,-0.000966914638411,-0.996826827526,0.00125591945834,0.0795855969191
1505402119655002924,73,1505402119654901619,world,0.467164158821,0.0462556518614,0.678513586521,-0.000789664860349,-0.996821522713,0.00147632567678,0.0796488001943
1505402119664284302,74,1505402119664099495,world,0.467272132635,0.0463327877223,0.680641233921,-0.000485132593894,-0.99682790041,0.000864209257998,0.0795813202858
1505402119674489048,75,1505402119674335264,world,0.467510193586,0.0464588329196,0.68270868063,-0.000490408856422,-0.996843099594,-0.000137366776471,0.0793952122331
1505402119695006734,76,1505402119694739342,world,0.467787444592,0.046343266964,0.684808671474,-0.000690155487973,-0.996899604797,-7.41409712646e-06,0.0786807909608
1505402119695022006,77,1505402119694767688,world,0.467942029238,0.0463232547045,0.687013983727,-0.000695793016348,-0.99687474966,0.000342003680998,0.07899428159
1505402119705189216,78,1505402119705044662,world,0.468088179827,0.0464071072638,0.688924968243,-0.000709854997694,-0.996843576431,-3.17942867696e-05,0.0793875232339
1505402119716672749,79,1505402119716523232,world,0.46832844615,0.0463507547975,0.691075384617,-0.000682154961396,-0.996858179569,-0.000162401396665,0.0792044922709
1505402119724936096,80,1505402119724797028,world,0.468459188938,0.0463666990399,0.693225264549,-0.000167337915627,-0.996805489063,-0.000738487578928,0.0798649266362
1505402119735179059,81,1505402119735044407,world,0.468575507402,0.0463130511343,0.695128083229,-1.17094969028e-05,-0.996811687946,-0.000373960123397,0.0797892212868
1505402119754624702,82,1505402119754460074,world,0.468805789948,0.0461773909628,0.697113513947,-0.000448480335763,-0.996851921082,0.000612749019638,0.0792815163732
1505402119754628489,83,1505402119754502006,world,0.469066411257,0.046179369092,0.699350357056,-0.000790818769019,-0.996818780899,0.000153018976562,0.0796977654099
1505402119765115056,84,1505402119764867305,world,0.469242364168,0.0462556220591,0.70131456852,-0.00084998877719,-0.996830463409,-7.21020769561e-05,0.0795508101583
1505402119784608701,85,1505402119784318797,world,0.469462662935,0.04622951895,0.703472852707,-0.000847096554935,-0.996879160404,-0.000199706249987,0.0789385661483
1505402119784615216,86,1505402119784339482,world,0.469636797905,0.0462976023555,0.705635011196,-0.000423467106884,-0.996845841408,-0.00163643271662,0.0793443620205
1505402119794781932,87,1505402119794653416,world,0.469810307026,0.0463276915252,0.707487165928,-0.000615837052464,-0.996890127659,-0.00169935682788,0.0787828341126
1505402119815301883,88,1505402119815065344,world,0.470025837421,0.0464914031327,0.709575891495,-0.00115587795153,-0.99690669775,-0.00231604860164,0.078551620245
1505402119815305777,89,1505402119815136570,world,0.470218390226,0.0465898029506,0.711739122868,-0.00125407567248,-0.996861457825,-0.00359030184336,0.0790737122297
1505402119824624639,90,1505402119824437585,world,0.470488041639,0.0464522503316,0.713674545288,-0.00139099324588,-0.996909201145,-0.00311598926783,0.0784890502691
1505402119845174617,91,1505402119844951812,world,0.470620691776,0.0464392155409,0.715457320213,-0.00129473244306,-0.996934592724,-0.00276214443147,0.0781802162528
1505402119845185114,92,1505402119844979408,world,0.470766842365,0.0462444797158,0.717567741871,-0.000918492383789,-0.996913254261,-0.00212681293488,0.0784766599536
1505402119854475324,93,1505402119854297436,world,0.470829248428,0.0461461432278,0.719404876232,-0.00107678887434,-0.996915996075,-0.00131358858198,0.0784570723772
1505402119874866029,94,1505402119874694077,world,0.470990002155,0.0461214743555,0.721191108227,-0.0016931979917,-0.996928930283,-0.000922126637306,0.0782877579331
1505402119874873869,95,1505402119874730737,world,0.471130907536,0.0462650470436,0.723156511784,-0.00167444697581,-0.996884167194,-0.00129057804588,0.0788512229919
1505402119885127728,96,1505402119884952588,world,0.471231669188,0.04634193331,0.724936664104,-0.00145319954026,-0.996862530708,-0.00179412600119,0.0791195482016
1505402119904647766,97,1505402119904357010,world,0.471365511417,0.0460834093392,0.726856708527,-0.000971682777163,-0.99686986208,-0.0016333713429,0.079037129879
1505402119904651657,98,1505402119904371614,world,0.471406668425,0.0461460351944,0.728709101677,-0.00061605789233,-0.996830463409,-0.00150509166997,0.0795384794474
1505402119914824527,99,1505402119914591799,world,0.471567004919,0.0462020784616,0.730625450611,-0.000383445818443,-0.996777176857,-0.00182435486931,0.0801987797022
1505402119935159559,100,1505402119934962381,world,0.47189861536,0.0461105033755,0.732392787933,-0.00128141324967,-0.996847093105,-0.00124693638645,0.0793261379004
1505402119935170762,101,1505402119934978181,world,0.471983462572,0.0461869239807,0.734110832214,-0.00141016754787,-0.996838331223,-0.00148017669562,0.0794297531247
1505402119944462532,102,1505402119944336925,world,0.472177147865,0.0460569225252,0.736038804054,-0.000973830465227,-0.996817052364,-0.00202155346051,0.0796914994717
1505402119965126146,103,1505402119964716196,world,0.472306191921,0.0459780544043,0.73781222105,-0.000817841559183,-0.996850252151,-0.000848342431709,0.0792978778481
1505402119965166201,104,1505402119964766644,world,0.472377628088,0.0458668135107,0.739500105381,-0.000580836669542,-0.996864676476,-0.000234092236497,0.0791230127215
1505402119975207861,105,1505402119975055956,world,0.472546070814,0.0459950789809,0.741274833679,-0.000613163807429,-0.996826350689,-0.00115216046106,0.0795958638191
1505402119994694490,106,1505402119994506864,world,0.472750902176,0.046172618866,0.742996633053,-0.00112469051965,-0.996851921082,-0.00186557765119,0.0792560428381
1505402119994698111,107,1505402119994518490,world,0.472996473312,0.0459724478424,0.744719922543,-0.000931476475671,-0.99688243866,-0.00152480928227,0.0788810476661
1505402120004990437,108,1505402120004784529,world,0.473178118467,0.0458399951458,0.746382832527,-0.000736836285796,-0.996909439564,-0.000961987534538,0.0785493552685
1505402120024327549,109,1505402120024210920,world,0.473200470209,0.0457233302295,0.748113811016,-0.000240507491981,-0.996876239777,-9.83546124189e-05,0.0789787843823
1505402120024464881,110,1505402120024344747,world,0.473370492458,0.045481108129,0.749861717224,-0.000102743513708,-0.996910631657,0.000693982699886,0.0785413905978
1505402120034726457,111,1505402120034579295,world,0.473433792591,0.0455294810236,0.751473367214,-0.000179791721166,-0.996914684772,0.00117104686797,0.078483171761
1505402120045008663,112,1505402120044840507,world,0.473578393459,0.0456484220922,0.753222227097,-0.000335946242558,-0.996898412704,0.00040012554382,0.0786967352033
1505402120055116417,113,1505402120055034124,world,0.47380310297,0.045463129878,0.75499612093,-0.000724199460819,-0.9969227314,0.000841258442961,0.0783819109201
1505402120064450348,114,1505402120064290645,world,0.473938465118,0.0454557538033,0.756645858288,-0.000666997861117,-0.996942698956,0.00130839284975,0.0781225040555
1505402120084883793,115,1505402120084685773,world,0.474064856768,0.045404676348,0.758501410484,-0.000307726848405,-0.996912479401,0.000684957776684,0.0785169973969
1505402120084894817,116,1505402120084707574,world,0.474140822887,0.045430470258,0.760395526886,0.000234815233853,-0.996887505054,0.000607867375948,0.0788344070315
1505402120095061303,117,1505402120094940186,world,0.474279940128,0.0454994291067,0.762130320072,0.000349720678059,-0.996913671494,0.000220093425014,0.0785046592355
1505402120114453580,118,1505402120114308997,world,0.474528491497,0.045368000865,0.763975143433,2.0275823772e-05,-0.996924698353,0.000293306919048,0.0783643722534
1505402120114478155,119,1505402120114331748,world,0.474681913853,0.0456259399652,0.765719115734,-0.000162169511896,-0.996909677982,-0.00110275088809,0.07854783535
1505402120124938179,120,1505402120124767276,world,0.474929004908,0.0455283895135,0.767352461815,-0.000600391125772,-0.996959626675,-0.00118124682922,0.0779084786773
1505402120135222821,121,1505402120135082856,world,0.475140333176,0.0454636476934,0.768997251987,-0.00038194222725,-0.996966302395,-0.000764593074564,0.0778290256858
1505402120144413131,122,1505402120144268113,world,0.475281655788,0.0453805886209,0.770620882511,-2.45302799158e-05,-0.996977210045,-3.89670749428e-05,0.0776945501566
1505402120154631994,123,1505402120154481354,world,0.475414097309,0.0451211370528,0.772282481194,0.00034305988811,-0.996977686882,0.000634564785287,0.0776854977012
1505402120175036085,124,1505402120174863925,world,0.475508123636,0.0451173149049,0.773847699165,0.000311546871671,-0.997006356716,0.00116402329877,0.0773101076484
1505402120175063455,125,1505402120174880093,world,0.475637316704,0.0451377741992,0.775461316109,7.54590073484e-05,-0.997007548809,0.000582950597163,0.0773016810417
1505402120184260530,126,1505402120184092819,world,0.475833684206,0.0451071709394,0.777118861675,-0.000449013779871,-0.997014820576,0.000247342628427,0.077208198607
1505402120204792232,127,1505402120204576101,world,0.475945115089,0.0451160147786,0.778904438019,-0.000678504002281,-0.997022747993,0.000318768376019,0.077103599906
1505402120204954992,128,1505402120204591556,world,0.476161390543,0.0450409688056,0.780555188656,-0.000572477001697,-0.997065246105,0.000164707918884,0.0765537768602
1505402120215030578,129,1505402120214847361,world,0.47620138526,0.0450359173119,0.782258152962,4.40607946075e-05,-0.997040808201,3.37907222274e-05,0.076874114573
1505402120225187726,130,1505402120225049165,world,0.476266920567,0.0450352430344,0.78413182497,0.00019678605895,-0.997019410133,-0.000337556935847,0.0771503821015
1505402120234392585,131,1505402120234236190,world,0.476478934288,0.0449515618384,0.785816550255,9.15477721719e-05,-0.997050344944,-0.000885125424247,0.0767448619008
1505402120244592548,132,1505402120244453811,world,0.476658731699,0.0450519658625,0.787426233292,-0.000294909899822,-0.997073709965,-0.00112862931564,0.0764369592071
1505402120265179383,133,1505402120264949797,world,0.47682890296,0.0452526472509,0.788973927498,-0.000617077806965,-0.997091174126,-0.00193028000649,0.0761906281114
1505402120265196874,134,1505402120264963290,world,0.476886630058,0.0451490692794,0.790729045868,-0.000429569277912,-0.997062325478,-0.00196640263312,0.0765686482191
1505402120274375209,135,1505402120274247569,world,0.476907491684,0.0451680794358,0.792256832123,-1.3351045709e-05,-0.997027993202,-0.00165041943546,0.0770225673914
1505402120294966331,136,1505402120294702626,world,0.477019190788,0.0449750348926,0.793871998787,0.000412847002735,-0.99700075388,-0.00121174450032,0.0773815140128
1505402120294976573,137,1505402120294715375,world,0.477127701044,0.0450726859272,0.79535651207,0.00029049438308,-0.996992230415,-0.00158871873282,0.0774841755629
1505402120305142651,138,1505402120304970295,world,0.477406471968,0.0448959581554,0.796872019768,-0.000172051819391,-0.997039735317,-0.00111521570943,0.0768799260259
1505402120324728131,139,1505402120324545544,world,0.477624297142,0.0448781177402,0.79821908474,-0.00055794470245,-0.997066736221,-0.00103189225774,0.0765284523368
1505402120324738210,140,1505402120324565498,world,0.477682650089,0.0448917262256,0.799529492855,-0.000627367408015,-0.997079610825,-0.000347743654856,0.0763654485345
1505402120335098241,141,1505402120334946380,world,0.47786167264,0.0446530655026,0.800875008106,-0.00061727501452,-0.997098565102,0.000349884765455,0.0761179104447
1505402120354537941,142,1505402120354319206,world,0.477976351976,0.0446212105453,0.802456080914,-0.000364665145753,-0.997073292732,6.6266329668e-05,0.076451048255
1505402120354552103,143,1505402120354370335,world,0.478038370609,0.0448187552392,0.803781867027,-0.000279910920653,-0.997076928616,-8.50846699905e-05,0.0764032006264
1505402120365060198,144,1505402120364714825,world,0.47806853056,0.0446314960718,0.805232346058,7.01964672771e-05,-0.997047424316,0.000407493091188,0.0767876207829
1505402120384379942,145,1505402120384124445,world,0.478136181831,0.0447015576065,0.806653678417,-0.000133678200655,-0.997032225132,0.000474710483104,0.0769834071398
1505402120384406472,146,1505402120384139908,world,0.478318333626,0.0445388704538,0.808262884617,-0.000283607892925,-0.997000515461,0.000608797708992,0.0773922726512
1505402120394675733,147,1505402120394531024,world,0.478428333998,0.0444454625249,0.80975663662,-0.00056374486303,-0.997002959251,0.000661368947476,0.0773581713438
1505402120415219070,148,1505402120414984835,world,0.478526443243,0.0446368902922,0.811136126518,-0.000495137879625,-0.996991872787,5.01711620018e-05,0.0775048136711
1505402120415225588,149,1505402120414997434,world,0.47863304615,0.0446805544198,0.812556505203,-0.000304003391648,-0.996990203857,-0.000204461946851,0.0775272622705
1505402120424431950,150,1505402120424260759,world,0.478707522154,0.0448913909495,0.813876867294,-9.23628176679e-05,-0.996994495392,-0.000748717051465,0.0774688273668
1505402120434674261,151,1505402120434476101,world,0.478954404593,0.0446482822299,0.815378904343,-0.000442154560005,-0.997040688992,-0.000121379438497,0.0768741443753
1505402120444884836,152,1505402120444721180,world,0.479057282209,0.0444988459349,0.816710233688,-0.000453073706012,-0.997034490108,0.000240959008806,0.0769534930587
1505402120455180068,153,1505402120454996313,world,0.479208379984,0.0445370562375,0.817912220955,-0.000835606479086,-0.99706608057,0.000636397511698,0.0765384584665
1505402120464594759,154,1505402120464234767,world,0.479291439056,0.0445260331035,0.819201290607,-0.00069591141073,-0.997065365314,0.000654267263599,0.076549500227
1505402120474598365,155,1505402120474480092,world,0.479454606771,0.0443575941026,0.820605039597,-0.000608488044236,-0.997081279755,0.00105960911606,0.0763380154967
1505402120484933270,156,1505402120484750488,world,0.479585111141,0.0443905517459,0.821832001209,-0.000529057928361,-0.997092723846,0.00110619561747,0.0761878415942
1505402120495044403,157,1505402120494945867,world,0.479627579451,0.0444423891604,0.822991251945,-0.000415554241044,-0.99707710743,0.000989588210359,0.0763937681913
1505402120504372623,158,1505402120504136964,world,0.479545265436,0.0445696376264,0.824186742306,-0.000237954387558,-0.997033774853,0.00118989194743,0.0769554153085
1505402120514527603,159,1505402120514390351,world,0.479615449905,0.0446370430291,0.825490355492,-7.39151728339e-05,-0.997000992298,0.000665060128085,0.0773856267333
1505402120525001269,160,1505402120524793445,world,0.479823619127,0.044572904706,0.826863825321,-0.00028052739799,-0.997027933598,0.000635638949461,0.0770379602909
1505402120535148566,161,1505402120535017240,world,0.47992375493,0.0446099936962,0.82825756073,-0.0003974873689,-0.99703502655,0.000215775318793,0.0769471004605
1505402120544525423,162,1505402120544367506,world,0.479981929064,0.0446256287396,0.829525768757,-0.000426377402619,-0.99703347683,-0.000182816234883,0.0769678279757
1505402120554735669,163,1505402120554588098,world,0.480211913586,0.0445079132915,0.830869317055,-0.000589322473388,-0.997085869312,0.000473546126159,0.0762834325433
1505402120565034054,164,1505402120564839132,world,0.480283558369,0.044451277703,0.832128763199,-0.000724050798453,-0.997104048729,0.000670182227623,0.076043240726
1505402120575188373,165,1505402120575058744,world,0.480445921421,0.0445064678788,0.833628594875,-0.000687366700731,-0.997063040733,-0.000527189578861,0.0765809714794
1505402120584488920,166,1505402120584291771,world,0.480589330196,0.0447365455329,0.834845662117,-0.0007601485122,-0.99708211422,-0.000903790816665,0.0763269290328
1505402120594720050,167,1505402120594559511,world,0.480643540621,0.0447321496904,0.836156308651,-0.000607636291534,-0.997077584267,-0.000923761574086,0.0763878151774
1505402120605024403,168,1505402120604833468,world,0.480688750744,0.0445586033165,0.837413012981,-0.000470332743134,-0.997094810009,-0.000572176009882,0.0761676207185
1505402120615216687,169,1505402120615088868,world,0.480725258589,0.044513605535,0.838564455509,-0.000442436285084,-0.997098207474,-0.00029513987829,0.0761240944266
1505402120624530764,170,1505402120624352665,world,0.480878949165,0.0445562377572,0.839831829071,-0.000782937335316,-0.997094452381,-0.000514361308888,0.0761696100235
1505402120634741172,171,1505402120634563909,world,0.480958551168,0.044766638428,0.84098225832,-0.000664176943246,-0.997076451778,-0.00089449621737,0.0764024630189
1505402120645070905,172,1505402120644819653,world,0.481105268002,0.0446816645563,0.842100679874,-0.000699862197507,-0.997083842754,-0.000755086890422,0.0763063281775
1505402120655211633,173,1505402120655046166,world,0.481226235628,0.0445238538086,0.843275547028,-0.000444203033112,-0.997084498405,-0.000305328023387,0.0763032212853
1505402120664414748,174,1505402120664251001,world,0.481335878372,0.0445075817406,0.844333589077,-0.000426786020398,-0.997131168842,-0.000132482353365,0.0756913498044
1505402120674610514,175,1505402120674451589,world,0.481453597546,0.0444297268987,0.84551525116,-0.000330745358951,-0.997129201889,-0.000278618565062,0.0757171884179
1505402120684874091,176,1505402120684718568,world,0.481498003006,0.0445489995182,0.846565902233,-0.00039182335604,-0.997111439705,-0.000433816661825,0.075950242579
1505402120695264899,177,1505402120695051330,world,0.481563806534,0.0446205325425,0.847770035267,-0.000394261762267,-0.997075974941,-0.00051318568876,0.0764140859246
1505402120704536336,178,1505402120704348647,world,0.481770336628,0.0445079579949,0.848935306072,-0.000835727551021,-0.997104346752,-0.000247333926382,0.0760411471128
1505402120714723675,179,1505402120714553784,world,0.481817185879,0.0446010828018,0.850017488003,-0.000985218095593,-0.997095763683,-0.000402187637519,0.0761501863599
1505402120724933318,180,1505402120724784893,world,0.481863290071,0.0445200912654,0.851043701172,-0.000875975179952,-0.997102677822,-0.00021831979393,0.0760620459914
1505402120735148950,181,1505402120735035675,world,0.481956362724,0.0445253141224,0.852197110653,-0.000798766966909,-0.997102081776,-0.000997640425339,0.0760649517179
1505402120744434501,182,1505402120744287402,world,0.482063740492,0.0446065180004,0.85332930088,-0.000620956649072,-0.997112333775,-0.00149977172259,0.0759231075644
1505402120754678174,183,1505402120754523842,world,0.482204824686,0.0445304997265,0.854394972324,-0.000417753093643,-0.997141838074,-0.00137955299579,0.0755389556289
1505402120764902846,184,1505402120764710323,world,0.482292741537,0.0446013025939,0.855342388153,-0.000422406475991,-0.997179508209,-0.00100948452018,0.0750449821353
1505402120775238979,185,1505402120774961952,world,0.482343316078,0.0445259846747,0.85634803772,-0.000422571552917,-0.997172355652,-0.000983380130492,0.0751403048635
1505402120784383135,186,1505402120784207527,world,0.482346594334,0.0445626415312,0.85729688406,-0.000554918078706,-0.997142791748,-0.00105823273771,0.0755297616124
1505402120794640672,187,1505402120794484975,world,0.482366740704,0.0446608029306,0.858306646347,-0.000563393696211,-0.99708968401,-0.00121788412798,0.0762246400118
1505402120804956837,188,1505402120804740591,world,0.48240762949,0.0446962341666,0.859455764294,-0.00059034669539,-0.997036874294,-0.0018315090565,0.0769008174539
1505402120815153279,189,1505402120814988059,world,0.482442706823,0.0446680039167,0.860471129417,-0.000471438950626,-0.997035682201,-0.00198772945441,0.0769139006734
1505402120824342201,190,1505402120824193830,world,0.48248526454,0.0447525978088,0.86145401001,-0.000385323335649,-0.997057557106,-0.00248510017991,0.07661485672
1505402120834572683,191,1505402120834405782,world,0.482594937086,0.044642187655,0.862402975559,-0.000563936657272,-0.997097849846,-0.00236564432271,0.0760917216539
1505402120844785376,192,1505402120844626108,world,0.482670426369,0.0447030104697,0.863394379616,-0.000462850352051,-0.997103512287,-0.00278419372626,0.0760039314628
1505402120855063389,193,1505402120854874696,world,0.482769399881,0.044791251421,0.864402651787,-0.000502116628923,-0.997092247009,-0.00299109332263,0.0761437267065
1505402120865260118,194,1505402120865110533,world,0.48295789957,0.0446334071457,0.865482807159,-0.000718977011275,-0.997104883194,-0.00285241473466,0.0759823173285
1505402120874524666,195,1505402120874335831,world,0.48297482729,0.0446322597563,0.866411209106,-0.000371117610484,-0.997081100941,-0.0023195608519,0.0763130560517
1505402120884702343,196,1505402120884543295,world,0.48306825757,0.0445833168924,0.867388248444,-0.000437213981058,-0.997057914734,-0.00247304467484,0.0766108110547
1505402120894978044,197,1505402120894767221,world,0.483094930649,0.0445145964622,0.868359744549,-0.000312032498186,-0.997028291225,-0.00241868686862,0.076998077333
1505402120905101147,198,1505402120904986773,world,0.483201622963,0.0445841550827,0.869176626205,-0.000711819448043,-0.997062146664,-0.00208559865132,0.0765657052398
1505402120914343298,199,1505402120914188804,world,0.483268290758,0.0445190183818,0.870083451271,-0.000694653368555,-0.997055232525,-0.00217236485332,0.0766532197595
1505402120924533322,200,1505402120924377509,world,0.483302891254,0.0445947647095,0.870835542679,-0.000734433822799,-0.997072279453,-0.00196210690774,0.0764363184571
1505402120934731181,201,1505402120934599435,world,0.483345389366,0.0447066426277,0.871708631516,-0.000694624555763,-0.997057259083,-0.00265553919598,0.0766112133861
1505402120945025628,202,1505402120944869219,world,0.483420222998,0.044645074755,0.872499763966,-0.000511122460011,-0.997053384781,-0.00310566974804,0.0766461417079
1505402120955295499,203,1505402120955134062,world,0.483500987291,0.0446761138737,0.873240351677,-0.000541653658729,-0.997073769569,-0.00294717494398,0.0763863995671
1505402120964519743,204,1505402120964373476,world,0.483542382717,0.044626686722,0.874044775963,-0.000337034580298,-0.997073233128,-0.00261081079952,0.0764071568847
1505402120974812981,205,1505402120974653175,world,0.483602404594,0.0445873960853,0.874807596207,-0.000529049371835,-0.997073888779,-0.0020999929402,0.0764133408666
1505402120985087414,206,1505402120984910964,world,0.483695745468,0.0445071235299,0.875594079494,-0.000619103491772,-0.99708211422,-0.0014418301871,0.0763212740421
1505402120994220627,207,1505402120994092693,world,0.483765572309,0.0444272346795,0.876382291317,-0.000614291464444,-0.997078597546,-0.00160783622414,0.0763634517789
1505402121004600398,208,1505402121004457532,world,0.483819961548,0.0445491299033,0.877273321152,-0.000487036100822,-0.997053921223,-0.00232730875723,0.0766661018133
1505402121014897425,209,1505402121014653391,world,0.483893543482,0.0445660017431,0.878072679043,-0.000485913624289,-0.997059762478,-0.00272939773276,0.0765781775117
1505402121025066077,210,1505402121024897384,world,0.48398950696,0.0444984249771,0.878846406937,-0.000405552535085,-0.997073352337,-0.00314231403172,0.0763851925731
1505402121034247609,211,1505402121034078786,world,0.484002321959,0.0445100069046,0.87950438261,-0.000400241988245,-0.997076928616,-0.00239753257483,0.0763652250171
1505402121044464404,212,1505402121044301291,world,0.484016209841,0.044605858624,0.880153119564,-0.000450782565167,-0.997076570988,-0.0025799991563,0.0763636827469
1505402121054824767,213,1505402121054620410,world,0.484044075012,0.0447075106204,0.880736768246,-0.000665351806674,-0.997064948082,-0.00254047079943,0.0765145197511
1505402121065547595,214,1505402121064975924,world,0.484045952559,0.0444901026785,0.881453573704,-0.000615502009168,-0.997057259083,-0.00200227135792,0.0766312927008
1505402121074341771,215,1505402121074202125,world,0.484158843756,0.0444438718259,0.882143378258,-0.000563398585655,-0.997067391872,-0.00204640883021,0.0764995515347
1505402121084596225,216,1505402121084423648,world,0.484097361565,0.0445881262422,0.882842123508,-0.000166153287864,-0.997031986713,-0.00224933656864,0.0769548937678
1505402121094812528,217,1505402121094642603,world,0.484117001295,0.0447418391705,0.883621096611,-8.25789320515e-05,-0.996993124485,-0.00301315588877,0.0774314105511
1505402121105050499,218,1505402121104862569,world,0.484230697155,0.0447097010911,0.884313821793,-0.000279457162833,-0.996990203857,-0.00329283438623,0.0774575769901
1505402121115251632,219,1505402121115105171,world,0.484284460545,0.0446957983077,0.884981453419,-0.000233947343077,-0.996986031532,-0.00327410944737,0.0775117352605
1505402121124434341,220,1505402121124289004,world,0.484447985888,0.0445998087525,0.885673701763,-0.00026867951965,-0.997050642967,-0.00316735962406,0.0766802802682
1505402121134863968,221,1505402121134499200,world,0.484583109617,0.0446396246552,0.88623213768,-8.75833284226e-05,-0.997107982635,-0.00326403952204,0.0759283006191
1505402121144967749,222,1505402121144770153,world,0.484763592482,0.0445513874292,0.886862337589,-0.000302420579828,-0.997174203396,-0.00259674922563,0.0750794410706
1505402121155217606,223,1505402121155020716,world,0.484820008278,0.0445872731507,0.887520432472,-0.000206954369787,-0.997161209583,-0.003012558911,0.0752359256148
1505402121164460183,224,1505402121164300167,world,0.484869807959,0.0445784777403,0.888078093529,-0.000344090454746,-0.997171759605,-0.00274779344909,0.0751046985388
1505402121174701398,225,1505402121174548547,world,0.484885424376,0.0446207672358,0.888622939587,-0.000622290885076,-0.997149765491,-0.00290139741264,0.0753891766071
1505402121184941121,226,1505402121184790664,world,0.484910100698,0.0446157716215,0.889181315899,-0.000785047421232,-0.997141778469,-0.00326813408174,0.0754783153534
1505402121195233437,227,1505402121195100411,world,0.484929710627,0.0446126535535,0.889753639698,-0.000746205856558,-0.997135519981,-0.00292282178998,0.0755748450756
1505402121204536460,228,1505402121204362913,world,0.484917163849,0.0445955730975,0.890315055847,-0.000566934351809,-0.997111082077,-0.00241994997486,0.0759167969227
1505402121214721216,229,1505402121214586398,world,0.48485776782,0.0444281585515,0.890871703625,-0.000505054544192,-0.997074127197,-0.00132247630972,0.0764276608825
1505402121224901700,230,1505402121224782466,world,0.484773486853,0.0442522726953,0.891421616077,-0.000382185273338,-0.997032046318,-0.000783767725807,0.0769822150469
1505402121235190837,231,1505402121235042014,world,0.484724313021,0.0442204475403,0.891976356506,-0.000369947199943,-0.996989786625,-0.000960356963333,0.0775258019567
1505402121244509904,232,1505402121244279294,world,0.484688222408,0.0443642102182,0.892454087734,-0.000417469564127,-0.996972382069,-0.00112766306847,0.0777470991015
1505402121254728770,233,1505402121254542872,world,0.484805703163,0.044521048665,0.893087148666,-0.000466536905151,-0.996961534023,-0.00225703557953,0.0778614357114
1505402121264903077,234,1505402121264783941,world,0.484881073236,0.0445040613413,0.89351940155,-0.000426549115218,-0.996986567974,-0.00213615735993,0.0775443091989
1505402121275217653,235,1505402121275090714,world,0.484949707985,0.0445484369993,0.893968820572,-0.00046547371312,-0.997014820576,-0.0021700959187,0.0771783366799
1505402121284609567,236,1505402121284376144,world,0.485014557838,0.0445899739861,0.894436657429,-0.000495573680382,-0.997034370899,-0.00247989967465,0.0769159346819
1505402121294795644,237,1505402121294569567,world,0.48513802886,0.0446591340005,0.894838273525,-0.00058615161106,-0.997068524361,-0.00272526498884,0.0764628946781
1505402121305064426,238,1505402121304815692,world,0.485271394253,0.0446984879673,0.895273208618,-0.000745862780605,-0.997105419636,-0.00290771899745,0.0759723260999
1505402121315180282,239,1505402121315042563,world,0.4853720963,0.0446885973215,0.895642220974,-0.00087297137361,-0.997137665749,-0.00286177173257,0.0755482688546
1505402121324487190,240,1505402121324293844,world,0.485408067703,0.0447340197861,0.896075546741,-0.000756461697165,-0.997132480145,-0.00311841303483,0.0756076425314
1505402121334763755,241,1505402121334513574,world,0.485435634851,0.0446127019823,0.896618366241,-0.000575714162551,-0.997113585472,-0.00308763468638,0.075859926641
1505402121344979621,242,1505402121344777452,world,0.485421866179,0.0446317605674,0.896993219852,-0.000638854398858,-0.997102200985,-0.00309282448143,0.0760084465146
1505402121355223183,243,1505402121354999987,world,0.485454082489,0.0446584373713,0.897413372993,-0.000703234865796,-0.99708712101,-0.00324295973405,0.0761978924274
1505402121364456070,244,1505402121364254401,world,0.485444515944,0.0446592308581,0.897738516331,-0.000591687625274,-0.997087597847,-0.003141222056,0.0761973485351
1505402121374643928,245,1505402121374498204,world,0.485490858555,0.0446173138916,0.898067772388,-0.000697142386343,-0.997107326984,-0.00295381457545,0.0759460926056
1505402121384872904,246,1505402121384729257,world,0.485525369644,0.0445968732238,0.898344516754,-0.000768817670178,-0.997119426727,-0.00286872708239,0.0757893025875
1505402121395120063,247,1505402121394996858,world,0.48554572463,0.044502761215,0.898679256439,-0.000773974694312,-0.997144699097,-0.00232063909061,0.0754742622375
1505402121404387273,248,1505402121404237698,world,0.485588759184,0.0445238165557,0.89897185564,-0.000946236250456,-0.997156739235,-0.00207235361449,0.0753210186958
1505402121414676152,249,1505402121414494492,world,0.485762894154,0.0444125905633,0.89933681488,-0.00132406526245,-0.997184813023,-0.00192241661716,0.0749467760324
1505402121424873403,250,1505402121424738735,world,0.485779821873,0.0445498786867,0.899654388428,-0.00154184468556,-0.997159659863,-0.00245039537549,0.0752610042691
1505402121435124000,251,1505402121434983339,world,0.485741823912,0.0447043702006,0.899949967861,-0.00174256716855,-0.997116029263,-0.00310759805143,0.0758085176349
1505402121444335842,252,1505402121444201810,world,0.485740482807,0.0448249131441,0.900279223919,-0.00204853783362,-0.997077941895,-0.00371531280689,0.0762729793787
1505402121454615038,253,1505402121454460479,world,0.485659748316,0.0448911078274,0.900551915169,-0.0022927117534,-0.997035562992,-0.00399046298116,0.0768052861094
1505402121475244845,254,1505402121474939766,world,0.485619008541,0.0449286364019,0.900792121887,-0.00232905894518,-0.997002124786,-0.00409560604021,0.0772305801511
1505402121475262366,255,1505402121474986873,world,0.485647827387,0.0448999814689,0.900914609432,-0.0023754844442,-0.997016191483,-0.00385795487091,0.0770594328642
1505402121484366609,256,1505402121484223861,world,0.485690623522,0.0449615567923,0.901043117046,-0.00233186385594,-0.997040331364,-0.00380051089451,0.0767508372664
1505402121504884503,257,1505402121504685234,world,0.485734045506,0.0448619276285,0.901135802269,-0.00221514818259,-0.997074186802,-0.00364033621736,0.0763207450509
1505402121504890512,258,1505402121504698590,world,0.485816925764,0.0447489544749,0.901150822639,-0.00222927192226,-0.997118890285,-0.00318266265094,0.0757545903325
1505402121515211436,259,1505402121515064417,world,0.485916823149,0.0447491891682,0.901247441769,-0.00213319784962,-0.997153162956,-0.00290836277418,0.0753162577748
1505402121534700748,260,1505402121534524592,world,0.48602193594,0.0447143130004,0.901343941689,-0.00212042895146,-0.997169852257,-0.00276181474328,0.0751016885042
1505402121534704628,261,1505402121534561426,world,0.48608648777,0.0447519049048,0.901505947113,-0.00205122563057,-0.997180104256,-0.00265508727171,0.0749708935618
1505402121545003774,262,1505402121544823085,world,0.48614937067,0.04470731318,0.901597082615,-0.0021498654969,-0.997199177742,-0.00253879930824,0.0747172757983
1505402121564425524,263,1505402121564236094,world,0.48620352149,0.044653609395,0.901694774628,-0.00208772998303,-0.997221648693,-0.00258316122927,0.0744177997112
1505402121564436550,264,1505402121564267916,world,0.486201554537,0.0447811111808,0.901909470558,-0.00214499072172,-0.997209489346,-0.0031726132147,0.0745556429029
1505402121574686156,265,1505402121574519985,world,0.486196547747,0.04481626302,0.902081370354,-0.00215127388947,-0.997198820114,-0.00370248081163,0.0746742486954
1505402121595153713,266,1505402121594953137,world,0.486158967018,0.0450684800744,0.902214944363,-0.00231890496798,-0.997173845768,-0.0046307509765,0.0749502405524
1505402121595188665,267,1505402121594989598,world,0.486138492823,0.0450802370906,0.902320563793,-0.00238283281215,-0.997164487839,-0.00468327803537,0.0750695168972
1505402121604429125,268,1505402121604239068,world,0.486125916243,0.0449030064046,0.902442276478,-0.00236645131372,-0.997149884701,-0.00442662183195,0.0752784460783
1505402121624713397,269,1505402121624581311,world,0.486078649759,0.0450167693198,0.902486383915,-0.00229433435015,-0.997159183025,-0.00411064689979,0.0751758441329
1505402121624716936,270,1505402121624610363,world,0.486099153757,0.0449126027524,0.90252238512,-0.00230818451382,-0.997164964676,-0.00368704227731,0.0751207098365
1505402121634993749,271,1505402121634843900,world,0.486098021269,0.0449554994702,0.902511358261,-0.00231501599774,-0.997160494328,-0.00430768961087,0.075146228075
1505402121654606624,272,1505402121654348904,world,0.486115157604,0.0449983999133,0.902547359467,-0.0022521414794,-0.997153282166,-0.00448463158682,0.0752348899841
1505402121654613768,273,1505402121654363402,world,0.486186265945,0.0448809415102,0.902529299259,-0.00238350289874,-0.997165501118,-0.00423425389454,0.0750825703144
1505402121664778160,274,1505402121664606341,world,0.486190289259,0.0449521318078,0.902446746826,-0.0023198754061,-0.997176587582,-0.0040131486021,0.0749497115612
1505402121674977128,275,1505402121674838177,world,0.486162960529,0.0448903404176,0.902433276176,-0.00242052506655,-0.997169017792,-0.00408583041281,0.0750422552228
1505402121685216656,276,1505402121685039462,world,0.486174225807,0.0448104180396,0.902417182922,-0.00237788748927,-0.99717271328,-0.00382500258274,0.0750084891915
1505402121694393513,277,1505402121694219800,world,0.486152052879,0.0448909699917,0.90238070488,-0.00226494623348,-0.997175574303,-0.00363008491695,0.0749832615256
1505402121704643969,278,1505402121704491703,world,0.486161470413,0.0448720939457,0.902394592762,-0.00230796448886,-0.997169673443,-0.0038580626715,0.0750498250127
1505402121714824778,279,1505402121714679209,world,0.4861138165,0.0448794923723,0.90238982439,-0.00222319387831,-0.99715834856,-0.00400118809193,0.0751944482327
1505402121725045174,280,1505402121724933720,world,0.486099183559,0.0449546724558,0.902378559113,-0.00231038057245,-0.997162401676,-0.00403392361477,0.0751367136836
1505402121734228608,281,1505402121734066407,world,0.486115276814,0.0448555238545,0.902444303036,-0.00237296312116,-0.997164785862,-0.00404667900875,0.0751024857163
1505402121744475466,282,1505402121744320709,world,0.486116170883,0.0448742844164,0.902467250824,-0.00231649517082,-0.99715924263,-0.0040905661881,0.0751757547259
1505402121754733109,283,1505402121754560713,world,0.486127853394,0.044971331954,0.902438819408,-0.00232994696125,-0.997164905071,-0.004185853526,0.0750950947404
1505402121765040004,284,1505402121764832808,world,0.486154019833,0.044898763299,0.902442336082,-0.00232165353373,-0.997168421745,-0.00404272275046,0.0750555768609
1505402121774201889,285,1505402121774049075,world,0.486142396927,0.044949427247,0.902492344379,-0.00231347116642,-0.997160077095,-0.00425479235128,0.0751553624868
1505402121784411236,286,1505402121784271694,world,0.486122518778,0.0449121184647,0.902440071106,-0.00234987074509,-0.997158944607,-0.0042203804478,0.0751718133688
1505402121794692672,287,1505402121794521481,world,0.486152887344,0.0448635518551,0.902437090874,-0.00243801716715,-0.997167944908,-0.00413407152519,0.0750537291169
1505402121805067901,288,1505402121804791717,world,0.486117631197,0.0449054948986,0.902385532856,-0.00238947430626,-0.997171461582,-0.00389381125569,0.0750217810273
1505402121814272507,289,1505402121814076584,world,0.486112833023,0.0448750443757,0.902380287647,-0.0023868214339,-0.997164011002,-0.00394929433241,0.075117610395
1505402121824447958,290,1505402121824306802,world,0.486093372107,0.0449771247804,0.902334630489,-0.00230634980835,-0.997164666653,-0.00409260811284,0.0751044005156
1505402121834588115,291,1505402121834491475,world,0.486093640327,0.0449034236372,0.902294874191,-0.00229878933169,-0.997165322304,-0.00406578322873,0.0750970542431
1505402121844872209,292,1505402121844718308,world,0.486116528511,0.0447693355381,0.902305722237,-0.00234151328914,-0.997162699699,-0.003996363841,0.0751337483525
1505402121855100247,293,1505402121854963153,world,0.486120581627,0.0448707155883,0.902233481407,-0.00236553838477,-0.997171521187,-0.00377017259598,0.0750275626779
1505402121864504998,294,1505402121864168171,world,0.486100822687,0.0448768921196,0.902224898338,-0.00239249202423,-0.997152864933,-0.00389798125252,0.0752685815096
1505402121874493850,295,1505402121874368380,world,0.486106812954,0.0448814108968,0.902173876762,-0.00234852777794,-0.997158229351,-0.00363107235171,0.0752115175128
1505402121884826488,296,1505402121884633426,world,0.486088603735,0.0448752678931,0.902103304863,-0.00246873125434,-0.997159600258,-0.0038213529624,0.0751807838678
1505402121894998507,297,1505402121894811889,world,0.486057162285,0.0448359027505,0.902137458324,-0.00229612435214,-0.997142195702,-0.00397944822907,0.0754078999162
1505402121905225143,298,1505402121905043200,world,0.48601347208,0.04492643103,0.902128696442,-0.00235508941114,-0.997144699097,-0.00408686231822,0.0753668993711
1505402121914377365,299,1505402121914266656,world,0.486062288284,0.044789031148,0.901987850666,-0.00240288279019,-0.997166395187,-0.00400048354641,0.0750823691487
1505402121924711862,300,1505402121924522580,world,0.486080914736,0.04486675933,0.90192091465,-0.00237388256937,-0.997173070908,-0.0040423553437,0.0749921649694
1505402121934951633,301,1505402121934778477,world,0.486081659794,0.0448362864554,0.901824831963,-0.00213684118353,-0.997193098068,-0.00373302702792,0.074749879539
1505402121945204412,302,1505402121945067960,world,0.486110031605,0.0447888858616,0.901674687862,-0.00208513461985,-0.997217297554,-0.00370763288811,0.0744279697537
1505402121954602025,303,1505402121954279462,world,0.486141383648,0.0447351895273,0.901499688625,-0.00205484591424,-0.997250914574,-0.00365907163359,0.0739795789123
1505402121964796369,304,1505402121964607592,world,0.486160010099,0.0446655936539,0.901332974434,-0.00197536312044,-0.997265994549,-0.00369248585775,0.0737774297595
1505402121975001793,305,1505402121974838001,world,0.486211925745,0.0446239747107,0.90107780695,-0.0018641136121,-0.997302830219,-0.00338689540513,0.0732954144478
1505402121985244369,306,1505402121985086131,world,0.486191749573,0.0446289181709,0.900825917721,-0.00163942656945,-0.997318446636,-0.00348892644979,0.0730829462409
1505402121994525318,307,1505402121994393768,world,0.486182242632,0.0444948114455,0.900563895702,-0.00158979662228,-0.997338533401,-0.00302196014673,0.0728307440877
1505402122004840437,308,1505402122004674668,world,0.48610702157,0.0443862825632,0.900377213955,-0.001410639612,-0.997329711914,-0.00246990658343,0.0729755088687
1505402122015060978,309,1505402122014906278,world,0.486042946577,0.0442353971303,0.90030926466,-0.00145599897951,-0.997309446335,-0.00190395838581,0.0732681229711
1505402122024291838,310,1505402122024055091,world,0.485923200846,0.0443113557994,0.90012794733,-0.00136267195921,-0.997264623642,-0.00219351705164,0.0738685503602
1505402122034388180,311,1505402122034276068,world,0.485864460468,0.0443098917603,0.89996188879,-0.00143685308285,-0.997242450714,-0.00213934038766,0.0741680711508
1505402122044675404,312,1505402122044514478,world,0.485788077116,0.0444550402462,0.899830937386,-0.00151699013077,-0.997209072113,-0.0030924892053,0.0745806619525
1505402122054877614,313,1505402122054735171,world,0.485616534948,0.0446574725211,0.899604976177,-0.00113253004383,-0.997137486935,-0.00413740798831,0.0754878222942
1505402122065187180,314,1505402122064974608,world,0.485544323921,0.0447105951607,0.899416863918,-0.00111232930794,-0.997111558914,-0.00480265635997,0.0757906138897
1505402122074483439,315,1505402122074329917,world,0.485519438982,0.0447079539299,0.89915394783,-0.00104792648926,-0.99708789587,-0.00526481121778,0.0760710313916
1505402122084696085,316,1505402122084560076,world,0.485496282578,0.0447114594281,0.898759901524,-0.000885991728865,-0.997096061707,-0.00488851964474,0.0759916529059
1505402122094913552,317,1505402122094776817,world,0.485498547554,0.0446471273899,0.898358941078,-0.000760876282584,-0.99710726738,-0.00451802555472,0.0758688300848
1505402122104928631,318,1505402122104775804,world,0.485492825508,0.0445145741105,0.897834718227,-0.000738148810342,-0.997153699398,-0.00367200560868,0.0753028765321
1505402122115136643,319,1505402122115006986,world,0.485513567924,0.0444382578135,0.897393643856,-0.000725407619029,-0.997179746628,-0.00310561805964,0.074982278049
1505402122124479180,320,1505402122124248783,world,0.485459804535,0.0443401150405,0.896886825562,-0.000518641783856,-0.997183859348,-0.00285813957453,0.0749400109053
1505402122134619591,321,1505402122134456912,world,0.485430151224,0.0445833280683,0.896293580532,-0.000602609477937,-0.997174024582,-0.00340635050088,0.0750475525856
1505402122144896246,322,1505402122144734455,world,0.485391557217,0.0446904860437,0.895737409592,-0.000814456609078,-0.997176110744,-0.00349769787863,0.0750119462609
1505402122155138011,323,1505402122154957212,world,0.485357642174,0.0445969551802,0.895227849483,-0.000799428671598,-0.997170805931,-0.00360998511314,0.0750782340765
1505402122164293876,324,1505402122164144841,world,0.485279768705,0.0445107854903,0.894783735275,-0.000640595913865,-0.997161090374,-0.00340558867902,0.0752178952098
1505402122174563907,325,1505402122174352668,world,0.485198765993,0.0443856008351,0.894169211388,-0.000637012242805,-0.997181415558,-0.00293439207599,0.0749676004052
1505402122184857001,326,1505402122184586776,world,0.485062211752,0.0444664135575,0.893656253815,-0.000492543564178,-0.997156739235,-0.00277027045377,0.0753030329943
1505402122194934954,327,1505402122194796989,world,0.485011518002,0.044443204999,0.89313262701,-0.000320329214446,-0.997145414352,-0.00242971163243,0.0754659697413
1505402122205233168,328,1505402122205053437,world,0.485055238008,0.0443010814488,0.892521619797,-0.000542606459931,-0.997153818607,-0.00222316407599,0.0753587558866
1505402122214456684,329,1505402122214293532,world,0.484978288412,0.0444239377975,0.891926527023,-0.000510813726578,-0.997145473957,-0.0024311139714,0.0754635557532
1505402122224665417,330,1505402122224513783,world,0.484988570213,0.0443396493793,0.891384899616,-0.000540066335816,-0.997144162655,-0.00262115593068,0.0754738599062
1505402122235317169,331,1505402122235201397,world,0.484961420298,0.0444094464183,0.890739440918,-0.000447892583907,-0.997135341167,-0.00330584845506,0.0755641907454
1505402122244697557,332,1505402122244450382,world,0.484928309917,0.0445665791631,0.890066742897,-0.0005740110646,-0.997157096863,-0.00354456878267,0.0752652287483
1505402122254742889,333,1505402122254634924,world,0.484920024872,0.0444357842207,0.889348566532,-0.000556948129088,-0.997178256512,-0.00336729804985,0.0749931633472
1505402122265146905,334,1505402122264913124,world,0.484788030386,0.0445554591715,0.888650894165,-0.00044888452976,-0.997164130211,-0.0033002467826,0.0751832127571
1505402122274226322,335,1505402122274079564,world,0.48473072052,0.0444116443396,0.88802087307,-0.000527536030859,-0.99714922905,-0.0030934389215,0.0753889456391
1505402122284504315,336,1505402122284311240,world,0.484561920166,0.0444803126156,0.887322187424,-0.000196888184291,-0.997102677822,-0.00395690463483,0.0759639143944
1505402122294759297,337,1505402122294554063,world,0.484428107738,0.0447289198637,0.886500418186,-2.5469387765e-05,-0.997101008892,-0.00434625754133,0.0759646967053
1505402122305011971,338,1505402122304839110,world,0.484466761351,0.0445933267474,0.885727643967,-4.10900656789e-06,-0.997130870819,-0.00436788890511,0.0755715146661
1505402122315178281,339,1505402122315060686,world,0.484393447638,0.0446823164821,0.884901046753,0.000168852988281,-0.997126460075,-0.00419606827199,0.0756384953856
1505402122324468660,340,1505402122324279093,world,0.484310179949,0.0447111204267,0.884102642536,-6.09765584159e-06,-0.99712395668,-0.00406488077715,0.0756784081459
1505402122334674944,341,1505402122334511778,world,0.484310358763,0.0446208231151,0.883229970932,-0.000243061527726,-0.997150719166,-0.00358997704461,0.0753494799137
1505402122344850687,342,1505402122344742648,world,0.484132140875,0.0446876175702,0.882201910019,-0.000169748396729,-0.997154772282,-0.00326473871246,0.0753111615777
1505402122355096354,343,1505402122354977826,world,0.484228760004,0.0444682128727,0.881356596947,-0.000764913973399,-0.997189998627,-0.00290107005276,0.0748544037342
1505402122364471439,344,1505402122364259788,world,0.484128296375,0.0444149151444,0.880587637424,-0.000635940872598,-0.997152149677,-0.00250842841342,0.0753717720509
1505402122374733128,345,1505402122374509484,world,0.483978390694,0.0444774143398,0.879822969437,-0.000535763509106,-0.997104465961,-0.0023774637375,0.0760051310062
1505402122384912726,346,1505402122384757005,world,0.483984231949,0.0443589128554,0.879034817219,-0.000397843599785,-0.997089207172,-0.00303766713478,0.0761829167604
1505402122395130265,347,1505402122394949517,world,0.483911722898,0.0444518998265,0.878113865852,-0.000348798203049,-0.997122883797,-0.00337465596385,0.075726762414
1505402122404424436,348,1505402122404196596,world,0.483857899904,0.0446041449904,0.876882433891,-0.000542402616702,-0.997208178043,-0.00328243616968,0.0745971947908
1505402122414553478,349,1505402122414396221,world,0.483840435743,0.0445640198886,0.875987172127,-0.000483231531689,-0.997231245041,-0.00368189718574,0.0742702707648
1505402122424825707,350,1505402122424639239,world,0.483739823103,0.0445647053421,0.875074207783,-0.000186853620107,-0.99722713232,-0.0030497580301,0.074355840683
1505402122435011175,351,1505402122434879508,world,0.483702898026,0.0445725396276,0.874199986458,-0.000101677564089,-0.997212171555,-0.00302985985763,0.0745563656092
1505402122445285688,352,1505402122445123693,world,0.483581334352,0.0446519479156,0.873321831226,-0.000207384655369,-0.997182548046,-0.00307930936106,0.0749495849013
1505402122454511866,353,1505402122454345314,world,0.483459055424,0.0446758009493,0.872443199158,-0.00038994467468,-0.997147858143,-0.00341550982557,0.0753940865397
1505402122464756446,354,1505402122464567530,world,0.48337879777,0.0445319265127,0.871600329876,-0.000537458166946,-0.99711894989,-0.00358125427738,0.0757674798369
1505402122475065209,355,1505402122474894012,world,0.483292520046,0.0446653552353,0.870553970337,-0.000732370594051,-0.997118294239,-0.00339368381537,0.0757830440998
1505402122484293299,356,1505402122484095109,world,0.483201742172,0.0446699894965,0.869598805904,-0.000886903726496,-0.997112810612,-0.00324132619426,0.0758600309491
1505402122494435456,357,1505402122494316554,world,0.483115673065,0.0445308201015,0.868647754192,-0.00064029492205,-0.997082293034,-0.00342398276553,0.0762544348836
1505402122504723100,358,1505402122504558149,world,0.48292952776,0.0446073189378,0.867514073849,-0.000521585461684,-0.997070491314,-0.00335185369477,0.0764131546021
1505402122514924296,359,1505402122514755662,world,0.482860803604,0.0445934571326,0.866462469101,-0.00028474337887,-0.997070848942,-0.0040063704364,0.0763775780797
1505402122534434799,360,1505402122534248890,world,0.482829481363,0.0446701534092,0.865310788155,-0.000316569668939,-0.997121870518,-0.00353654753417,0.0757319778204
1505402122534481460,361,1505402122534285328,world,0.482681572437,0.0448238700628,0.864077627659,-0.000169692691998,-0.997128546238,-0.00355505151674,0.0756428167224
1505402122544714427,362,1505402122544542366,world,0.482619822025,0.0445932596922,0.86300110817,-0.000272557430435,-0.997122466564,-0.00282659544609,0.0757537037134
1505402122554844464,363,1505402122554718778,world,0.482479810715,0.0447274558246,0.86187505722,-0.000533943355549,-0.99710136652,-0.00290086609311,0.0760266631842
1505402122565149191,364,1505402122564990433,world,0.482416808605,0.0447075217962,0.860820233822,-0.000703627243638,-0.997092485428,-0.00303232064471,0.0761376768351
