%time,field.linear.x,field.linear.y,field.linear.z,field.angular.x,field.angular.y,field.angular.z
1505402118945646059,0.126797890573,-0.187971636672,0.155473947525,0.0,0.0,1.38932408576
1505402118995624755,0.126093338156,-0.186740443052,0.155462563038,0.0,0.0,1.38932520535
1505402119045595992,0.126318699681,-0.187267051596,0.155434191227,0.0,0.0,1.38933163126
1505402119095973319,0.125680639493,-0.185813327611,0.155524969101,0.0,0.0,1.38932732136
1505402119145676374,0.126910805465,-0.1881649011,0.155483365059,0.0,0.0,1.38934540106
1505402119195687531,0.126083606234,-0.186856703038,0.155462384224,0.0,0.0,1.38933154946
1505402119245703646,0.12595196736,-0.186424924099,0.155489623547,0.0,0.0,1.38933179984
1505402119295634050,0.126330047495,-0.187079876712,0.155506789684,0.0,0.0,1.38933290643
1505402119345696155,0.126252430004,-0.187042394431,0.155514061451,0.0,0.0,1.38933889913
1505402119395600102,0.126436433632,-0.187514237155,0.155466973782,0.0,0.0,1.38933219333
1505402119445694768,0.126011529359,-0.186665800431,0.155471265316,0.0,0.0,1.38931780711
1505402119495832515,0.126246099449,-0.187036746182,0.155480027199,0.0,0.0,1.38934010304
1505402119545779918,0.126331344047,-0.187008263729,0.155481219292,0.0,0.0,1.38932401617
1505402119595778509,0.126366513346,-0.187153420768,0.155467748642,0.0,0.0,1.38933648289
1505402119645635601,0.126159585129,-0.187015530485,0.15545541048,0.0,0.0,1.38933762101
1505402119695674546,0.126215301394,-0.186790738708,0.15544962883,0.0,0.0,1.38933696416
1505402119745732660,0.125950601016,-0.186538929128,0.155489444733,0.0,0.0,1.38932735128
1505402119795637237,0.126350376253,-0.18719257389,0.155508637428,0.0,0.0,1.3893249002
1505402119845632370,0.126406717811,-0.187355054319,0.155481219292,0.0,0.0,1.38932198926
1505402119895675353,0.1261955138,-0.186916566505,0.155467748642,0.0,0.0,1.38931437343
1505402119945706436,0.125969022401,-0.186475454243,0.155518114567,0.0,0.0,1.38933218542
1505402119995630376,0.12652048875,-0.187451108671,0.15551930666,0.0,0.0,1.38932530628
1505402120045622563,0.12640117601,-0.187357559344,0.15548235178,0.0,0.0,1.38933424813
1505402120095683883,0.126157859044,-0.186844083329,0.155466735363,0.0,0.0,1.38932995992
1505402120145671764,0.126181270502,-0.186835199879,0.155465602875,0.0,0.0,1.3893352884
1505402120195677970,0.125952148065,-0.186397676478,0.155519843102,0.0,0.0,1.38932456971
1505402120245644845,0.1266709887,-0.18779771742,0.155479848385,0.0,0.0,1.38931535776
1505402120295733844,0.125988235949,-0.186722561501,0.155480802059,0.0,0.0,1.38931294397
1505402120345714751,0.126201528417,-0.186770889994,0.155502080917,0.0,0.0,1.38932805347
1505402120395759024,0.12634797844,-0.187142061847,0.15550249815,0.0,0.0,1.38932847932
1505402120445647180,0.12608624744,-0.18679064113,0.155533850193,0.0,0.0,1.38933081241
1505402120495714295,0.126578519037,-0.187558394373,0.155496656895,0.0,0.0,1.38932089577
1505402120545825643,0.126084201126,-0.18692722619,0.155488908291,0.0,0.0,1.38932213217
1505402120595679164,0.126368484389,-0.187140182843,0.15545886755,0.0,0.0,1.38932456662
1505402120645645932,0.12598161431,-0.186645270591,0.155469059944,0.0,0.0,1.38931334738
1505402120695681640,0.126286074456,-0.187012153591,0.15547567606,0.0,0.0,1.38931503878
1505402120745859643,0.126238964731,-0.186875574992,0.155481398106,0.0,0.0,1.38931471477
1505402120795675565,0.126163124535,-0.187005176524,0.155489683151,0.0,0.0,1.38931777985
1505402120845672703,0.126215155926,-0.187075031622,0.155497252941,0.0,0.0,1.38931084482
1505402120895692646,0.126236121725,-0.187013124038,0.155510365963,0.0,0.0,1.3893318088
1505402120945616357,0.126283903051,-0.187053244825,0.1555134058,0.0,0.0,1.38932679022
1505402120995709541,0.126273931072,-0.187005039334,0.155512928963,0.0,0.0,1.38932883588
1505402121045636196,0.126457253426,-0.187332924227,0.155470430851,0.0,0.0,1.38932069048
1505402121095687396,0.125969784919,-0.186764767544,0.155473530293,0.0,0.0,1.38931409304
1505402121145782826,0.12625237698,-0.186847528517,0.155483901501,0.0,0.0,1.38932305997
1505402121195652125,0.126152680457,-0.18687863017,0.155498087406,0.0,0.0,1.38930939848
1505402121245720621,0.126380525211,-0.187225797901,0.155480146408,0.0,0.0,1.38930944326
1505402121295704352,0.126046818163,-0.18678400605,0.155496299267,0.0,0.0,1.38931878957
1505402121345724100,0.126298064247,-0.187004509432,0.155502438545,0.0,0.0,1.3893267353
1505402121395680776,0.126348219896,-0.187098945227,0.155496120453,0.0,0.0,1.38932057013
1505402121445673702,0.126149636903,-0.186899496505,0.155501782894,0.0,0.0,1.38931756085
1505402121495730595,0.126440821911,-0.187473397839,0.155469536781,0.0,0.0,1.38932249434
1505402121545725347,0.125910984226,-0.186419509366,0.155499696732,0.0,0.0,1.38931687789
1505402121595650519,0.12652982718,-0.187445656115,0.155475616455,0.0,0.0,1.38932280094
1505402121645797854,0.125943848372,-0.186551336833,0.155504643917,0.0,0.0,1.38931848626
1505402121695663417,0.12659303019,-0.187602103284,0.155462741852,0.0,0.0,1.38932066993
1505402121745684725,0.125764378773,-0.186309975257,0.155506193638,0.0,0.0,1.38931422771
1505402121795698000,0.126415220745,-0.187171519749,0.155522465706,0.0,0.0,1.38932872783
1505402121845675832,0.126253986877,-0.186964532528,0.155543744564,0.0,0.0,1.38933249279
1505402121895633967,0.126496036476,-0.187411413752,0.155513226986,0.0,0.0,1.38932380444
1505402121945633090,0.126230978153,-0.186984190382,0.155491173267,0.0,0.0,1.38931344106
1505402121995663372,0.126031787618,-0.186706132272,0.155499696732,0.0,0.0,1.38930887221
1505402122045776195,0.12632953894,-0.187102515407,0.155496001244,0.0,0.0,1.3893161515
1505402122095713543,0.126316649806,-0.187174938535,0.155475854874,0.0,0.0,1.38931887667
1505402122145702567,0.126129829265,-0.187016424227,0.155462265015,0.0,0.0,1.3893148327
1505402122195659059,0.126244934449,-0.186930804716,0.155452668667,0.0,0.0,1.38931480374
1505402122245648785,0.126047891809,-0.186776284442,0.155474841595,0.0,0.0,1.38931794103
1505402122295653094,0.126368195566,-0.187304146552,0.155466914177,0.0,0.0,1.38931938881
1505402122345737693,0.126236613793,-0.18686306063,0.155467033386,0.0,0.0,1.38931966904
1505402122395627327,0.126045832972,-0.186627552106,0.155497252941,0.0,0.0,1.38931301039
1505402122445913190,0.126510185296,-0.187419538013,0.155476033688,0.0,0.0,1.38930898033
1505402122495701107,0.126045177338,-0.186684054493,0.155497133732,0.0,0.0,1.38931697483
1505402122545669136,0.126254785567,-0.186828775634,0.155517756939,0.0,0.0,1.38931187242
1505402122595649528,0.126282646532,-0.186920525989,0.155532598495,0.0,0.0,1.38930231185
1505402122645722960,0.126377327157,-0.187422476383,0.155508697033,0.0,0.0,1.38931231008
1505402122695670852,0.1262395863,-0.187239507453,0.155474960804,0.0,0.0,1.38931567015
1505402122745641859,0.125900129465,-0.186333147756,0.155509531498,0.0,0.0,1.38931088667
1505402122795593095,0.126281650544,-0.187070190248,0.155535519123,0.0,0.0,1.38930961076
1505402122845682942,0.126628388333,-0.187667541269,0.155487477779,0.0,0.0,1.38930791672
1505402122895719168,0.126030808249,-0.186595250091,0.155481219292,0.0,0.0,1.38930992911
1505402122945739975,0.126175448893,-0.18664481302,0.155505955219,0.0,0.0,1.3893090098
1505402122995662186,0.126263082422,-0.187087066443,0.155513703823,0.0,0.0,1.38930942141
1505402123045613401,0.126425693767,-0.187386230459,0.155488431454,0.0,0.0,1.38930922719
1505402123095672152,0.126092941259,-0.187012973697,0.155472874641,0.0,0.0,1.38931213807
1505402123145652116,0.125979348448,-0.186385780926,0.1555134058,0.0,0.0,1.38931723634
1505402123195644045,0.126507058476,-0.18747093355,0.155508756638,0.0,0.0,1.38932100517
1505402123245693926,0.126170744036,-0.18682383213,0.155505359173,0.0,0.0,1.38932290212
1505402123295753829,0.12623663216,-0.18720457461,0.155496835709,0.0,0.0,1.38930352205
1505402123345684439,0.126199695102,-0.186865796626,0.155496895313,0.0,0.0,1.38931513418
1505402123395736854,0.12637690652,-0.187177436728,0.155468225479,0.0,0.0,1.38931470537
1505402123445666929,0.125855997419,-0.186345605145,0.155514240265,0.0,0.0,1.38931065803
1505402123495734261,0.12668649133,-0.187732662461,0.155476748943,0.0,0.0,1.38931096421
1505402123545638617,0.126027816133,-0.186710524644,0.155470848083,0.0,0.0,1.38931208245
1505402123595635228,0.126051124079,-0.18655623242,0.155510365963,0.0,0.0,1.3893026833
1505402123645599540,0.126533228907,-0.187609859072,0.155490219593,0.0,0.0,1.38932058231
1505402123695678421,0.126163726474,-0.186940068339,0.155467629433,0.0,0.0,1.38929830376
1505402123745586434,0.126087817306,-0.186836981163,0.155472278595,0.0,0.0,1.38932494498
1505402123795709829,0.126091543468,-0.186610518295,0.155510723591,0.0,0.0,1.38932340784
1505402123845690419,0.126492031031,-0.187214025396,0.155508339405,0.0,0.0,1.38931568732
1505402123895716169,0.126219967351,-0.187068182908,0.155503034592,0.0,0.0,1.38929710382
1505402123945680966,0.126088433619,-0.186877024788,0.155507445335,0.0,0.0,1.3892749022
1505402123995694616,0.126402878912,-0.187123625362,0.155491650105,0.0,0.0,1.3892904846
1505402124045720837,0.126047405106,-0.186681756804,0.155511975288,0.0,0.0,1.38930348661
1505402124095652501,0.126458080431,-0.187424041555,0.155480206013,0.0,0.0,1.38929443527
1505402124145711603,0.125843779678,-0.186362834348,0.155521512032,0.0,0.0,1.38929607269
1505402124195712592,0.126538328664,-0.187348724981,0.155511021614,0.0,0.0,1.38930290034
1505402124245634672,0.126077452849,-0.186821323565,0.155519068241,0.0,0.0,1.38930391177
1505402124295877493,0.126450487606,-0.187240188661,0.155498683453,0.0,0.0,1.38928726461
1505402124345655724,0.126078118147,-0.186909609275,0.155499577522,0.0,0.0,1.38929604058
1505402124395681246,0.126373708955,-0.187119684921,0.155485153198,0.0,0.0,1.38930337191
1505402124445721315,0.12611672954,-0.186829679191,0.15548658371,0.0,0.0,1.3892950761
1505402124495552033,0.12619676744,-0.186997196648,0.155497848988,0.0,0.0,1.38931400363
1505402124545649194,0.126204203111,-0.186661932906,0.155528664589,0.0,0.0,1.38929780814
1505402124595755911,0.126236853877,-0.187039228135,0.155542433262,0.0,0.0,1.38929478136
1505402124645645167,0.126432902691,-0.187378949529,0.155512571335,0.0,0.0,1.3892847109
1505402124695717263,0.125982395255,-0.186520895274,0.155528187752,0.0,0.0,1.3892811375
1505402124745649884,0.126141840651,-0.186661775416,0.155563890934,0.0,0.0,1.38928896316
1505402124795716376,0.126541065528,-0.187615958808,0.155532121658,0.0,0.0,1.38927462753
1505402124845666071,0.126205360216,-0.187092396143,0.155500710011,0.0,0.0,1.3892918539
1505402124895663947,0.126147776826,-0.186893175027,0.155489206314,0.0,0.0,1.38928430046
1505402124945622018,0.125943005125,-0.18647115623,0.155525863171,0.0,0.0,1.38927946896
1505402124995625804,0.126770362731,-0.187808899742,0.155471801758,0.0,0.0,1.38927450435
1505402125045609885,0.125967162185,-0.186928455509,0.155448198318,0.0,0.0,1.38926372553
1505402125095671189,0.125692293154,-0.185760955218,0.155534565449,0.0,0.0,1.3892722964
1505402125145651636,0.126586810425,-0.187356782587,0.155555486679,0.0,0.0,1.3892778612
1505402125195597949,0.12636940177,-0.187145617019,0.155549407005,0.0,0.0,1.38926223555
1505402125245681120,0.12643318757,-0.18736555634,0.155508935452,0.0,0.0,1.38928572169
1505402125295637266,0.125650849246,-0.186290242123,0.155559539795,0.0,0.0,1.38926722626
1505402125345667815,0.126518242234,-0.18724953758,0.155569672585,0.0,0.0,1.38928161732
1505402125395740031,0.126569656501,-0.187568281578,0.155518054962,0.0,0.0,1.38928173543
1505402125445770012,0.126039405394,-0.186824782901,0.155492603779,0.0,0.0,1.389274206
1505402125495699129,0.126001815377,-0.186727672386,0.155511319637,0.0,0.0,1.38928990379
1505402125545793877,0.126290003869,-0.186963212508,0.155514597893,0.0,0.0,1.38927871022
1505402125595794420,0.126055337526,-0.186567443276,0.155547380447,0.0,0.0,1.38927852612
1505402125645694544,0.126635802899,-0.187967640174,0.155488848686,0.0,0.0,1.38928485473
1505402125695672712,0.125861398151,-0.186361497241,0.155509889126,0.0,0.0,1.38928137125
1505402125745714285,0.126227482604,-0.186818679861,0.155535638332,0.0,0.0,1.38927053266
1505402125795638818,0.126523044714,-0.18739756654,0.155517876148,0.0,0.0,1.38926822883
1505402125845658645,0.126240982881,-0.186906401383,0.155508816242,0.0,0.0,1.3892756963
1505402125895600083,0.126103778586,-0.186671179749,0.15552932024,0.0,0.0,1.38926833005
1505402125945654533,0.126368448537,-0.187051259594,0.155528008938,0.0,0.0,1.38927635249
1505402125995693980,0.126263266001,-0.187255141586,0.155509829521,0.0,0.0,1.38926817814
1505402126045781086,0.126154476123,-0.18697472138,0.155494511127,0.0,0.0,1.38927173756
1505402126095683041,0.126130639558,-0.186859126122,0.155496299267,0.0,0.0,1.38927053631
1505402126145854702,0.126056581381,-0.186533493473,0.155547082424,0.0,0.0,1.38927467545
1505402126195601964,0.1266546899,-0.187520923509,0.155522048473,0.0,0.0,1.38927547231
1505402126245760542,0.125997860502,-0.186547631131,0.155536770821,0.0,0.0,1.38926543069
1505402126295731849,0.126374346506,-0.187258606889,0.155526161194,0.0,0.0,1.38926220173
1505402126345715200,0.126289028483,-0.187185345524,0.155506908894,0.0,0.0,1.3892719226
1505402126396008786,0.125980889613,-0.186430800304,0.155544161797,0.0,0.0,1.38927156999
1505402126445743786,0.126667789171,-0.187792249249,0.155496954918,0.0,0.0,1.38927876262
1505402126495712514,0.126040633711,-0.186638983226,0.155488908291,0.0,0.0,1.38926790277
1505402126545711367,0.126091354636,-0.186917505549,0.155489206314,0.0,0.0,1.38927274298
1505402126595668609,0.125977985524,-0.186521058689,0.155537426472,0.0,0.0,1.38926919099
1505402126645669803,0.126494326301,-0.187194060053,0.15554523468,0.0,0.0,1.38927084255
1505402126695663690,0.126179796164,-0.186902380519,0.155553400517,0.0,0.0,1.38925633109
1505402126745581318,0.126487166113,-0.187386984553,0.155529677868,0.0,0.0,1.38926987008
1505402126795603773,0.12617434726,-0.186946232131,0.155508160591,0.0,0.0,1.38926123048
1505402126845681389,0.126169709605,-0.186540386884,0.155526399612,0.0,0.0,1.38926871151
1505402126895667714,0.126207955976,-0.186853882731,0.155550718307,0.0,0.0,1.3892706995
1505402126945904613,0.126510152613,-0.187386877103,0.155533850193,0.0,0.0,1.38926635782
1505402126995635078,0.126073317746,-0.186708410076,0.155538856983,0.0,0.0,1.38926131471
1505402127045801385,0.12624064013,-0.186878983067,0.155544519424,0.0,0.0,1.38925741058
1505402127095718167,0.126144226584,-0.186942379434,0.155565321445,0.0,0.0,1.38926726164
1505402127145646226,0.126683556208,-0.187891017788,0.155499696732,0.0,0.0,1.38926384851
1505402127195675835,0.125795222498,-0.186360472756,0.155517876148,0.0,0.0,1.38925850652
1505402127245773802,0.126247912839,-0.186843458107,0.155529022217,0.0,0.0,1.38925426584
1505402127295701568,0.126328499875,-0.187083461231,0.155531525612,0.0,0.0,1.38926178458
1505402127345750006,0.126369089935,-0.187282929345,0.155508339405,0.0,0.0,1.38926594096
1505402127395691751,0.126149498382,-0.186763294529,0.155507981777,0.0,0.0,1.38927564852
1505402127445943191,0.12600707896,-0.18638476119,0.155560612679,0.0,0.0,1.38925200075
1505402127495659590,0.126569717406,-0.18744694074,0.155548512936,0.0,0.0,1.38925661647
1505402127545682661,0.126219513101,-0.186969618966,0.155533850193,0.0,0.0,1.38923963028
1505402127595693177,0.12625716649,-0.187094051517,0.155522406101,0.0,0.0,1.38924963543
1505402127645740319,0.126009090957,-0.186757629749,0.155545830727,0.0,0.0,1.38926628924
1505402127695649567,0.126333587027,-0.187138069439,0.155552268028,0.0,0.0,1.38925744189
1505402127745658158,0.126397050719,-0.187233644403,0.155529141426,0.0,0.0,1.3892590979
1505402127795625622,0.126124935743,-0.186744962602,0.155526936054,0.0,0.0,1.38926164923
1505402127845598244,0.126239732226,-0.186904116807,0.155530393124,0.0,0.0,1.38925616419
1505402127895603935,0.126264572629,-0.187040699115,0.155532896519,0.0,0.0,1.38926964797
1505402127945671673,0.126025671309,-0.18640025492,0.155571520329,0.0,0.0,1.38925081471
1505402127995659128,0.126556851573,-0.187500799951,0.155559182167,0.0,0.0,1.38925809657
1505402128045759859,0.126187077328,-0.187064227274,0.155548989773,0.0,0.0,1.38925543407
1505402128095759251,0.126126895166,-0.18656310899,0.155574917793,0.0,0.0,1.38926223227
1505402128145738242,0.126489723503,-0.18754345801,0.155543208122,0.0,0.0,1.38925498677
1505402128195744050,0.12623653265,-0.187201842748,0.155506968498,0.0,0.0,1.38926172854
1505402128245683122,0.125928236417,-0.186214265847,0.155543506145,0.0,0.0,1.38925598874
1505402128295722923,0.126415208491,-0.187291869412,0.155546724796,0.0,0.0,1.38926679442
1505402128345637791,0.126354800579,-0.187046642799,0.155535817146,0.0,0.0,1.38926086412
1505402128395654227,0.126285925772,-0.187162664703,0.155511856079,0.0,0.0,1.3892597385
1505402128445672897,0.125974288848,-0.186501400775,0.155538380146,0.0,0.0,1.38926110971
1505402128495785182,0.126234418478,-0.186996117184,0.155555129051,0.0,0.0,1.38925203963
1505402128545854114,0.126242709729,-0.186896458518,0.155573666096,0.0,0.0,1.3892579915
1505402128595672108,0.126453475756,-0.187252433281,0.155561804771,0.0,0.0,1.38926204342
1505402128645721840,0.12608332534,-0.18686989947,0.155571401119,0.0,0.0,1.38926462723
1505402128695775000,0.126426609659,-0.187311746357,0.15553933382,0.0,0.0,1.38926783042
1505402128745657292,0.1263111887,-0.187119873801,0.155504107475,0.0,0.0,1.3892678895
1505402128795683118,0.125844673538,-0.18629940123,0.155538141727,0.0,0.0,1.38925806457
1505402128845714877,0.126359490602,-0.18727953534,0.155548453331,0.0,0.0,1.3892510024
1505402128895708628,0.126441241381,-0.187225846572,0.155525803566,0.0,0.0,1.38925630965
1505402128945940166,0.125902039622,-0.18644105063,0.155556559563,0.0,0.0,1.38924324202
1505402128995603857,0.12651149075,-0.187257199663,0.155544757843,0.0,0.0,1.38925762294
1505402129045748087,0.126157487614,-0.187025809039,0.15553855896,0.0,0.0,1.38925369715
1505402129095832598,0.126177664919,-0.186961267191,0.155538380146,0.0,0.0,1.38925057375
1505402129145587325,0.126224562158,-0.186927739623,0.155546069145,0.0,0.0,1.389248412
1505402129195638932,0.126458003278,-0.187418784207,0.155511438847,0.0,0.0,1.38926007483
1505402129245741526,0.125880524279,-0.186259724729,0.155550003052,0.0,0.0,1.38925935093
1505402129296379659,0.126667008577,-0.187943898485,0.155493617058,0.0,0.0,1.3892519851
1505402129345654766,0.125763651374,-0.186128466855,0.155526578426,0.0,0.0,1.3892468754
1505402129395686149,0.126212387886,-0.186898275309,0.155561745167,0.0,0.0,1.38924538151
1505402129445743154,0.126394254309,-0.187290640781,0.155559241772,0.0,0.0,1.38924780068
1505402129495668245,0.126351020412,-0.18739871475,0.155529081821,0.0,0.0,1.38926565174
1505402129545731082,0.125902259801,-0.186456477309,0.155562520027,0.0,0.0,1.38926125933
1505402129595720656,0.126358477249,-0.18706320321,0.155568301678,0.0,0.0,1.38925067405
1505402129645671555,0.126351316684,-0.187233263397,0.155545592308,0.0,0.0,1.38924612738
1505402129695699964,0.1261793275,-0.186985651751,0.155536174774,0.0,0.0,1.38924846105
1505402129745694116,0.126127969488,-0.186829109846,0.155551791191,0.0,0.0,1.38926711671
1505402129795675553,0.126350412076,-0.187058541838,0.155544996262,0.0,0.0,1.38924199464
1505402129845786865,0.126522343044,-0.187594184813,0.15548491478,0.0,0.0,1.38925092418
1505402129895786573,0.125788428919,-0.18644627198,0.155497252941,0.0,0.0,1.38923780038
1505402129945675558,0.126058076543,-0.18680153865,0.155528664589,0.0,0.0,1.38925322988
1505402129995667864,0.126299591013,-0.186981406183,0.155552387238,0.0,0.0,1.38926498371
1505402130045715510,0.126524479758,-0.18755129166,0.155514061451,0.0,0.0,1.38925551675
1505402130095675753,0.12604401065,-0.186785105168,0.155509591103,0.0,0.0,1.38925538921
1505402130145629522,0.12589772744,-0.186211366443,0.15556704998,0.0,0.0,1.38924210689
1505402130195626873,0.126631396924,-0.187578392323,0.155550003052,0.0,0.0,1.3892522705
1505402130245630184,0.126305669337,-0.187449348031,0.155514359474,0.0,0.0,1.38925213279
1505402130295691147,0.126070549242,-0.186881109842,0.155501902103,0.0,0.0,1.38925509842
1505402130345675522,0.126202589901,-0.186779344899,0.155508220196,0.0,0.0,1.38925973909
1505402130395626596,0.126118446797,-0.186840972011,0.155519068241,0.0,0.0,1.38925716643
1505402130445738123,0.126381098035,-0.187101889154,0.155516922474,0.0,0.0,1.3892616703
1505402130495667749,0.126254692471,-0.18699242398,0.15551429987,0.0,0.0,1.38924162291
1505402130545692613,0.125995408245,-0.186669734249,0.155542910099,0.0,0.0,1.38925612222
1505402130595648295,0.126369998462,-0.187196962514,0.155547857285,0.0,0.0,1.38925539317
1505402130645660183,0.126063239036,-0.186768263162,0.155568659306,0.0,0.0,1.38925306011
1505402130695685821,0.126582735466,-0.187337850769,0.155544579029,0.0,0.0,1.38925661185
1505402130745845826,0.126122557362,-0.187065725449,0.155535399914,0.0,0.0,1.3892533746
1505402130795726927,0.126249632155,-0.186987486566,0.155528128147,0.0,0.0,1.38925664128
1505402130845863009,0.126254638135,-0.186960770757,0.155516505241,0.0,0.0,1.3892728623
1505402130895714565,0.125991424979,-0.186610298461,0.155558586121,0.0,0.0,1.38926167813
1505402130945760212,0.126341101036,-0.187218685852,0.155571579933,0.0,0.0,1.38926547815
1505402130995746719,0.126547556946,-0.18752840077,0.155531048775,0.0,0.0,1.38926056455
1505402131045744232,0.125977182519,-0.186775945511,0.155526578426,0.0,0.0,1.38925569314
1505402131095685350,0.125939909593,-0.186349512293,0.155573070049,0.0,0.0,1.3892521885
1505402131145685771,0.126721239496,-0.187727009253,0.155539512634,0.0,0.0,1.38926455467
1505402131195700291,0.126203858173,-0.186958109404,0.15551674366,0.0,0.0,1.38926881934
1505402131245690770,0.126035680637,-0.186720799617,0.155529677868,0.0,0.0,1.38926436691
1505402131295667314,0.126230658447,-0.186886323138,0.155548334122,0.0,0.0,1.38926098327
1505402131345712933,0.126368377473,-0.187148322885,0.155550122261,0.0,0.0,1.38925935587
1505402131395633847,0.126218889751,-0.187183558469,0.155541300774,0.0,0.0,1.38927710789
1505402131445612837,0.126099883067,-0.186732839141,0.155556023121,0.0,0.0,1.38925821037
1505402131495715237,0.126498163541,-0.187478017584,0.155522167683,0.0,0.0,1.38926441619
1505402131545714267,0.125995774687,-0.186596320018,0.155530512333,0.0,0.0,1.38927192714
1505402131595707975,0.126395021181,-0.187237603562,0.155515313148,0.0,0.0,1.3892674594
1505402131645717006,0.1261111883,-0.186751092475,0.155530750751,0.0,0.0,1.38926694025
1505402131695626540,0.126336595972,-0.186995453757,0.155529439449,0.0,0.0,1.38925848022
1505402131745599167,0.126265493991,-0.187042301042,0.155535936356,0.0,0.0,1.38927063431
1505402131795723505,0.126206038099,-0.187020770313,0.15554267168,0.0,0.0,1.38927178117
1505402131845694039,0.12633288938,-0.1869425187,0.155544817448,0.0,0.0,1.38926679306
1505402131895623023,0.126172983057,-0.187049998935,0.155558049679,0.0,0.0,1.3892843914
1505402131945768866,0.12648009667,-0.187334439854,0.155518531799,0.0,0.0,1.38926601712
1505402131995599853,0.125970647808,-0.186574218688,0.155525326729,0.0,0.0,1.3892663455
1505402132045761577,0.126135388082,-0.186842841093,0.155548095703,0.0,0.0,1.38926615352
1505402132095815869,0.126388820748,-0.187040937096,0.155561447144,0.0,0.0,1.38926473669
1505402132145723441,0.126344913426,-0.187244652811,0.155549645424,0.0,0.0,1.38926665901
1505402132195596845,0.126351991309,-0.187151976373,0.155528485775,0.0,0.0,1.38926863441
1505402132245747898,0.126011263913,-0.186752080363,0.15554100275,0.0,0.0,1.38926384511
1505402132295607201,0.126312246588,-0.187090233064,0.155552983284,0.0,0.0,1.3892822104
1505402132345710750,0.126304495174,-0.186981523275,0.155549049377,0.0,0.0,1.38927031451
1505402132395697369,0.1263347995,-0.186990220366,0.155546963215,0.0,0.0,1.38927046779
1505402132445593102,0.12613776777,-0.187029262041,0.155546069145,0.0,0.0,1.3892797316
1505402132495712491,0.126194483993,-0.186895819582,0.155552744865,0.0,0.0,1.38926179228
1505402132545650331,0.126310686181,-0.186892761054,0.155558824539,0.0,0.0,1.38926031547
1505402132595672977,0.126157787234,-0.187152252935,0.155568540096,0.0,0.0,1.3892704373
1505402132645708243,0.126456048526,-0.187121168356,0.155548632145,0.0,0.0,1.38924901593
1505402132695709606,0.126234957134,-0.186945808839,0.155543804169,0.0,0.0,1.38925907894
1505402132745714293,0.126172078475,-0.186900720053,0.155548095703,0.0,0.0,1.38926355889
1505402132795655866,0.126173660545,-0.186702262425,0.155567169189,0.0,0.0,1.38925580978
1505402132845720466,0.126332915604,-0.187037707372,0.1555762887,0.0,0.0,1.38927026227
1505402132895732225,0.126456469805,-0.187488971002,0.155547559261,0.0,0.0,1.38927421871
1505402132945691076,0.126000457584,-0.186699416982,0.155555307865,0.0,0.0,1.38925782141
1505402132995617015,0.126262346799,-0.186958206745,0.155571579933,0.0,0.0,1.3892678644
1505402133045868872,0.126311372975,-0.187144052036,0.155569195747,0.0,0.0,1.38926227986
1505402133095598426,0.126456262118,-0.187359153538,0.155527770519,0.0,0.0,1.38926447465
1505402133145613825,0.125995102874,-0.186709782039,0.155533194542,0.0,0.0,1.38925797841
1505402133195616112,0.12644337578,-0.187041665704,0.155512094498,0.0,0.0,1.38926486401
1505402133245630362,0.126063849067,-0.186854905546,0.155525028706,0.0,0.0,1.38926355191
1505402133295599391,0.126376972257,-0.187254141004,0.155509829521,0.0,0.0,1.38927053079
1505402133345671689,0.12581390221,-0.18630496051,0.155578553677,0.0,0.0,1.38927056347
1505402133395651480,0.12678429125,-0.187680504218,0.155549764633,0.0,0.0,1.38925183753
1505402133445590279,0.125885449561,-0.186483675267,0.155582070351,0.0,0.0,1.38926360476
1505402133495665089,0.126559111288,-0.187289011349,0.155571103096,0.0,0.0,1.38925968145
1505402133545559610,0.126125956427,-0.186842403715,0.155571341515,0.0,0.0,1.38925843532
1505402133595606839,0.126264631404,-0.187053042149,0.155570745468,0.0,0.0,1.38926359135
1505402133645791422,0.126526829935,-0.187554837254,0.155526459217,0.0,0.0,1.38926209574
1505402133695751590,0.125828805748,-0.18630991343,0.155556917191,0.0,0.0,1.38926737257
1505402133745864540,0.126400980555,-0.187209370119,0.155566036701,0.0,0.0,1.38926159021
1505402133795692649,0.126334618444,-0.187165306291,0.155554831028,0.0,0.0,1.3892571082
1505402133845766285,0.126295618536,-0.186936795524,0.155542016029,0.0,0.0,1.38925690596
1505402133895662088,0.125845405418,-0.186402471845,0.155594527721,0.0,0.0,1.38926285407
1505402133945671729,0.126807721252,-0.187992260974,0.155545592308,0.0,0.0,1.38926382857
1505402133995792420,0.125780211709,-0.186167794377,0.155582904816,0.0,0.0,1.38925290717
1505402134045679868,0.126520711737,-0.187306092149,0.155574440956,0.0,0.0,1.3892465045
1505402134095663407,0.126158138566,-0.187013202358,0.155586898327,0.0,0.0,1.38926516015
1505402134145712978,0.126636452507,-0.187488731695,0.155535459518,0.0,0.0,1.38925836392
1505402134195694010,0.125820884052,-0.186318187781,0.155564904213,0.0,0.0,1.38926804099
1505402134245618711,0.126472812422,-0.18737749271,0.155550062656,0.0,0.0,1.38925990327
1505402134295657491,0.126354607689,-0.187344662191,0.155511319637,0.0,0.0,1.38927197991
1505402134345670792,0.126037819355,-0.186511264291,0.155521392822,0.0,0.0,1.38927029291
1505402134395671093,0.126103135385,-0.186887332758,0.155548155308,0.0,0.0,1.38928232515
1505402134445645588,0.12633351369,-0.187091083051,0.155558466911,0.0,0.0,1.38926542857
1505402134495628781,0.126269571723,-0.187032834221,0.155565321445,0.0,0.0,1.38927257397
1505402134545815886,0.12631967127,-0.186896935152,0.155573546886,0.0,0.0,1.38927074765
1505402134595648697,0.126443801195,-0.187408357033,0.15554279089,0.0,0.0,1.38926280135
1505402134645889788,0.126134874494,-0.186716708815,0.155537068844,0.0,0.0,1.38926334388
1505402134695715273,0.126227350815,-0.187010585682,0.15554112196,0.0,0.0,1.38926497568
1505402134745720151,0.12616376047,-0.186753905752,0.155567109585,0.0,0.0,1.389275369
1505402134795790316,0.126416514941,-0.18736277926,0.155558824539,0.0,0.0,1.38926896179
1505402134845622739,0.126229420649,-0.187045245669,0.155544936657,0.0,0.0,1.38925850336
1505402134895695963,0.12610916292,-0.186638058167,0.155558407307,0.0,0.0,1.3892722802
1505402134945679570,0.126122465156,-0.186812791518,0.155589580536,0.0,0.0,1.38925133442
1505402134995574781,0.126593850952,-0.187611281093,0.155563175678,0.0,0.0,1.38926351922
1505402135045718986,0.126224183637,-0.186895583589,0.155549824238,0.0,0.0,1.38926087363
1505402135095820031,0.126133079453,-0.186828552622,0.155554890633,0.0,0.0,1.38926255298
1505402135145745947,0.126213131484,-0.186865548043,0.155575156212,0.0,0.0,1.38926381481
1505402135195657769,0.126399373283,-0.187168841077,0.155571460724,0.0,0.0,1.38927648191
1505402135245658857,0.126279932502,-0.187149557416,0.155555188656,0.0,0.0,1.38926684308
1505402135295729885,0.12618147022,-0.186902225138,0.155548870564,0.0,0.0,1.38925390082
1505402135345681551,0.12626824225,-0.186977185059,0.155541956425,0.0,0.0,1.38926380316
1505402135395718724,0.125940860952,-0.186463051516,0.155591309071,0.0,0.0,1.38926734673
1505402135445700722,0.126688750669,-0.18777043861,0.155557394028,0.0,0.0,1.38927603871
1505402135495747263,0.12610221645,-0.186754364224,0.155551970005,0.0,0.0,1.3892630942
1505402135545774350,0.126261604766,-0.187077432588,0.155548334122,0.0,0.0,1.38926709202
1505402135595733436,0.126290609746,-0.186903392709,0.155542612076,0.0,0.0,1.38925220666
1505402135645603182,0.126131461996,-0.186910869682,0.155550539494,0.0,0.0,1.38926630126
1505402135695741234,0.126378874409,-0.187083441545,0.155544877052,0.0,0.0,1.38925088266
1505402135745755508,0.126385410341,-0.187300282036,0.155504584312,0.0,0.0,1.38926821015
1505402135795676882,0.125715922843,-0.186082836831,0.155560970306,0.0,0.0,1.38925701917
1505402135845693489,0.126490533815,-0.187623115445,0.155553817749,0.0,0.0,1.38925208884
1505402135895574713,0.126122341626,-0.186444122758,0.15559720993,0.0,0.0,1.38926070643
1505402135945708075,0.126578898734,-0.187717284124,0.155564844608,0.0,0.0,1.38925684098
1505402135995699905,0.126131792666,-0.186923590946,0.155542075634,0.0,0.0,1.38925058795
1505402136045695331,0.126171814186,-0.186746716413,0.155546605587,0.0,0.0,1.38925735904
1505402136095642922,0.126338855989,-0.186961010247,0.155537605286,0.0,0.0,1.38925433328
1505402136145659290,0.126041824281,-0.186661627303,0.155570089817,0.0,0.0,1.38925536822
1505402136195714786,0.126638047699,-0.187669389305,0.15552675724,0.0,0.0,1.38925404291
1505402136245863028,0.125895247816,-0.186316881688,0.155561387539,0.0,0.0,1.38925087539
1505402136295675306,0.126358957594,-0.187146960961,0.155570268631,0.0,0.0,1.38925517101
1505402136345687183,0.126289216461,-0.187206870042,0.155556559563,0.0,0.0,1.38925718104
1505402136395611234,0.126146508024,-0.186885745618,0.155557394028,0.0,0.0,1.3892415957
1505402136445755859,0.126386995759,-0.187263450872,0.155534803867,0.0,0.0,1.38925086952
1505402136495668936,0.12585596194,-0.186187033797,0.155589461327,0.0,0.0,1.38925894396
1505402136545692201,0.126813153764,-0.187946000151,0.155537843704,0.0,0.0,1.38925897769
1505402136595662071,0.125937133694,-0.186396368809,0.155553281307,0.0,0.0,1.38924448534
1505402136645765054,0.126327759465,-0.187006727008,0.15556204319,0.0,0.0,1.38925110556
1505402136695823623,0.126200888622,-0.186861638605,0.155575335026,0.0,0.0,1.38925057344
1505402136745706460,0.126439283127,-0.187373791406,0.15555536747,0.0,0.0,1.38924457289
1505402136795610177,0.125966320074,-0.186648958099,0.155579864979,0.0,0.0,1.38924546198
1505402136845745490,0.126417859069,-0.18728640133,0.155572295189,0.0,0.0,1.38925434503
1505402136895641121,0.126271092728,-0.186954348478,0.155567348003,0.0,0.0,1.38925056394
1505402136945660089,0.126306673156,-0.187190530698,0.155542850494,0.0,0.0,1.38925853075
1505402136995803137,0.12606751212,-0.186653569417,0.155551075935,0.0,0.0,1.38925397161
1505402137045594722,0.126236499797,-0.187140649425,0.155552387238,0.0,0.0,1.38924138029
1505402137095639359,0.126411651874,-0.187116968746,0.15552765131,0.0,0.0,1.38924532068
1505402137145746431,0.126077666678,-0.186667887043,0.155538320541,0.0,0.0,1.38924838345
1505402137195604851,0.126224824317,-0.186725543132,0.155563533306,0.0,0.0,1.38923840465
1505402137245765574,0.126425769779,-0.187285272061,0.155557692051,0.0,0.0,1.38924119175
1505402137295691221,0.126144274378,-0.186998675722,0.155560612679,0.0,0.0,1.38924463992
1505402137345747414,0.126168857945,-0.186884367702,0.155575335026,0.0,0.0,1.38925950797
1505402137395637335,0.126382004479,-0.187157937504,0.155570447445,0.0,0.0,1.38925266267
1505402137445734529,0.126144319131,-0.186649772764,0.155584394932,0.0,0.0,1.38923708374
1505402137495802915,0.126618558599,-0.187748921536,0.15553021431,0.0,0.0,1.38924027254
1505402137545795095,0.125956305203,-0.186470282014,0.155529916286,0.0,0.0,1.38923405053
1505402137595684779,0.12608434169,-0.186709589865,0.155557096004,0.0,0.0,1.38922749639
1505402137645655397,0.126459536191,-0.187329835652,0.155548870564,0.0,0.0,1.3892323338
1505402137695862811,0.126205773048,-0.186960580348,0.155547738075,0.0,0.0,1.38922864201
1505402137745656160,0.126014597819,-0.186598064199,0.155585229397,0.0,0.0,1.38922749096
1505402137795772713,0.126483818163,-0.187283884275,0.155580639839,0.0,0.0,1.38924512638
1505402137845724939,0.126284613272,-0.187073210417,0.155566334724,0.0,0.0,1.3892447364
1505402137895742789,0.126006052019,-0.186607568207,0.155585348606,0.0,0.0,1.3892320515
1505402137945726150,0.126341657608,-0.187298080895,0.155579388142,0.0,0.0,1.38924342981
1505402137995690064,0.126456483866,-0.187222287385,0.155550181866,0.0,0.0,1.38923855045
1505402138045762663,0.126242395619,-0.186926318059,0.155534267426,0.0,0.0,1.38923848829
1505402138095682503,0.126017187506,-0.186571485224,0.155562698841,0.0,0.0,1.38924277005
1505402138145698706,0.126524843399,-0.187396666993,0.155544936657,0.0,0.0,1.38924287969
1505402138195816460,0.126094585428,-0.186753355091,0.155565857887,0.0,0.0,1.38924290129
1505402138245597673,0.126181260065,-0.186774478967,0.155595004559,0.0,0.0,1.38923621685
1505402138295630034,0.126439328445,-0.187231196124,0.155589520931,0.0,0.0,1.38923531078
1505402138345716735,0.126170121699,-0.186752694874,0.15560400486,0.0,0.0,1.38922859075
1505402138395893054,0.126362173477,-0.187274759726,0.155594885349,0.0,0.0,1.38923026826
1505402138445877270,0.126334202107,-0.186933348519,0.155576229095,0.0,0.0,1.38922358487
1505402138495646947,0.126296446568,-0.187082880192,0.155548095703,0.0,0.0,1.38922211281
1505402138545699612,0.126063787426,-0.186749374144,0.155552864075,0.0,0.0,1.38924113544
1505402138595801027,0.126462397478,-0.187342527043,0.155525147915,0.0,0.0,1.38921788354
1505402138645733372,0.125839546344,-0.186378008339,0.155566632748,0.0,0.0,1.38923014579
1505402138695662906,0.126467703844,-0.187149645611,0.155574858189,0.0,0.0,1.38923220845
1505402138745601265,0.126220213934,-0.187011249788,0.155582249165,0.0,0.0,1.38922228063
1505402138795805066,0.126285048607,-0.18707577084,0.155580401421,0.0,0.0,1.38923852386
1505402138845736299,0.12618235033,-0.186836965307,0.155589103699,0.0,0.0,1.38923624296
1505402138895626270,0.126360574117,-0.186997061867,0.155592381954,0.0,0.0,1.38922473484
1505402138945656929,0.12645719324,-0.187413893133,0.155554056168,0.0,0.0,1.38923466789
1505402138995676720,0.126174754504,-0.186890984673,0.155536413193,0.0,0.0,1.38922573495
1505402139045638601,0.126052902921,-0.186660771758,0.155551433563,0.0,0.0,1.38923643674
1505402139095901909,0.12627733976,-0.186931299852,0.155572652817,0.0,0.0,1.38923630039
1505402139145800672,0.126386270646,-0.187154978453,0.155580043793,0.0,0.0,1.38924267073
1505402139195679380,0.126190283334,-0.186928367373,0.155587255955,0.0,0.0,1.38922981147
1505402139245670391,0.126344262086,-0.186989191964,0.155595958233,0.0,0.0,1.38924321783
1505402139295651633,0.126266368623,-0.186996467559,0.155599355698,0.0,0.0,1.38924065358
1505402139345670300,0.126364449818,-0.187155191187,0.155581772327,0.0,0.0,1.3892296197
1505402139395654108,0.126223494116,-0.186894802418,0.155572772026,0.0,0.0,1.38922695505
1505402139445699479,0.126018037019,-0.186698870774,0.15559476614,0.0,0.0,1.3892265575
1505402139495605220,0.126451192356,-0.187080147291,0.155588150024,0.0,0.0,1.38922870297
1505402139545717021,0.126289318781,-0.187172608433,0.155578315258,0.0,0.0,1.38924207902
1505402139595713650,0.126320855014,-0.187063384129,0.155557632446,0.0,0.0,1.38924047364
1505402139645693055,0.126173819815,-0.186951139838,0.155549883842,0.0,0.0,1.38923564502
1505402139695700704,0.126203421233,-0.187015105465,0.155546784401,0.0,0.0,1.38924461708
1505402139745748116,0.126119646874,-0.186772492074,0.155567288399,0.0,0.0,1.38924231469
1505402139795647634,0.126441454271,-0.187110765702,0.15555793047,0.0,0.0,1.38923899229
1505402139845693884,0.126066774899,-0.186583687944,0.15558797121,0.0,0.0,1.38923654937
1505402139895593901,0.126415746557,-0.186904482842,0.155605554581,0.0,0.0,1.38922728675
1505402139945660647,0.126277698858,-0.186869232985,0.155622780323,0.0,0.0,1.38923636064
1505402139995624971,0.126509324282,-0.18745615843,0.155596017838,0.0,0.0,1.38922994125
1505402140045605478,0.126131434898,-0.187019500144,0.155579864979,0.0,0.0,1.38922963596
1505402140095643442,0.126147735809,-0.186682159303,0.155590951443,0.0,0.0,1.38924126139
1505402140145598486,0.126232342865,-0.18697224233,0.155603051186,0.0,0.0,1.38923942725
1505402140195666117,0.126446790375,-0.187440870069,0.155570209026,0.0,0.0,1.38923373874
1505402140245844186,0.126079181251,-0.186754214326,0.155575931072,0.0,0.0,1.38924267874
1505402140295745206,0.126313622257,-0.186876975984,0.155580282211,0.0,0.0,1.38924085707
1505402140345714592,0.126345924978,-0.187103192324,0.155571222305,0.0,0.0,1.38924473984
1505402140395605148,0.126256303258,-0.186935271273,0.155564725399,0.0,0.0,1.38922892071
1505402140445744684,0.126202818244,-0.186797005999,0.155573368073,0.0,0.0,1.38922388981
1505402140495720454,0.126193049442,-0.186739049588,0.155604600906,0.0,0.0,1.38923949999
1505402140545705566,0.12646539379,-0.187238039351,0.155599355698,0.0,0.0,1.38921802667
1505402140595708811,0.126106146106,-0.186888992932,0.155614554882,0.0,0.0,1.38923368224
1505402140645670465,0.126325272576,-0.18688118394,0.155624508858,0.0,0.0,1.38923553429
1505402140695685778,0.126309675396,-0.187114466746,0.155628025532,0.0,0.0,1.38922749836
1505402140745729044,0.126483218012,-0.187267874385,0.155591189861,0.0,0.0,1.38923875161
1505402140795672073,0.126229829364,-0.187227925645,0.155557453632,0.0,0.0,1.38924137113
1505402140845685866,0.125999897187,-0.186501445286,0.155575275421,0.0,0.0,1.38922969504
1505402140895701587,0.126391575515,-0.187093558061,0.155575871468,0.0,0.0,1.38923219769
1505402140945596166,0.126358725734,-0.187216374093,0.155553340912,0.0,0.0,1.38922930042
1505402140995643174,0.126122292133,-0.186635778288,0.155560731888,0.0,0.0,1.38922370656
1505402141045588504,0.126189482723,-0.186727014132,0.155584037304,0.0,0.0,1.38922566162
1505402141095827254,0.126263935666,-0.186971081337,0.155605971813,0.0,0.0,1.38923122547
1505402141145857315,0.12637311318,-0.1873961255,0.155594944954,0.0,0.0,1.38923001429
1505402141195744117,0.126320147853,-0.187089087095,0.155569076538,0.0,0.0,1.38922920896
1505402141245719937,0.126079584065,-0.186628673241,0.155581891537,0.0,0.0,1.38923781991
1505402141295839899,0.126265684771,-0.186952604928,0.155597567558,0.0,0.0,1.38922775008
1505402141345728945,0.12642185915,-0.187342500357,0.155580580235,0.0,0.0,1.38922839891
1505402141395641348,0.126273999289,-0.187012015039,0.15555369854,0.0,0.0,1.38922385084
1505402141445701270,0.126071642014,-0.186638951398,0.155565321445,0.0,0.0,1.38922471181
1505402141495687889,0.126323413791,-0.187028613021,0.155568957329,0.0,0.0,1.38924238004
1505402141545708654,0.126090628994,-0.186754973896,0.155598402023,0.0,0.0,1.38921853637
1505402141595823440,0.126438561997,-0.187380121473,0.155582129955,0.0,0.0,1.38921728604
1505402141645696317,0.126157094478,-0.187012460854,0.155579388142,0.0,0.0,1.38923185346
1505402141695683859,0.126214721049,-0.186701514371,0.155591368675,0.0,0.0,1.38923444306
1505402141745689288,0.126232686873,-0.186918510321,0.15560990572,0.0,0.0,1.38923585498
1505402141795836390,0.126389198644,-0.187322396726,0.155602693558,0.0,0.0,1.38923250388
1505402141845660044,0.126465112121,-0.187377567609,0.155556499958,0.0,0.0,1.3892353138
1505402141895637628,0.125987341879,-0.186637022235,0.1555544734,0.0,0.0,1.38922550805
1505402141945594383,0.126090387188,-0.186530019095,0.155589163303,0.0,0.0,1.38922817953
1505402141995698166,0.126290768585,-0.186866119464,0.155619442463,0.0,0.0,1.38922737164
1505402142045735082,0.12649619655,-0.187585417998,0.155593752861,0.0,0.0,1.38922867392
1505402142095669224,0.12610499195,-0.186681121816,0.155600786209,0.0,0.0,1.38922430243
1505402142145622697,0.126159707716,-0.186698864535,0.155624508858,0.0,0.0,1.3892354988
1505402142195584141,0.126512479507,-0.187453274131,0.155603170395,0.0,0.0,1.38923841942
1505402142245748452,0.126327083322,-0.18739079427,0.155555903912,0.0,0.0,1.38922646121
1505402142295648199,0.125898555312,-0.18652985979,0.155570983887,0.0,0.0,1.3892384559
1505402142345670637,0.126381981207,-0.187099209212,0.155566334724,0.0,0.0,1.38923931176
1505402142395628221,0.126252667382,-0.186983683772,0.15556961298,0.0,0.0,1.38923614697
1505402142445644349,0.126368071113,-0.187247435756,0.155544877052,0.0,0.0,1.38924223224
1505402142495689641,0.125974718816,-0.186722820019,0.155554831028,0.0,0.0,1.38923526354
1505402142545705575,0.126147831806,-0.186636907964,0.155588924885,0.0,0.0,1.38922671584
1505402142595735067,0.126429748335,-0.187158489149,0.155588984489,0.0,0.0,1.38923034113
1505402142645720403,0.126136011691,-0.186918863422,0.155604124069,0.0,0.0,1.38922613535
1505402142695677381,0.126426007008,-0.187134689811,0.155600667,0.0,0.0,1.38922461307
1505402142745593917,0.12618113168,-0.186954362147,0.155603051186,0.0,0.0,1.38922659602
1505402142795717293,0.126374582186,-0.187147376197,0.15558975935,0.0,0.0,1.38923167398
1505402142845579912,0.126228946602,-0.186997734213,0.155577898026,0.0,0.0,1.38923252146
1505402142895756892,0.126286981372,-0.187050203889,0.155558288097,0.0,0.0,1.3892285279
1505402142945693196,0.126052432533,-0.186746223884,0.155569136143,0.0,0.0,1.38923300613
1505402142995676068,0.126275284277,-0.187165580777,0.155564010143,0.0,0.0,1.38922185341
1505402143045856862,0.126099924267,-0.186891694506,0.155582010746,0.0,0.0,1.38921671333
1505402143095662604,0.126287925291,-0.187039061399,0.155593037605,0.0,0.0,1.38923771961
1505402143145687541,0.126374971217,-0.187166202761,0.155585467815,0.0,0.0,1.38923756945
1505402143195696826,0.126161595898,-0.186620016474,0.155608713627,0.0,0.0,1.38922555496
1505402143245647651,0.126473930605,-0.187343543556,0.155591785908,0.0,0.0,1.3892380661
1505402143295608961,0.126070740754,-0.186720102899,0.155605316162,0.0,0.0,1.3892216773
1505402143345649306,0.126476402454,-0.187209792544,0.155583262444,0.0,0.0,1.38923344145
1505402143395676908,0.126179535765,-0.186978007222,0.155582129955,0.0,0.0,1.38924392361
1505402143445691677,0.126310240509,-0.187179936366,0.155568361282,0.0,0.0,1.38923334022
1505402143495683800,0.126073690977,-0.18675868789,0.155575811863,0.0,0.0,1.38923719933
1505402143545615009,0.126246964094,-0.186988492316,0.155584096909,0.0,0.0,1.38923709178
1505402143595668011,0.126204560474,-0.186875444761,0.155601024628,0.0,0.0,1.38923765507
1505402143645592566,0.12629019701,-0.187197335394,0.155602157116,0.0,0.0,1.38925430442
1505402143695631902,0.126341477973,-0.187140493016,0.155587911606,0.0,0.0,1.38923836872
1505402143745627087,0.126262296635,-0.186739993082,0.15558463335,0.0,0.0,1.38923928509
1505402143795629688,0.126186298994,-0.187001386654,0.155592918396,0.0,0.0,1.38924516751
1505402143845627349,0.126416071988,-0.187225473122,0.155578970909,0.0,0.0,1.38923986432
1505402143895659531,0.126261496693,-0.186979969286,0.155556261539,0.0,0.0,1.38922127122
1505402143945662450,0.126004123073,-0.18665912785,0.15558052063,0.0,0.0,1.38923782892
1505402143995674044,0.126481464084,-0.187230365077,0.155570328236,0.0,0.0,1.38923213776
1505402144045703426,0.125960493034,-0.18659136631,0.155605196953,0.0,0.0,1.38923346855
1505402144095920781,0.126525584752,-0.187548086573,0.155584335327,0.0,0.0,1.38924103418
1505402144145699072,0.126127593755,-0.186847781054,0.15558886528,0.0,0.0,1.38925773266
1505402144195615920,0.126249803831,-0.186837274827,0.155599534512,0.0,0.0,1.38924570872
1505402144245705321,0.126306546135,-0.18686852936,0.155619502068,0.0,0.0,1.38924940422
1505402144295927902,0.126500305051,-0.187513697439,0.155581474304,0.0,0.0,1.3892481984
1505402144345681472,0.126206524384,-0.186983761275,0.155555725098,0.0,0.0,1.38924450338
1505402144395735355,0.126067227997,-0.186543968822,0.155570805073,0.0,0.0,1.38923868432
1505402144445745622,0.126279757584,-0.186931835822,0.155592083931,0.0,0.0,1.3892467535
1505402144495640042,0.126363812468,-0.187078470464,0.155602514744,0.0,0.0,1.3892450679
1505402144545648312,0.126345069337,-0.187288361946,0.15559720993,0.0,0.0,1.38924786023
1505402144595747153,0.126179539302,-0.186765065183,0.155611872673,0.0,0.0,1.38925036157
1505402144645630422,0.126303519098,-0.187082172174,0.155616343021,0.0,0.0,1.38924233232
1505402144695714267,0.126310002221,-0.187111773809,0.15560323,0.0,0.0,1.38924563519
1505402144745711050,0.12636849117,-0.187224452513,0.155573606491,0.0,0.0,1.38923668239
1505402144795636952,0.126024509588,-0.186606457623,0.155580818653,0.0,0.0,1.38924019283
1505402144845740992,0.126416678765,-0.187052659139,0.155578970909,0.0,0.0,1.38924997133
1505402144895659945,0.125988200526,-0.186708833653,0.155609965324,0.0,0.0,1.38924841578
1505402144945771351,0.126556527053,-0.187375193785,0.155592024326,0.0,0.0,1.38925006602
1505402144995788427,0.126167948068,-0.186742749248,0.155607640743,0.0,0.0,1.38925183403
1505402145045617060,0.126288079185,-0.187096850418,0.155615031719,0.0,0.0,1.38925143423
1505402145095657608,0.126497700831,-0.18752659026,0.155579507351,0.0,0.0,1.38926426583
1505402145145714792,0.12622306355,-0.187050994938,0.155545771122,0.0,0.0,1.38924655772
1505402145195630204,0.125954484798,-0.186360122482,0.155579268932,0.0,0.0,1.38924840061
1505402145245689850,0.126297951663,-0.186952644427,0.155604660511,0.0,0.0,1.38923075658
1505402145295670369,0.126461734075,-0.187211505181,0.155595123768,0.0,0.0,1.3892423544
1505402145345667141,0.126215004875,-0.186919502962,0.155595123768,0.0,0.0,1.3892423544
1505402145395708818,0.126140643377,-0.186605767581,0.155620396137,0.0,0.0,1.38922689115
1505402145445687155,0.126321315991,-0.187046656946,0.155638217926,0.0,0.0,1.3892472288
1505402145495709986,0.126511609483,-0.187396958893,0.155614733696,0.0,0.0,1.38925215074
1505402145545650480,0.126247937904,-0.187171376171,0.155585944653,0.0,0.0,1.38925321117
1505402145595663462,0.126094110177,-0.186557089332,0.155601918697,0.0,0.0,1.38923697839
1505402145645674331,0.126239315534,-0.187023773562,0.15561902523,0.0,0.0,1.38923825931
1505402145695641772,0.126513302872,-0.187353108134,0.155598402023,0.0,0.0,1.38925216226
1505402145745859800,0.126211829226,-0.187077574168,0.155587375164,0.0,0.0,1.38925124243
1505402145795683875,0.126186887756,-0.186739374951,0.15558308363,0.0,0.0,1.38923913189
1505402145845853183,0.126239716614,-0.186788598735,0.15559476614,0.0,0.0,1.38923372352
1505402145895816428,0.126369659569,-0.18733607376,0.155581355095,0.0,0.0,1.38923942404
1505402145945663902,0.126179335925,-0.186701199763,0.155592739582,0.0,0.0,1.38923735298
1505402145995683701,0.126169388035,-0.186854796645,0.155620634556,0.0,0.0,1.38924697451
1505402146045686268,0.126349757933,-0.187113367779,0.155633807182,0.0,0.0,1.38925239362
1505402146095644472,0.126320650089,-0.187065058865,0.155642271042,0.0,0.0,1.389233456
1505402146145766494,0.126369508825,-0.187211486794,0.155623674393,0.0,0.0,1.38924645855
1505402146195712515,0.126210802417,-0.186849243601,0.155623197556,0.0,0.0,1.38923149902
1505402146245692554,0.126476091866,-0.187287977714,0.155582845211,0.0,0.0,1.38923068638
1505402146295674096,0.126000596009,-0.186615484015,0.155597388744,0.0,0.0,1.3892343576
1505402146345752676,0.12654185161,-0.187465217851,0.155565619469,0.0,0.0,1.38925036284
1505402146395672165,0.125978753876,-0.186627083955,0.155579924583,0.0,0.0,1.38925414648
1505402146445670878,0.126183357744,-0.186758745463,0.155611813068,0.0,0.0,1.3892378767
1505402146495646823,0.126442663159,-0.187178100429,0.155614256859,0.0,0.0,1.38924683341
1505402146545688959,0.126368916884,-0.187270055052,0.155587852001,0.0,0.0,1.3892320603
1505402146595635078,0.126091196152,-0.186711481324,0.155591607094,0.0,0.0,1.38923835247
1505402146645663787,0.126258112699,-0.186842450753,0.155609071255,0.0,0.0,1.38923803604
1505402146695659440,0.126375239779,-0.187035679686,0.155613481998,0.0,0.0,1.38922424313
1505402146745810377,0.126412480458,-0.187393109413,0.155589342117,0.0,0.0,1.38924226449
1505402146795754097,0.126340023406,-0.187104104735,0.155556738377,0.0,0.0,1.38923874956
1505402146845791171,0.125906459299,-0.186233378474,0.155608534813,0.0,0.0,1.38925516927
1505402146895600965,0.126506322205,-0.187491987041,0.155605912209,0.0,0.0,1.38924467796
1505402146945701525,0.126269204218,-0.186885787166,0.155596971512,0.0,0.0,1.38922993437
1505402146995670660,0.126047253128,-0.186786229085,0.155626833439,0.0,0.0,1.38923967292
1505402147045729902,0.12637161195,-0.187195357286,0.155631005764,0.0,0.0,1.38924547831
1505402147095716004,0.126364937785,-0.187153337343,0.155615568161,0.0,0.0,1.38924384499
1505402147145791286,0.126274443828,-0.187054344023,0.155598640442,0.0,0.0,1.38923613842
1505402147195699597,0.126219926312,-0.186863790143,0.155594587326,0.0,0.0,1.38924529191
1505402147245744134,0.12621731852,-0.186740036639,0.155616283417,0.0,0.0,1.3892458622
1505402147295711547,0.126393980624,-0.187137217963,0.155617237091,0.0,0.0,1.38924280732
1505402147345671265,0.126369413876,-0.187248970344,0.155596792698,0.0,0.0,1.38924650414
1505402147395670813,0.126087036668,-0.186722144315,0.15561491251,0.0,0.0,1.38924889401
1505402147445672887,0.126303031248,-0.187079650242,0.155620157719,0.0,0.0,1.3892463636
1505402147495632875,0.126353429427,-0.187205936894,0.155606150627,0.0,0.0,1.38924332958
1505402147545761126,0.126174211915,-0.186795729539,0.155607163906,0.0,0.0,1.38925162028
1505402147595730697,0.12621557913,-0.18687719719,0.155615389347,0.0,0.0,1.3892436823
1505402147645685422,0.126404690574,-0.187185215409,0.155601501465,0.0,0.0,1.38923553414
1505402147695671870,0.126228024979,-0.186902316238,0.155598342419,0.0,0.0,1.3892287044
1505402147745822867,0.126247681822,-0.186928877582,0.15559887886,0.0,0.0,1.38923638498
1505402147795653277,0.126332588516,-0.187255504612,0.155586123466,0.0,0.0,1.38924436341
1505402147845687110,0.126198273458,-0.186859254646,0.155587434769,0.0,0.0,1.38925500752
1505402147895638623,0.126359295654,-0.187020303329,0.155580401421,0.0,0.0,1.38924496776
1505402147945639752,0.126098938431,-0.186708241127,0.155600726604,0.0,0.0,1.38924460174
1505402147995589350,0.126168510832,-0.186840964474,0.155638754368,0.0,0.0,1.38924281151
1505402148045591941,0.126546125782,-0.187423217736,0.155614733696,0.0,0.0,1.38923752624
1505402148095537103,0.126064252765,-0.186690062477,0.155623078346,0.0,0.0,1.3892304764
1505402148145588328,0.126336832009,-0.187052838585,0.155619263649,0.0,0.0,1.38922559112
1505402148195685867,0.126297828677,-0.186978245129,0.155618846416,0.0,0.0,1.38924070216
1505402148245700724,0.126266587588,-0.187110492461,0.155613958836,0.0,0.0,1.38924284715
1505402148295589651,0.126346046751,-0.187135762318,0.155596137047,0.0,0.0,1.38923108302
1505402148345550544,0.126163839055,-0.18669810932,0.155608594418,0.0,0.0,1.38924206357
1505402148395645855,0.126350323842,-0.187182490573,0.155599951744,0.0,0.0,1.38923334357
1505402148445604195,0.126288434248,-0.187069685183,0.155588388443,0.0,0.0,1.38924324577
1505402148495578906,0.126085829944,-0.186668237343,0.155608594418,0.0,0.0,1.38923952602
1505402148545629625,0.126155006299,-0.186758708081,0.155638456345,0.0,0.0,1.38924023148
1505402148595688437,0.126451017916,-0.187230896547,0.155641019344,0.0,0.0,1.38924747705
1505402148645670512,0.126475250301,-0.187431729242,0.155602097511,0.0,0.0,1.38924224124
1505402148695774132,0.126096891294,-0.186763232152,0.155596911907,0.0,0.0,1.38923424051
1505402148745638691,0.126271012365,-0.186715354994,0.15560400486,0.0,0.0,1.38923843649
1505402148795608302,0.126295255481,-0.187128712607,0.155600607395,0.0,0.0,1.38923756051
1505402148845690654,0.126329752096,-0.187163089921,0.155580818653,0.0,0.0,1.38924090488
1505402148895668058,0.126065252243,-0.186632233654,0.155599534512,0.0,0.0,1.38922864846
1505402148945650602,0.126216703698,-0.18676316274,0.155636012554,0.0,0.0,1.38923525868
1505402148995712868,0.126375758347,-0.187133529658,0.155647814274,0.0,0.0,1.38922275534
1505402149045659784,0.126669384836,-0.187853922552,0.155568063259,0.0,0.0,1.3892224638
1505402149095600990,0.125714470068,-0.186138768492,0.155605018139,0.0,0.0,1.38923373708
1505402149145565983,0.126459351053,-0.187237497797,0.155600667,0.0,0.0,1.38923226459
1505402149195606055,0.126323238812,-0.186983756782,0.155596196651,0.0,0.0,1.38923182223
1505402149245663715,0.126305847059,-0.187230818369,0.155577838421,0.0,0.0,1.38923244345
1505402149295591421,0.126103480197,-0.186795771081,0.155584216118,0.0,0.0,1.38922829258
1505402149345791368,0.126065678645,-0.1865891561,0.155622780323,0.0,0.0,1.38922525527
1505402149395673447,0.126506414478,-0.18728024325,0.155614793301,0.0,0.0,1.38921865786
1505402149445764882,0.126262224326,-0.186963246728,0.155608415604,0.0,0.0,1.38921880449
1505402149495713019,0.12622055308,-0.187020264173,0.155605733395,0.0,0.0,1.38922521627
1505402149545766822,0.126193385335,-0.186727566792,0.155622422695,0.0,0.0,1.38921008076
1505402149595760685,0.126461602475,-0.187301298658,0.155610442162,0.0,0.0,1.38922375284
1505402149645650631,0.126245496237,-0.186869760563,0.155607938766,0.0,0.0,1.38922668071
1505402149695619690,0.126239583522,-0.187194682639,0.155600368977,0.0,0.0,1.38922367463
1505402149745770681,0.126193983643,-0.186752594919,0.155606627464,0.0,0.0,1.38922579305
1505402149795739393,0.126311047202,-0.186882616452,0.155615150928,0.0,0.0,1.38923465427
1505402149845670728,0.126339598264,-0.187118116257,0.155602693558,0.0,0.0,1.38921187268
1505402149895677436,0.126233337177,-0.186794760757,0.155602574348,0.0,0.0,1.38921638637
1505402149945608068,0.12622186931,-0.187126612912,0.155595898628,0.0,0.0,1.38922109752
1505402149995699410,0.126251130304,-0.187081161922,0.155589222908,0.0,0.0,1.38921294289
1505402150045678949,0.126298449187,-0.187075102268,0.155585587025,0.0,0.0,1.38921791981
1505402150095654030,0.126034508449,-0.186602196021,0.155618846416,0.0,0.0,1.38922039131
1505402150145629742,0.126676175491,-0.187718668297,0.155571401119,0.0,0.0,1.38922217501
1505402150195687468,0.125959619465,-0.186464390549,0.155584514141,0.0,0.0,1.38921600545
1505402150245671699,0.126027963293,-0.186560090863,0.155636429787,0.0,0.0,1.3892094559
1505402150295645196,0.126687737677,-0.187281518526,0.155631005764,0.0,0.0,1.38921455778
1505402150345707396,0.126288503264,-0.187272002175,0.155606210232,0.0,0.0,1.3892184672
1505402150395621239,0.126140909857,-0.186734127569,0.15560400486,0.0,0.0,1.38921376409
1505402150445759694,0.126095768627,-0.186575039491,0.15564674139,0.0,0.0,1.38922069166
1505402150495768495,0.126436415568,-0.187500547673,0.155636370182,0.0,0.0,1.38920452437
1505402150545646714,0.126447451949,-0.1876251525,0.155587732792,0.0,0.0,1.38921087424
1505402150595720557,0.125985876579,-0.186342497914,0.15561658144,0.0,0.0,1.38922359165
1505402150645702405,0.126372962119,-0.187016572907,0.155627608299,0.0,0.0,1.38919779716
1505402150695671225,0.126486626839,-0.187311829313,0.15559220314,0.0,0.0,1.38919666782
1505402150745753070,0.126224986652,-0.187203075376,0.155550718307,0.0,0.0,1.38919613158
1505402150795770688,0.125909723499,-0.18616374494,0.155580401421,0.0,0.0,1.38920291622
1505402150845609326,0.126133314653,-0.186581390335,0.155638515949,0.0,0.0,1.38920326929
1505402150895685534,0.12659733849,-0.18761178548,0.15562671423,0.0,0.0,1.38920616092
1505402150945584387,0.126155956702,-0.186971282521,0.155624687672,0.0,0.0,1.38921722808
1505402150995681000,0.126224544179,-0.186746942381,0.1556417346,0.0,0.0,1.3892247001
1505402151045795638,0.126406213309,-0.187046381111,0.155649125576,0.0,0.0,1.38922526335
1505402151095774497,0.12659423479,-0.187638886285,0.155594408512,0.0,0.0,1.3892247264
1505402151145925411,0.126099232532,-0.186726871549,0.155581533909,0.0,0.0,1.38922624546
1505402151195617454,0.126161240411,-0.186605118586,0.155600547791,0.0,0.0,1.38921194875
1505402151245651038,0.126289576627,-0.186907084542,0.155616283417,0.0,0.0,1.38922448582
1505402151295654335,0.126475262931,-0.18724308203,0.155590772629,0.0,0.0,1.3892095746
1505402151345595968,0.125967347078,-0.186593274503,0.155612230301,0.0,0.0,1.38921971329
1505402151395620594,0.126276932316,-0.186880623686,0.155638575554,0.0,0.0,1.38922496812
1505402151445706199,0.126465976614,-0.18741502542,0.155622899532,0.0,0.0,1.38922230086
1505402151495669954,0.126273075376,-0.187121102434,0.155607044697,0.0,0.0,1.38922842358
1505402151545816369,0.126060586598,-0.186581898653,0.155632257462,0.0,0.0,1.3892269231
1505402151596142677,0.126457246482,-0.187193830978,0.15563249588,0.0,0.0,1.3892287212
1505402151645649459,0.126460170188,-0.187130741899,0.155605137348,0.0,0.0,1.38921207114
1505402151695775603,0.126104588734,-0.186892064191,0.155603170395,0.0,0.0,1.38922011855
1505402151745717975,0.126374254118,-0.187091277993,0.155585169792,0.0,0.0,1.38921356791
1505402151795790956,0.126052090614,-0.186416727977,0.155618071556,0.0,0.0,1.38921762102
1505402151845664058,0.126429766836,-0.187346738279,0.155616462231,0.0,0.0,1.38923309295
1505402151895663127,0.126283401205,-0.187051802941,0.155612528324,0.0,0.0,1.38922075303
1505402151945672210,0.126042787991,-0.186558017076,0.155643701553,0.0,0.0,1.3892297843
1505402151995760805,0.126614894306,-0.18758105602,0.155612766743,0.0,0.0,1.38922873273
1505402152045622547,0.126055518018,-0.186497830449,0.155634880066,0.0,0.0,1.3892246423
1505402152095570299,0.126427699884,-0.187208462242,0.155628919601,0.0,0.0,1.38922542931
1505402152145724052,0.126359419374,-0.187099602329,0.155605614185,0.0,0.0,1.38922042017
1505402152195707989,0.126164584069,-0.186769155243,0.155615031719,0.0,0.0,1.3892238317
1505402152245743371,0.126403494225,-0.18717121627,0.155601322651,0.0,0.0,1.38923822795
1505402152295714892,0.126197107855,-0.186856494988,0.155594646931,0.0,0.0,1.38922417516
1505402152345847006,0.126004749727,-0.186658425515,0.155638694763,0.0,0.0,1.38923576641
1505402152395603939,0.126565684025,-0.187468145794,0.155630409718,0.0,0.0,1.3892431692
1505402152445760830,0.126143045453,-0.186589408936,0.155645430088,0.0,0.0,1.38923398773
1505402152495920120,0.126351023141,-0.186912985425,0.155658781528,0.0,0.0,1.38922726058
1505402152545803928,0.126422055637,-0.187367312529,0.155638277531,0.0,0.0,1.38922185154
1505402152595925921,0.126289395363,-0.18691434123,0.155620634556,0.0,0.0,1.38922363341
1505402152645723329,0.126109467193,-0.186896321718,0.155626118183,0.0,0.0,1.3892098036
1505402152695627733,0.126464839489,-0.187207400235,0.155598938465,0.0,0.0,1.38922221655
1505402152745810161,0.126257155372,-0.186920282178,0.155582249165,0.0,0.0,1.38921447195
1505402152795732996,0.126064561869,-0.186666854874,0.155608296394,0.0,0.0,1.38922845545
1505402152845701024,0.126162332397,-0.186477433799,0.155663490295,0.0,0.0,1.38922743286
1505402152895684179,0.126578349624,-0.187454681512,0.155665040016,0.0,0.0,1.38922032329
1505402152945675334,0.126438468085,-0.187290400013,0.15563160181,0.0,0.0,1.38923022121
1505402152995796148,0.12607277473,-0.186790661312,0.155627727509,0.0,0.0,1.38923476477
1505402153045673522,0.126214364363,-0.186823049693,0.155635774136,0.0,0.0,1.38923124474
1505402153095686513,0.126307680164,-0.186987911947,0.155644178391,0.0,0.0,1.38922579831
