%time,field.header.seq,field.header.stamp,field.header.frame_id,field.pose.position.x,field.pose.position.y,field.pose.position.z,field.pose.orientation.x,field.pose.orientation.y,field.pose.orientation.z,field.pose.orientation.w
1505402118934639124,8968,1505402118934438785,world,0.376706719398,0.844547092915,0.473375588655,-0.0177038367838,-0.998483479023,-0.0309035666287,0.0419806241989
1505402118934644995,8969,1505402118934483001,world,0.376701205969,0.844495415688,0.473363399506,-0.0177610311657,-0.998483538628,-0.0308825653046,0.0419703125954
1505402118944968550,8970,1505402118944809607,world,0.376700311899,0.844526052475,0.473396122456,-0.0177397076041,-0.998483598232,-0.0308744329959,0.0419815741479
1505402118955197909,8971,1505402118955058025,world,0.376698583364,0.84454536438,0.473382472992,-0.0177508890629,-0.998484730721,-0.0308455359191,0.041972771287
1505402118964411600,8972,1505402118964278222,world,0.376708656549,0.844488203526,0.473337620497,-0.0177457071841,-0.998483419418,-0.0308765675873,0.0419838130474
1505402118974652978,8973,1505402118974507244,world,0.376720696688,0.844516277313,0.473386406898,-0.0177030712366,-0.998484432697,-0.0308911707252,0.041965007782
1505402118995081712,8974,1505402118994903303,world,0.376694560051,0.844540059566,0.47336679697,-0.0177671946585,-0.998483836651,-0.0308513231575,0.0419819205999
1505402118995086947,8975,1505402118994963196,world,0.37670442462,0.844537436962,0.473389357328,-0.0177654866129,-0.998484790325,-0.0308251492679,0.0419803038239
1505402119004510662,8976,1505402119004345561,world,0.376707524061,0.844513356686,0.4733928442,-0.0177427921444,-0.998485088348,-0.030850507319,0.0419644191861
1505402119014837012,8977,1505402119014666056,world,0.376722514629,0.844460248947,0.473339766264,-0.0177511256188,-0.998483002186,-0.0308839455247,0.0419848188758
1505402119025022857,8978,1505402119024876533,world,0.376713782549,0.844551503658,0.473382771015,-0.0177480969578,-0.998484075069,-0.0308633577079,0.0419766046107
1505402119034346365,8979,1505402119034081600,world,0.376706898212,0.844565808773,0.473412245512,-0.0177367851138,-0.998484790325,-0.0308504197747,0.0419737733901
1505402119054621104,8980,1505402119054441894,world,0.376721024513,0.844465136528,0.47336179018,-0.0177695825696,-0.998483777046,-0.0308626815677,0.0419739894569
1505402119054625887,8981,1505402119054501951,world,0.37671366334,0.844522356987,0.473393082619,-0.0177421495318,-0.998484432697,-0.0308680441231,0.0419675894082
1505402119064990742,8982,1505402119064847161,world,0.376708179712,0.844512701035,0.473373889923,-0.0177513286471,-0.998484253883,-0.03086761944,0.0419662967324
1505402119084470119,8983,1505402119084272848,world,0.376713901758,0.844517707825,0.473380446434,-0.0177343506366,-0.998483896255,-0.030886201188,0.0419700928032
1505402119084475997,8984,1505402119084296900,world,0.376715302467,0.844553053379,0.473400145769,-0.0177179165184,-0.99848395586,-0.0308973025531,0.0419678092003
1505402119094634999,8985,1505402119094483961,world,0.376719623804,0.844475030899,0.473366171122,-0.0177562255412,-0.998483300209,-0.0308832842857,0.0419773310423
1505402119115110675,8986,1505402119114942026,world,0.376704663038,0.844533860683,0.473391979933,-0.0177464727312,-0.998484492302,-0.0308624655008,0.0419688001275
1505402119115123980,8987,1505402119114968065,world,0.376705259085,0.844533324242,0.473399966955,-0.017766289413,-0.998485147953,-0.0308313127607,0.0419679395854
1505402119124362852,8988,1505402119124201367,world,0.376708567142,0.844491899014,0.473373442888,-0.0177783593535,-0.998483240604,-0.0308625269681,0.0419840030372
1505402119144866853,8989,1505402119144660943,world,0.376718878746,0.844543516636,0.473398953676,-0.017724391073,-0.998484730721,-0.0308834072202,0.0419555827975
1505402119144882594,8990,1505402119144688382,world,0.376715421677,0.844516634941,0.47339168191,-0.0177535042167,-0.998484373093,-0.0308748930693,0.0419576838613
1505402119155070113,8991,1505402119154958051,world,0.376709491014,0.844537377357,0.473409831524,-0.0177516099066,-0.998485147953,-0.0308568179607,0.041955024004
1505402119174556408,8992,1505402119174312004,world,0.376713484526,0.844527840614,0.47338873148,-0.0177226755768,-0.998483896255,-0.0308941788971,0.0419691987336
1505402119174565506,8993,1505402119174338866,world,0.376709908247,0.844485163689,0.473388940096,-0.0177475940436,-0.998484075069,-0.0308936145157,0.0419534631073
1505402119184771315,8994,1505402119184593493,world,0.376710742712,0.844537615776,0.473395556211,-0.0177455935627,-0.998484253883,-0.0308646485209,0.0419733412564
1505402119205143089,8995,1505402119204976659,world,0.37670648098,0.844561338425,0.473395377398,-0.0177573263645,-0.998484611511,-0.0308503564447,0.0419684015214
1505402119205147623,8996,1505402119205012511,world,0.376716017723,0.844497382641,0.473393678665,-0.0177487935871,-0.998483538628,-0.0308828819543,0.0419748537242
1505402119214393195,8997,1505402119214248568,world,0.376710385084,0.844494462013,0.473381787539,-0.0177387911826,-0.998484194279,-0.0308797173202,0.0419664047658
1505402119234954152,8998,1505402119234723164,world,0.376699239016,0.844525516033,0.473378300667,-0.0177514068782,-0.998484969139,-0.0308361835778,0.0419730842113
1505402119234963240,8999,1505402119234746032,world,0.37670648098,0.844534516335,0.473393768072,-0.0177697762847,-0.998484075069,-0.0308489575982,0.0419764705002
1505402119245122585,9000,1505402119244950983,world,0.376706570387,0.844510376453,0.473363310099,-0.0177375152707,-0.998484253883,-0.0308676287532,0.0419732816517
1505402119264572941,9001,1505402119264408713,world,0.376712739468,0.844503998756,0.473343789577,-0.0177330374718,-0.99848395586,-0.0308790076524,0.0419739708304
1505402119264588007,9002,1505402119264443288,world,0.376710414886,0.844528019428,0.47338950634,-0.0177372712642,-0.998484790325,-0.0308588817716,0.0419687069952
1505402119274847955,9003,1505402119274647049,world,0.376710295677,0.844566941261,0.473409473896,-0.0177407357842,-0.998484909534,-0.0308421477675,0.0419750362635
1505402119285009515,9004,1505402119284850347,world,0.37670725584,0.844510495663,0.473364800215,-0.0177373476326,-0.998483359814,-0.0308841057122,0.0419813357294
1505402119295172128,9005,1505402119295044637,world,0.376715362072,0.844493210316,0.473365724087,-0.0177317727357,-0.998483598232,-0.0308936238289,0.0419718287885
1505402119304547474,9006,1505402119304317899,world,0.376706659794,0.844533085823,0.473366200924,-0.0177329499274,-0.998485207558,-0.0308337230235,0.0419771559536
1505402119324910647,9007,1505402119324718502,world,0.376703023911,0.844554662704,0.473385185003,-0.0177467986941,-0.998484611511,-0.0308397468179,0.0419836193323
1505402119324916029,9008,1505402119324765437,world,0.376711517572,0.844521999359,0.47339001298,-0.0177222248167,-0.998484611511,-0.0308643803,0.0419719517231
1505402119335060373,9009,1505402119334961878,world,0.3767105937,0.844485938549,0.47336345911,-0.0177225489169,-0.998483896255,-0.0308986175805,0.0419654659927
1505402119354561964,9010,1505402119354404093,world,0.376699924469,0.844508051872,0.473370015621,-0.0177432578057,-0.998483717442,-0.0308829061687,0.0419725477695
1505402119354570071,9011,1505402119354435221,world,0.376707583666,0.84454113245,0.473381489515,-0.017728773877,-0.998484253883,-0.0308589357883,0.0419847816229
1505402119364982974,9012,1505402119364840072,world,0.376711547375,0.844525754452,0.473358899355,-0.0177292600274,-0.998483717442,-0.0308735631406,0.0419862642884
1505402119375179936,9013,1505402119375031872,world,0.376707553864,0.844516932964,0.473370015621,-0.0177457518876,-0.998483896255,-0.0308604929596,0.0419839806855
1505402119384466668,9014,1505402119384295315,world,0.376698851585,0.844515740871,0.473360031843,-0.0177693385631,-0.998483538628,-0.0308400504291,0.0419968925416
1505402119394847338,9015,1505402119394628520,world,0.376698940992,0.844533026218,0.473382234573,-0.0177476685494,-0.998484790325,-0.0308443717659,0.0419728942215
1505402119405104708,9016,1505402119404896101,world,0.376713186502,0.844502210617,0.473386585712,-0.0177324898541,-0.998484671116,-0.0308662410825,0.0419677570462
1505402119424455784,9017,1505402119424298554,world,0.376716285944,0.844502329826,0.473355203867,-0.0177299138159,-0.99848306179,-0.0309029538184,0.0419774278998
1505402119424484147,9018,1505402119424325468,world,0.37670135498,0.844536185265,0.473373830318,-0.0177538134158,-0.99848395586,-0.0308521371335,0.0419836938381
1505402119434952055,9019,1505402119434715414,world,0.376713812351,0.844547331333,0.473411887884,-0.0177187882364,-0.998484730721,-0.0308523122221,0.0419812761247
1505402119445283797,9020,1505402119444929786,world,0.376711279154,0.844528734684,0.473392009735,-0.0177480988204,-0.998483479023,-0.0308664478362,0.0419883318245
1505402119454284237,9021,1505402119454141679,world,0.37671482563,0.844486534595,0.473372966051,-0.0177321452647,-0.998483181,-0.0309020765126,0.0419768802822
1505402119464575862,9022,1505402119464370649,world,0.376712501049,0.844507694244,0.473389804363,-0.0177425164729,-0.998484432697,-0.0308747254312,0.0419633202255
1505402119474805390,9023,1505402119474636167,world,0.376714318991,0.844529390335,0.473379820585,-0.0177507493645,-0.998483479023,-0.0308783855289,0.0419774390757
1505402119485072423,9024,1505402119484854957,world,0.376713752747,0.844533026218,0.473397821188,-0.0177530106157,-0.998484432697,-0.0308518167585,0.0419761650264
1505402119495278012,9025,1505402119495076100,world,0.376718997955,0.844519972801,0.473404198885,-0.0177520271391,-0.998484551907,-0.0308637525886,0.0419637411833
1505402119504550325,9026,1505402119504328738,world,0.376715898514,0.844498217106,0.473383069038,-0.0177530609071,-0.998484373093,-0.0308645665646,0.0419667623937
1505402119514662031,9027,1505402119514518459,world,0.376715064049,0.844524979591,0.47337448597,-0.0177543051541,-0.998484313488,-0.0308573078364,0.0419724956155
1505402119525130048,9028,1505402119524940030,world,0.37671944499,0.844517350197,0.473387509584,-0.0177528038621,-0.998483717442,-0.0308738984168,0.0419736020267
1505402119534188414,9029,1505402119534066577,world,0.376730799675,0.844507575035,0.473369449377,-0.0177514050156,-0.998483598232,-0.0308796875179,0.0419742688537
1505402119544574394,9030,1505402119544374837,world,0.376729369164,0.844518780708,0.473394960165,-0.01772961393,-0.998483598232,-0.0308841113001,0.041981831193
1505402119554762758,9031,1505402119554587487,world,0.376721650362,0.844527363777,0.473400443792,-0.0177741851658,-0.998484373093,-0.030847677961,0.0419691875577
1505402119564970162,9032,1505402119564812715,world,0.376717031002,0.844521045685,0.473396807909,-0.0177659597248,-0.99848395586,-0.0308602154255,0.0419720448554
1505402119575247321,9033,1505402119575085812,world,0.37672919035,0.844502568245,0.473368287086,-0.0177432559431,-0.998483479023,-0.030899008736,0.0419652275741
1505402119584541818,9034,1505402119584318912,world,0.376731365919,0.844492137432,0.473370760679,-0.0177457947284,-0.998483896255,-0.0308950524777,0.0419576093554
1505402119594631890,9035,1505402119594526739,world,0.376738667488,0.844532251358,0.473401427269,-0.0177356656641,-0.998485028744,-0.0308497808874,0.0419684872031
1505402119605047150,9036,1505402119604796477,world,0.376729995012,0.844527542591,0.473392814398,-0.0177661925554,-0.998483836651,-0.0308639947325,0.0419734381139
1505402119615185196,9037,1505402119615049691,world,0.376726180315,0.844511270523,0.47339335084,-0.0177679713815,-0.998484075069,-0.0308667346835,0.0419649705291
1505402119634641771,9038,1505402119634451217,world,0.376729756594,0.844498753548,0.473380625248,-0.017760861665,-0.998483419418,-0.0308817028999,0.0419733896852
1505402119634665799,9039,1505402119634478676,world,0.376722037792,0.844510197639,0.473373800516,-0.0177579652518,-0.998483657837,-0.0308742970228,0.0419742353261
1505402119644937697,9040,1505402119644691127,world,0.376727670431,0.84454458952,0.47340670228,-0.0177584476769,-0.998484909534,-0.0308455135673,0.0419665575027
1505402119654998503,9041,1505402119654888624,world,0.376729488373,0.844510614872,0.473399966955,-0.0177602972835,-0.998484194279,-0.0308624599129,0.0419685952365
1505402119664275686,9042,1505402119664081423,world,0.376730799675,0.844508051872,0.473397225142,-0.0177566874772,-0.998483657837,-0.0308769196272,0.0419728159904
1505402119674472342,9043,1505402119674321365,world,0.376735925674,0.844507336617,0.473373532295,-0.0177375916392,-0.998483717442,-0.0308764614165,0.0419790558517
1505402119694950449,9044,1505402119694722700,world,0.376733899117,0.844500482082,0.473379254341,-0.0177407711744,-0.998484015465,-0.030873125419,0.0419739596546
1505402119694959113,9045,1505402119694762441,world,0.376729160547,0.84455037117,0.473380953074,-0.0177270751446,-0.998484432697,-0.0308768153191,0.0419678017497
1505402119705184641,9046,1505402119705026558,world,0.376728713512,0.844522535801,0.473380953074,-0.0177578721195,-0.998483777046,-0.0308648645878,0.0419772677124
1505402119716672485,9047,1505402119716507444,world,0.37672829628,0.844502985477,0.473384618759,-0.0177558194846,-0.998483777046,-0.0308658387512,0.0419782996178
1505402119724934078,9048,1505402119724778836,world,0.376719266176,0.844517767429,0.473386317492,-0.0177384763956,-0.99848306179,-0.0308991614729,0.0419781990349
1505402119735169451,9049,1505402119735027885,world,0.376722723246,0.844510555267,0.473364919424,-0.0177305527031,-0.998483359814,-0.0308933351189,0.0419779792428
1505402119754613354,9050,1505402119754444975,world,0.376726537943,0.844518184662,0.473363399506,-0.0177229847759,-0.998482644558,-0.0309119541198,0.0419855006039
1505402119754619909,9051,1505402119754492280,world,0.376725554466,0.844502031803,0.473370581865,-0.0177387036383,-0.998482942581,-0.0308876540512,0.0419895350933
1505402119765107146,9052,1505402119764849475,world,0.376723617315,0.844518005848,0.473374426365,-0.017737487331,-0.998484730721,-0.0308582000434,0.0419707223773
1505402119784442862,9053,1505402119784269510,world,0.376716554165,0.844533443451,0.473386108875,-0.0177475791425,-0.998484432697,-0.0308375563473,0.0419871769845
1505402119784561842,9054,1505402119784332183,world,0.376720011234,0.844489514828,0.473364204168,-0.0177374556661,-0.998483121395,-0.0308913402259,0.0419815927744
1505402119794777125,9055,1505402119794638542,world,0.376725465059,0.844491362572,0.473372250795,-0.0177499428391,-0.99848395586,-0.0308582838625,0.0419806055725
1505402119815266615,9056,1505402119815048437,world,0.376719772816,0.844531297684,0.473379999399,-0.0177405178547,-0.99848395586,-0.0308666732162,0.0419809743762
1505402119815271205,9057,1505402119815129451,world,0.376728236675,0.844511985779,0.473371684551,-0.0177411232144,-0.998483359814,-0.0308816879988,0.0419827066362
1505402119824615334,9058,1505402119824416739,world,0.376726180315,0.844515025616,0.473390907049,-0.0177579857409,-0.998483598232,-0.0308563858271,0.0419875942171
1505402119845163515,9059,1505402119844934813,world,0.376719743013,0.844515621662,0.473379194736,-0.0177408829331,-0.998483598232,-0.0308598354459,0.04199276492
1505402119845169889,9060,1505402119844973912,world,0.376714527607,0.844518780708,0.473373889923,-0.0177567955106,-0.998483836651,-0.0308559667319,0.0419836193323
1505402119854439156,9061,1505402119854283048,world,0.376725822687,0.844512104988,0.473372787237,-0.01771668531,-0.998483359814,-0.0308875646442,0.0419902205467
1505402119874841315,9062,1505402119874676423,world,0.376734137535,0.844495952129,0.473364144564,-0.0177489519119,-0.998482704163,-0.030884059146,0.041992738843
1505402119874852217,9063,1505402119874704033,world,0.376725018024,0.844536006451,0.47338283062,-0.0177535843104,-0.99848395586,-0.0308560486883,0.0419798344374
1505402119885112510,9064,1505402119884932114,world,0.37672317028,0.844532251358,0.473378181458,-0.0177519191056,-0.998484075069,-0.0308419279754,0.0419923849404
1505402119904621510,9065,1505402119904335739,world,0.376725614071,0.8444891572,0.47335934639,-0.0177435111254,-0.998483657837,-0.0308734364808,0.041979636997
1505402119904641092,9066,1505402119904366324,world,0.376720249653,0.844520688057,0.473372817039,-0.0177470482886,-0.998483181,-0.0308837108314,0.0419830344617
1505402119914790398,9067,1505402119914573536,world,0.376727849245,0.844528615475,0.473388254642,-0.0177628863603,-0.998484075069,-0.0308640412986,0.0419679842889
1505402119935140089,9068,1505402119934946085,world,0.376733899117,0.844519078732,0.473389655352,-0.0177577380091,-0.998484432697,-0.0308514162898,0.0419716462493
1505402119935155314,9069,1505402119934971826,world,0.376734346151,0.844519078732,0.473399460316,-0.0177459195256,-0.998483836651,-0.0308808740228,0.0419703274965
1505402119944457784,9070,1505402119944319017,world,0.376736074686,0.844481885433,0.473373323679,-0.0177542027086,-0.998483479023,-0.0308837536722,0.0419720411301
1505402119965065163,9071,1505402119964696334,world,0.376726090908,0.844521403313,0.473405152559,-0.0177550893277,-0.998483717442,-0.0308790076524,0.0419704318047
1505402119965072406,9072,1505402119964759611,world,0.37672740221,0.844529151917,0.473394215107,-0.017761124298,-0.998483479023,-0.030866984278,0.0419827587903
1505402119975213534,9073,1505402119975039432,world,0.376732736826,0.844504475594,0.47337269783,-0.0177345313132,-0.998484432697,-0.030869551003,0.041968472302
1505402119994675583,9074,1505402119994491361,world,0.376739531755,0.844520866871,0.473388552666,-0.0177432987839,-0.998483479023,-0.0308699086308,0.0419858768582
1505402119994689061,9075,1505402119994513656,world,0.376741021872,0.84448069334,0.473386019468,-0.0177644230425,-0.998483538628,-0.0308675523847,0.0419795326889
1505402120004994989,9076,1505402120004763081,world,0.376733362675,0.84452188015,0.473393797874,-0.0177511107177,-0.998484015465,-0.0308652576059,0.0419744662941
1505402120024321071,9077,1505402120024193301,world,0.376739859581,0.844533026218,0.473402798176,-0.0177426282316,-0.998484134674,-0.0308788511902,0.0419664978981
1505402120024459547,9078,1505402120024334219,world,0.376739472151,0.844478964806,0.473365455866,-0.0177788678557,-0.998483240604,-0.0308733861893,0.0419762432575
1505402120034702640,9079,1505402120034557270,world,0.376750081778,0.844525933266,0.473397731781,-0.0177394207567,-0.998484015465,-0.0308724176139,0.041975453496
1505402120045003228,9080,1505402120044822132,world,0.376735538244,0.84451764822,0.473398029804,-0.0177720934153,-0.998483538628,-0.0308760404587,0.0419693104923
1505402120055118951,9081,1505402120055003069,world,0.376742094755,0.844503343105,0.473407655954,-0.01776487194,-0.998484015465,-0.0308847818524,0.0419561713934
1505402120064442589,9082,1505402120064272825,world,0.376736342907,0.844516098499,0.473391979933,-0.0177396796644,-0.99848395586,-0.030882993713,0.0419674478471
1505402120084856776,9083,1505402120084669691,world,0.376736998558,0.844484627247,0.473378002644,-0.0177640262991,-0.998483836651,-0.0308547895402,0.041980586946
1505402120084879230,9084,1505402120084701870,world,0.376742064953,0.844513952732,0.47339501977,-0.0177566446364,-0.998483121395,-0.030877629295,0.0419860519469
1505402120095056776,9085,1505402120094918739,world,0.376742094755,0.844533264637,0.47339913249,-0.0177734978497,-0.998484194279,-0.0308452006429,0.0419744811952
1505402120114445347,9086,1505402120114292730,world,0.376746296883,0.844497263432,0.473384320736,-0.0177618097514,-0.998483479023,-0.0308708306402,0.0419799908996
1505402120114449940,9087,1505402120114324945,world,0.376742452383,0.844517171383,0.473397523165,-0.0177504904568,-0.998483717442,-0.0308680832386,0.0419798530638
1505402120124932427,9088,1505402120124749806,world,0.376747012138,0.844480097294,0.473389089108,-0.0177634060383,-0.998483002186,-0.0309049654752,0.041966278106
1505402120135222018,9089,1505402120135061770,world,0.376756817102,0.844496250153,0.473379135132,-0.017767675221,-0.998482704163,-0.0308864358813,0.0419828370214
1505402120144393314,9090,1505402120144253276,world,0.376745283604,0.844534397125,0.47339078784,-0.0177611280233,-0.998483598232,-0.0308830365539,0.0419684164226
1505402120154630781,9091,1505402120154460879,world,0.376746803522,0.844494283199,0.473381668329,-0.017748625949,-0.998483240604,-0.0308943353593,0.0419726781547
1505402120175011764,9092,1505402120174846715,world,0.376745641232,0.84452611208,0.473398268223,-0.0177518147975,-0.998483657837,-0.0308670494705,0.0419820211828
1505402120175031832,9093,1505402120174873632,world,0.376742631197,0.844507098198,0.473386019468,-0.0177546516061,-0.998483777046,-0.030863083899,0.0419808365405
1505402120184230669,9094,1505402120184074813,world,0.376746028662,0.844480156898,0.473362624645,-0.0177521016449,-0.998483598232,-0.0308715738356,0.0419806838036
1505402120204784130,9095,1505402120204554849,world,0.376738518476,0.844530165195,0.473366290331,-0.0177498366684,-0.998482704163,-0.0308824591339,0.041994523257
1505402120204788435,9096,1505402120204585765,world,0.376746892929,0.844502925873,0.473368287086,-0.0177685581148,-0.998482644558,-0.0308733582497,0.041994407773
1505402120215023187,9097,1505402120214829723,world,0.376740008593,0.844513595104,0.473377138376,-0.0177708230913,-0.998484134674,-0.0308262482285,0.0419919118285
1505402120225164672,9098,1505402120225033381,world,0.376730412245,0.844520330429,0.47337192297,-0.0177530162036,-0.998483717442,-0.0308387745172,0.0419996194541
1505402120234353547,9099,1505402120234222475,world,0.376736551523,0.844479382038,0.473352849483,-0.0177844520658,-0.998482763767,-0.0308651532978,0.0419922024012
1505402120244589886,9100,1505402120244437934,world,0.376736223698,0.844520151615,0.473376214504,-0.0177725106478,-0.998483300209,-0.0308563765138,0.0419903844595
1505402120265152196,9101,1505402120264924749,world,0.376741528511,0.844531297684,0.473360836506,-0.017756735906,-0.998484075069,-0.0308431629092,0.041986707598
1505402120265161457,9102,1505402120264958089,world,0.376738786697,0.84450250864,0.473357528448,-0.0177622493356,-0.99848228693,-0.030871829018,0.0420071780682
1505402120274377483,9103,1505402120274199079,world,0.37673997879,0.844514966011,0.473387598991,-0.0177515875548,-0.998484551907,-0.0308383684605,0.0419809892774
1505402120294929542,9104,1505402120294686232,world,0.3767388165,0.844488918781,0.473364412785,-0.0177465733141,-0.998483896255,-0.030861299485,0.0419817604125
1505402120294959908,9105,1505402120294710110,world,0.376733750105,0.844519197941,0.473383456469,-0.0177557971328,-0.998483121395,-0.030866086483,0.0419934280217
1505402120305116316,9106,1505402120304948804,world,0.376733481884,0.844525098801,0.473382592201,-0.0177501812577,-0.998483419418,-0.0308745708317,0.0419819951057
1505402120324660470,9107,1505402120324507816,world,0.376735329628,0.844499528408,0.473382264376,-0.017782472074,-0.998483419418,-0.0308453403413,0.0419911779463
1505402120324718924,9108,1505402120324558561,world,0.376746743917,0.844550013542,0.473395764828,-0.0177426896989,-0.998483538628,-0.0308622047305,0.0419915542006
1505402120335072131,9109,1505402120334931141,world,0.376745909452,0.844497919083,0.473371803761,-0.0177670996636,-0.998483777046,-0.030861761421,0.041976518929
1505402120354501512,9110,1505402120354301848,world,0.376744121313,0.844485163689,0.473358333111,-0.0177700649947,-0.998483657837,-0.0308477263898,0.0419876538217
1505402120354515739,9111,1505402120354362843,world,0.37674933672,0.84452944994,0.473390549421,-0.0177407003939,-0.998483836651,-0.0308637879789,0.0419840179384
1505402120365031383,9112,1505402120364692608,world,0.37674459815,0.844522356987,0.473378777504,-0.017783196643,-0.998482823372,-0.0308561511338,0.0419975928962
1505402120384357751,9113,1505402120384101386,world,0.376748502254,0.844538748264,0.47340092063,-0.0177549328655,-0.99848306179,-0.0308754108846,0.0419891737401
1505402120384364840,9114,1505402120384134213,world,0.376746535301,0.844514131546,0.473411172628,-0.0177772715688,-0.998483538628,-0.0308556240052,0.0419819355011
1505402120394656741,9115,1505402120394516981,world,0.376745998859,0.84449750185,0.473370611668,-0.0177452079952,-0.99848306179,-0.0308967698365,0.041976198554
1505402120415159050,9116,1505402120414957805,world,0.376743137836,0.844495534897,0.473394006491,-0.0177580211312,-0.99848395586,-0.0308866780251,0.0419587492943
1505402120415213727,9117,1505402120414992455,world,0.376740068197,0.844497323036,0.473373323679,-0.0177737381309,-0.998483240604,-0.0308666210622,0.0419835932553
1505402120424427548,9118,1505402120424238980,world,0.376741975546,0.844558179379,0.473398625851,-0.0177615080029,-0.998483836651,-0.0308517217636,0.0419851019979
1505402120434660279,9119,1505402120434454996,world,0.376759141684,0.84451520443,0.473402649164,-0.017765821889,-0.998484075069,-0.0308455377817,0.0419826097786
1505402120444879347,9120,1505402120444703645,world,0.376748949289,0.844466149807,0.473377168179,-0.0177710577846,-0.998483240604,-0.0308802500367,0.0419730506837
1505402120455158799,9121,1505402120454978857,world,0.376744568348,0.844505488873,0.473394185305,-0.0177589524537,-0.99848395586,-0.030870096758,0.041969422251
1505402120464597412,9122,1505402120464206740,world,0.376739442348,0.844510912895,0.473400712013,-0.0177758391947,-0.998483002186,-0.0308784209192,0.0419805385172
1505402120474561666,9123,1505402120474425375,world,0.376746028662,0.844516813755,0.473385930061,-0.0177607983351,-0.998483777046,-0.0308541599661,0.0419848896563
1505402120484929101,9124,1505402120484728949,world,0.376744359732,0.844514548779,0.473386347294,-0.0177534576505,-0.998483657837,-0.0308528933674,0.0419908463955
1505402120495039855,9125,1505402120494932833,world,0.376745671034,0.844503343105,0.473383247852,-0.0177760254592,-0.998483181,-0.0308665353805,0.0419840142131
1505402120504367367,9126,1505402120504113577,world,0.376736164093,0.84451431036,0.473393946886,-0.0177641510963,-0.998483777046,-0.0308472514153,0.0419884249568
1505402120514520135,9127,1505402120514377483,world,0.376740932465,0.844507098198,0.473392337561,-0.0177830383182,-0.998484194279,-0.0308414362371,0.0419740863144
1505402120524995213,9128,1505402120524764719,world,0.37674343586,0.844500482082,0.473377496004,-0.0177691075951,-0.998482346535,-0.0308886636049,0.041990544647
1505402120535144010,9129,1505402120535004458,world,0.376751750708,0.844519138336,0.4733966887,-0.0177292283624,-0.998483359814,-0.0308986641467,0.0419749468565
1505402120544509293,9130,1505402120544346895,world,0.376748740673,0.844511091709,0.473408848047,-0.0177496988326,-0.998483479023,-0.0308705754578,0.0419834554195
1505402120554693390,9131,1505402120554537899,world,0.376740902662,0.844505429268,0.473408162594,-0.0177582222968,-0.998483359814,-0.0308741461486,0.0419803112745
1505402120565027817,9132,1505402120564820032,world,0.376740217209,0.844499826431,0.473396390676,-0.0177513249218,-0.998484253883,-0.0308592319489,0.0419736430049
1505402120575186374,9133,1505402120575044733,world,0.376744955778,0.844478309155,0.4733928442,-0.0177660770714,-0.998483181,-0.030876994133,0.0419794023037
1505402120584479814,9134,1505402120584272092,world,0.376745700836,0.84452277422,0.473392158747,-0.0177518129349,-0.998483896255,-0.030858784914,0.0419816225767
1505402120594716390,9135,1505402120594545887,world,0.376750707626,0.84454113245,0.473402798176,-0.01774450019,-0.998484075069,-0.0308578331023,0.0419811606407
1505402120605019049,9136,1505402120604813422,world,0.376739859581,0.844491660595,0.473393440247,-0.0177863687277,-0.998483717442,-0.0308535806835,0.0419750064611
1505402120615213761,9137,1505402120615075282,world,0.376746296883,0.844480514526,0.473369240761,-0.0177614782006,-0.998483181,-0.03087361902,0.0419848002493
1505402120624518333,9138,1505402120624335873,world,0.376742571592,0.844489037991,0.473370939493,-0.0177639331669,-0.998483002186,-0.0308664441109,0.0419936664402
1505402120634739899,9139,1505402120634551511,world,0.376745194197,0.844532728195,0.473393142223,-0.017756992951,-0.998483359814,-0.0308674946427,0.0419871807098
1505402120645037203,9140,1505402120644804053,world,0.376744866371,0.844530940056,0.473395228386,-0.0177836176008,-0.998483300209,-0.0308455135673,0.0419924035668
1505402120655201773,9141,1505402120655030034,world,0.376750260592,0.844510018826,0.473378658295,-0.0177699998021,-0.99848306179,-0.0308665912598,0.041989557445
1505402120664409465,9142,1505402120664235634,world,0.376751661301,0.844514727592,0.473393380642,-0.0177620630711,-0.998482882977,-0.0308858528733,0.04198243469
1505402120674601684,9143,1505402120674431325,world,0.376740396023,0.844499826431,0.473382204771,-0.0177565794438,-0.99848395586,-0.0308632683009,0.0419754125178
1505402120684871505,9144,1505402120684698599,world,0.376743674278,0.844501256943,0.473369836807,-0.0177731923759,-0.998483121395,-0.0308609437197,0.041990134865
1505402120695257999,9145,1505402120695031104,world,0.376750797033,0.84452432394,0.473392039537,-0.0177608467638,-0.998482942581,-0.0308729819953,0.0419908463955
1505402120704531441,9146,1505402120704326864,world,0.376755088568,0.844500124454,0.473375827074,-0.0177616812289,-0.998483300209,-0.0308596380055,0.0419921688735
1505402120714682827,9147,1505402120714540715,world,0.376753091812,0.844511806965,0.473384827375,-0.0177527070045,-0.998484253883,-0.0308382827789,0.0419882871211
1505402120724914942,9148,1505402120724766147,world,0.376738995314,0.844515144825,0.473384141922,-0.0177525375038,-0.998483717442,-0.0308408737183,0.0419984534383
1505402120735144340,9149,1505402120735022279,world,0.376747637987,0.844479620457,0.473364233971,-0.0177722070366,-0.998483240604,-0.0308696720749,0.0419814623892
1505402120744422131,9150,1505402120744269874,world,0.376749932766,0.844518601894,0.473370611668,-0.0177239924669,-0.998483479023,-0.0308731589466,0.0419924147427
1505402120754674434,9151,1505402120754502418,world,0.376753628254,0.844501078129,0.473369300365,-0.017767040059,-0.998483777046,-0.0308532044291,0.0419824309647
1505402120764898268,9152,1505402120764693583,world,0.376746714115,0.844532966614,0.473379731178,-0.0177642330527,-0.998483538628,-0.0308420974761,0.0419977381825
1505402120775234489,9153,1505402120774942912,world,0.376741677523,0.844515264034,0.473390251398,-0.0177730526775,-0.998483121395,-0.0308753009886,0.0419802814722
1505402120784387246,9154,1505402120784187959,world,0.376740068197,0.844475626945,0.473372250795,-0.0177759882063,-0.998482763767,-0.0308591946959,0.0419985167682
1505402120794636380,9155,1505402120794468144,world,0.376741468906,0.844510316849,0.473376870155,-0.0177587457001,-0.998482882977,-0.0308789871633,0.0419878028333
1505402120804954042,9156,1505402120804721236,world,0.376746058464,0.8445109725,0.473392784595,-0.0177611373365,-0.998483181,-0.0308660827577,0.0419912002981
1505402120815131926,9157,1505402120814973754,world,0.376745581627,0.84450674057,0.473371386528,-0.0177503824234,-0.998483538628,-0.0308530516922,0.0419942177832
1505402120824337100,9158,1505402120824176982,world,0.376753300428,0.844523012638,0.473391085863,-0.017756242305,-0.998483777046,-0.0308611150831,0.0419807210565
1505402120834539709,9159,1505402120834381083,world,0.376751691103,0.844508230686,0.473367273808,-0.0177391916513,-0.998483359814,-0.0308543816209,0.0420038104057
1505402120844779517,9160,1505402120844607317,world,0.376739770174,0.844502747059,0.473388999701,-0.0177694745362,-0.99848306179,-0.030856994912,0.0419954322278
1505402120855065085,9161,1505402120854856249,world,0.376752436161,0.844503462315,0.473397225142,-0.0177531763911,-0.99848306179,-0.0308718401939,0.0419920347631
1505402120865255042,9162,1505402120865091706,world,0.376763403416,0.844488978386,0.473373413086,-0.0177539419383,-0.998483598232,-0.0308633018285,0.0419843867421
1505402120874520200,9163,1505402120874322909,world,0.376761168242,0.844527184963,0.473394304514,-0.0177608020604,-0.998484432697,-0.0308340471238,0.0419846251607
1505402120884695892,9164,1505402120884527136,world,0.376753211021,0.844522595406,0.473399966955,-0.0177464932203,-0.998482763767,-0.0308798607439,0.0419952087104
1505402120894969274,9165,1505402120894747926,world,0.376745432615,0.844489634037,0.473398506641,-0.0177661385387,-0.998484253883,-0.0308511182666,0.0419725961983
1505402120905086445,9166,1505402120904970442,world,0.376748979092,0.844502687454,0.473389565945,-0.0177525747567,-0.998483598232,-0.0308751836419,0.0419767163694
1505402120914334547,9167,1505402120914173911,world,0.37675383687,0.844487309456,0.47338488698,-0.0177879594266,-0.998483598232,-0.0308544505388,0.0419778078794
1505402120924528912,9168,1505402120924360085,world,0.37674921751,0.84452021122,0.473395824432,-0.0177632048726,-0.998483657837,-0.0308626424521,0.0419799946249
1505402120934713106,9169,1505402120934570374,world,0.376749455929,0.844534814358,0.473412543535,-0.0177674070001,-0.998483419418,-0.030866086483,0.0419826880097
1505402120945018602,9170,1505402120944849350,world,0.37674459815,0.8444865942,0.473394781351,-0.017768368125,-0.998483300209,-0.0308752954006,0.0419776439667
1505402120955290791,9171,1505402120955116640,world,0.376746684313,0.844479680061,0.473393589258,-0.0177686121315,-0.998483717442,-0.0308636557311,0.0419746935368
1505402120964520183,9172,1505402120964353739,world,0.376740515232,0.844497382641,0.473393708467,-0.0177609939128,-0.998483181,-0.0308761131018,0.0419822148979
1505402120974813103,9173,1505402120974637807,world,0.37674382329,0.844516694546,0.473408132792,-0.0177700128406,-0.998483240604,-0.0308582168072,0.0419911853969
1505402120985080855,9174,1505402120984892606,world,0.37674972415,0.844533145428,0.473407536745,-0.0177570953965,-0.998484313488,-0.0308466292918,0.0419784486294
1505402120994217429,9175,1505402120994078975,world,0.376747727394,0.844487071037,0.473391413689,-0.01776920259,-0.998483479023,-0.0308706518263,0.0419754423201
1505402121004565026,9176,1505402121004440034,world,0.376748561859,0.844521522522,0.473400563002,-0.017735272646,-0.998483419418,-0.0308754593134,0.0419873036444
1505402121014894092,9177,1505402121014641368,world,0.376734554768,0.844520509243,0.473397284746,-0.0177904330194,-0.998483300209,-0.0308628790081,0.041977442801
1505402121025045460,9178,1505402121024878817,world,0.376746445894,0.844466269016,0.473375111818,-0.0177820399404,-0.998483181,-0.030866606161,0.0419808514416
1505402121034240233,9179,1505402121034063677,world,0.376748591661,0.844499707222,0.473377466202,-0.0177767109126,-0.998483479023,-0.0308548938483,0.0419848822057
1505402121044454922,9180,1505402121044282493,world,0.376747637987,0.844529569149,0.473392933607,-0.0177820287645,-0.998483777046,-0.0308425109833,0.0419844351709
1505402121054783623,9181,1505402121054605857,world,0.376754254103,0.844524502754,0.473405063152,-0.0177750978619,-0.998484492302,-0.0308302696794,0.0419796034694
1505402121065543039,9182,1505402121064948482,world,0.376744180918,0.844496190548,0.47340041399,-0.0177494883537,-0.998483300209,-0.030878232792,0.0419815666974
1505402121074335894,9183,1505402121074189015,world,0.376744568348,0.84447568655,0.473369479179,-0.0177608430386,-0.99848306179,-0.0308769997209,0.0419852025807
1505402121084588703,9184,1505402121084404606,world,0.376743942499,0.844513773918,0.473386317492,-0.0177695546299,-0.998483777046,-0.0308451987803,0.0419872328639
1505402121094806648,9185,1505402121094627053,world,0.376746237278,0.844526469707,0.473411798477,-0.0177750978619,-0.998483121395,-0.0308574419469,0.0419916696846
1505402121105039062,9186,1505402121104846383,world,0.376749634743,0.844510138035,0.473390132189,-0.0177460294217,-0.998483598232,-0.0308679677546,0.0419843681157
1505402121115246803,9187,1505402121115092082,world,0.376750379801,0.84449249506,0.473390817642,-0.017743293196,-0.998483657837,-0.0308598130941,0.0419891364872
1505402121124424174,9188,1505402121124273390,world,0.376750200987,0.844487965107,0.473393917084,-0.0177715457976,-0.998483300209,-0.0308631565422,0.0419834628701
1505402121134862724,9189,1505402121134484489,world,0.376736789942,0.844500362873,0.4733761549,-0.0177731011063,-0.998483598232,-0.0308559592813,0.0419826582074
1505402121144963026,9190,1505402121144732203,world,0.376754641533,0.844516098499,0.473394542933,-0.0177750941366,-0.998483836651,-0.0308480393142,0.0419819690287
1505402121155211246,9191,1505402121155005431,world,0.376747637987,0.844505190849,0.473384410143,-0.0177771244198,-0.998483479023,-0.0308413971215,0.0419934466481
1505402121164514739,9192,1505402121164280582,world,0.376749277115,0.844504654408,0.473401337862,-0.017777947709,-0.998484134674,-0.0308318510652,0.0419849529862
1505402121174680058,9193,1505402121174532147,world,0.376744747162,0.844498634338,0.47338360548,-0.017783716321,-0.998483181,-0.0308493021876,0.0419948622584
1505402121184935039,9194,1505402121184767438,world,0.376737803221,0.844485580921,0.473361730576,-0.0177751742303,-0.998483181,-0.0308613125235,0.041987221688
1505402121195228915,9195,1505402121195074872,world,0.37674459815,0.844501912594,0.473380059004,-0.0177838336676,-0.998482704163,-0.0308601595461,0.0419964976609
1505402121204531483,9196,1505402121204338540,world,0.376752436161,0.844537317753,0.47339373827,-0.0177705734968,-0.998483479023,-0.0308425351977,0.0419966243207
1505402121214713368,9197,1505402121214572460,world,0.376758337021,0.844514787197,0.473390072584,-0.0177749954164,-0.998482942581,-0.030861178413,0.0419920943677
1505402121224889506,9198,1505402121224766423,world,0.376745045185,0.8444840312,0.473384827375,-0.0177680961788,-0.998484015465,-0.0308451205492,0.0419825464487
1505402121235165738,9199,1505402121235028937,world,0.376741737127,0.844480752945,0.473367661238,-0.0177842807025,-0.998482823372,-0.0308518409729,0.0419987328351
1505402121244502505,9200,1505402121244261987,world,0.376741409302,0.844519853592,0.473377168179,-0.0177929420024,-0.998483181,-0.0308395456523,0.041996486485
1505402121254723007,9201,1505402121254523698,world,0.376747429371,0.844512522221,0.47339913249,-0.0177750531584,-0.998483896255,-0.0308372862637,0.0419880710542
1505402121264892819,9202,1505402121264766670,world,0.376759201288,0.844509959221,0.473381966352,-0.017759045586,-0.998483777046,-0.0308611933142,0.041980329901
1505402121275212813,9203,1505402121275077611,world,0.376758575439,0.844512820244,0.47337654233,-0.0177285354584,-0.998483777046,-0.0308770798147,0.0419814251363
1505402121284600357,9204,1505402121284358703,world,0.376746416092,0.844485402107,0.473383247852,-0.0177937559783,-0.998483181,-0.0308516994119,0.0419866144657
1505402121294786501,9205,1505402121294547149,world,0.376741856337,0.844503700733,0.473385751247,-0.0177853219211,-0.998483598232,-0.0308418348432,0.0419864244759
1505402121305063438,9206,1505402121304793913,world,0.376744776964,0.84451687336,0.473384588957,-0.0177773013711,-0.998484194279,-0.030842423439,0.0419766791165
1505402121315171063,9207,1505402121315028897,world,0.376760989428,0.844499647617,0.473389595747,-0.0177595634013,-0.998483240604,-0.0308737307787,0.041983678937
1505402121324483080,9208,1505402121324274132,world,0.376755386591,0.844506978989,0.473388463259,-0.0177649129182,-0.998483717442,-0.0308557804674,0.0419842004776
1505402121334743493,9209,1505402121334499587,world,0.376745551825,0.844490587711,0.473385602236,-0.0177832394838,-0.998483479023,-0.0308508593589,0.0419860631227
1505402121344952350,9210,1505402121344755273,world,0.376742988825,0.844497561455,0.473374694586,-0.0177675448358,-0.998484194279,-0.030844643712,0.0419782325625
1505402121355218039,9211,1505402121354986049,world,0.376744091511,0.844498038292,0.473389774561,-0.0178011991084,-0.998483657837,-0.0308334678411,0.0419856458902
1505402121364442226,9212,1505402121364232514,world,0.37674921751,0.84451186657,0.473386257887,-0.017785269767,-0.998484194279,-0.0308259427547,0.0419846922159
1505402121374639602,9213,1505402121374476136,world,0.376757800579,0.844513654709,0.473388105631,-0.0177647359669,-0.998484134674,-0.0308398064226,0.0419855602086
1505402121384849693,9214,1505402121384706339,world,0.376756042242,0.844498455524,0.473376899958,-0.0177697725594,-0.998483538628,-0.0308590065688,0.0419830940664
1505402121395115324,9215,1505402121394979430,world,0.376751244068,0.844503879547,0.473375856876,-0.0177666544914,-0.998482644558,-0.0308895595372,0.0419843047857
1505402121404380533,9216,1505402121404218471,world,0.376742601395,0.844507932663,0.473394870758,-0.0177793521434,-0.998484253883,-0.030840061605,0.0419751480222
1505402121414670881,9217,1505402121414481590,world,0.376752406359,0.844503760338,0.473386228085,-0.0177861861885,-0.998484015465,-0.0308508146554,0.0419706664979
1505402121424863965,9218,1505402121424719787,world,0.376751303673,0.844505429268,0.473390340805,-0.0177685692906,-0.998483181,-0.0308762863278,0.0419799350202
1505402121435105139,9219,1505402121434970410,world,0.376763671637,0.844508767128,0.473400861025,-0.0177602246404,-0.998484075069,-0.0308582223952,0.0419741123915
1505402121444329970,9220,1505402121444183169,world,0.376748144627,0.844498217106,0.473375797272,-0.0177837759256,-0.998483777046,-0.0308355912566,0.0419879294932
1505402121454610286,9221,1505402121454443494,world,0.376748204231,0.844510018826,0.473392128944,-0.0177481472492,-0.998483717442,-0.0308839585632,0.0419698506594
1505402121475204767,9222,1505402121474923230,world,0.376751035452,0.844492197037,0.473395317793,-0.0177676379681,-0.998483181,-0.0308662466705,0.0419878177345
1505402121475227561,9223,1505402121474949539,world,0.376756429672,0.844497382641,0.473368316889,-0.0177586246282,-0.998483777046,-0.0308554302901,0.0419854484499
1505402121484362731,9224,1505402121484206437,world,0.376750528812,0.844530463219,0.473406076431,-0.0177826415747,-0.998484253883,-0.0308289658278,0.0419826544821
1505402121504871647,9225,1505402121504665894,world,0.376750409603,0.844501852989,0.473383128643,-0.017775055021,-0.998483419418,-0.0308613739908,0.0419814996421
1505402121504904338,9226,1505402121504693342,world,0.376745194197,0.844466149807,0.473361462355,-0.0177713539451,-0.998483121395,-0.030868018046,0.0419855713844
1505402121515206207,9227,1505402121515048083,world,0.376742273569,0.844509601593,0.473384797573,-0.0177739560604,-0.998483002186,-0.0308677721769,0.0419882647693
1505402121534674651,9228,1505402121534507038,world,0.376748293638,0.84450674057,0.473399251699,-0.017800938338,-0.998484194279,-0.0308219250292,0.0419823266566
1505402121534692523,9229,1505402121534551407,world,0.376750588417,0.844528079033,0.473399430513,-0.0177794191986,-0.998484015465,-0.0308350846171,0.0419852957129
1505402121544981823,9230,1505402121544804105,world,0.376751542091,0.844500303268,0.473388820887,-0.0177723411471,-0.998483359814,-0.0308565832675,0.0419887155294
1505402121564410804,9231,1505402121564220241,world,0.376746535301,0.844478487968,0.473367899656,-0.0177899654955,-0.998483121395,-0.0308580528945,0.0419853180647
1505402121564416113,9232,1505402121564258409,world,0.376742780209,0.844508230686,0.473382413387,-0.0177701506764,-0.998483777046,-0.0308455619961,0.0419860631227
1505402121574660644,9233,1505402121574504246,world,0.376749545336,0.844497919083,0.473382472992,-0.0177670437843,-0.998483657837,-0.0308620166034,0.0419797413051
1505402121595145281,9234,1505402121594925710,world,0.37674665451,0.844531297684,0.473394244909,-0.0177850369364,-0.998483300209,-0.0308505520225,0.0419880151749
1505402121595149507,9235,1505402121594980260,world,0.376752316952,0.844524383545,0.473393380642,-0.0177568327636,-0.998484075069,-0.0308474563062,0.0419828630984
1505402121604424946,9236,1505402121604219583,world,0.376755714417,0.844462394714,0.473351091146,-0.0177683010697,-0.998483419418,-0.0308499764651,0.0419932417572
1505402121624695630,9237,1505402121624564015,world,0.376746326685,0.84452599287,0.473365813494,-0.0177765339613,-0.998483777046,-0.0308404527605,0.0419881790876
1505402121624699413,9238,1505402121624603341,world,0.376740098,0.84451264143,0.473404824734,-0.0177649483085,-0.998484015465,-0.0308439135551,0.0419846922159
1505402121634988384,9239,1505402121634831552,world,0.376750975847,0.844495356083,0.473386913538,-0.0177716352046,-0.998483598232,-0.0308515224606,0.04198705405
1505402121654597682,9240,1505402121654327967,world,0.376753956079,0.844492137432,0.473391503096,-0.0177708677948,-0.998483538628,-0.0308575071394,0.0419833362103
1505402121654601984,9241,1505402121654358090,world,0.376758158207,0.844503045082,0.473368525505,-0.0177711807191,-0.998483598232,-0.0308451466262,0.0419908501208
1505402121664773028,9242,1505402121664588030,world,0.376741498709,0.844530463219,0.47338104248,-0.0177833847702,-0.99848395586,-0.0308188963681,0.0419959388673
1505402121674963430,9243,1505402121674824993,world,0.376749098301,0.844486892223,0.473384171724,-0.0177840813994,-0.99848395586,-0.0308462884277,0.0419769473374
1505402121685214164,9244,1505402121685022277,world,0.376753300428,0.844476819038,0.473359376192,-0.0177626553923,-0.998483121395,-0.0308603644371,0.0419957786798
1505402121694388319,9245,1505402121694208065,world,0.376747965813,0.844537258148,0.473396241665,-0.0177513044327,-0.998483538628,-0.0308661237359,0.0419850833714
1505402121704639158,9246,1505402121704474633,world,0.376757770777,0.844508111477,0.473385214806,-0.0177643913776,-0.998483419418,-0.0308582223952,0.0419891178608
1505402121714828984,9247,1505402121714666813,world,0.376757532358,0.84451264143,0.473383396864,-0.0177741553634,-0.998483479023,-0.0308559052646,0.0419857800007
1505402121725032643,9248,1505402121724917126,world,0.37675896287,0.844526171684,0.473383188248,-0.0177550558001,-0.998484015465,-0.0308492444456,0.041985463351
1505402121734221475,9249,1505402121734044777,world,0.376741081476,0.844484508038,0.473391532898,-0.0178063809872,-0.998483777046,-0.0308276619762,0.0419865213335
1505402121744470801,9250,1505402121744302055,world,0.376746058464,0.844493806362,0.473390549421,-0.0178010407835,-0.998483359814,-0.030835038051,0.04199103266
1505402121754711076,9251,1505402121754541106,world,0.376755237579,0.844525098801,0.473387748003,-0.0177494212985,-0.99848306179,-0.0308750085533,0.041990917176
1505402121764995250,9252,1505402121764813122,world,0.376754552126,0.844513773918,0.473373889923,-0.0177788361907,-0.998483598232,-0.0308415945619,0.0419899262488
1505402121774165668,9253,1505402121774035141,world,0.376759290695,0.844521939754,0.473394215107,-0.0177508872002,-0.998483836651,-0.030853793025,0.0419875793159
1505402121784375843,9254,1505402121784253970,world,0.376753091812,0.844497978687,0.473387539387,-0.017780167982,-0.998483419418,-0.0308538693935,0.0419860295951
1505402121794657904,9255,1505402121794500384,world,0.37675127387,0.844477534294,0.473384678364,-0.0177780929953,-0.99848306179,-0.0308822318912,0.0419750809669
1505402121805065917,9256,1505402121804772815,world,0.376756578684,0.844523131847,0.473399758339,-0.0177478622645,-0.998483896255,-0.0308780819178,0.0419698469341
1505402121814267058,9257,1505402121814064072,world,0.376752793789,0.844506561756,0.473390758038,-0.0177763905376,-0.99848306179,-0.0308637563139,0.0419878996909
1505402121824443137,9258,1505402121824289849,world,0.376760005951,0.844534873962,0.473395586014,-0.017773674801,-0.998484134674,-0.0308444388211,0.0419775694609
1505402121834576280,9259,1505402121834480300,world,0.376756161451,0.84450262785,0.473389565945,-0.0177623443305,-0.998483121395,-0.0308806542307,0.0419799610972
1505402121844865575,9260,1505402121844699583,world,0.376758158207,0.844456255436,0.473385870457,-0.0177730005234,-0.998483359814,-0.0308784823865,0.0419711694121
1505402121855095035,9261,1505402121854938131,world,0.376760035753,0.844521403313,0.473403394222,-0.017776908353,-0.998483836651,-0.0308568589389,0.0419744439423
1505402121864495685,9262,1505402121864148088,world,0.37674933672,0.844510912895,0.473388880491,-0.0177837293595,-0.998483479023,-0.0308380834758,0.0419938117266
1505402121874488443,9263,1505402121874351485,world,0.376759320498,0.844518244267,0.47339963913,-0.0177690405399,-0.998483479023,-0.0308525692672,0.0419902168214
1505402121884820130,9264,1505402121884615329,world,0.376755714417,0.844500482082,0.473381727934,-0.0177578795701,-0.998483598232,-0.0308688674122,0.0419796071947
1505402121894957918,9265,1505402121894799867,world,0.376755088568,0.844486773014,0.473388552666,-0.0177874043584,-0.998483419418,-0.0308574959636,0.0419805906713
1505402121905194750,9266,1505402121905024395,world,0.376747608185,0.844518303871,0.473413228989,-0.0177662745118,-0.998483598232,-0.0308621898293,0.041981626302
1505402121914366147,9267,1505402121914220527,world,0.37676024437,0.844473779202,0.473372250795,-0.0177838969976,-0.998482942581,-0.0308819711208,0.041974760592
1505402121924714124,9268,1505402121924503277,world,0.376767218113,0.844499945641,0.473386675119,-0.0177665222436,-0.998483479023,-0.0308656785637,0.0419808626175
1505402121934944434,9269,1505402121934759931,world,0.376759022474,0.844529926777,0.473391771317,-0.0177733078599,-0.998484015465,-0.0308395065367,0.0419841296971
1505402121945198414,9270,1505402121945049143,world,0.37676268816,0.844508826733,0.473396092653,-0.0177712384611,-0.998482704163,-0.0308708455414,0.0419922918081
1505402121954597197,9271,1505402121954265951,world,0.376755595207,0.844501495361,0.47339040041,-0.0177706107497,-0.998483657837,-0.0308573320508,0.0419811792672
1505402121964751394,9272,1505402121964588701,world,0.376764625311,0.844483137131,0.47336935997,-0.0177681110799,-0.998482882977,-0.0308829694986,0.0419811159372
1505402121974971481,9273,1505402121974823296,world,0.37674638629,0.844500243664,0.473393917084,-0.0177928358316,-0.99848306179,-0.030851546675,0.0419917106628
1505402121985239895,9274,1505402121985068285,world,0.376763999462,0.844529390335,0.473390609026,-0.0177874397486,-0.998483896255,-0.0308303646743,0.0419882982969
1505402121994511924,9275,1505402121994371227,world,0.376756042242,0.844500303268,0.47338655591,-0.0177687685937,-0.998482882977,-0.0308589972556,0.0419975891709
1505402122004830586,9276,1505402122004658197,world,0.376756221056,0.84450417757,0.473396658897,-0.0177659783512,-0.998483002186,-0.0308647602797,0.0419919043779
1505402122015045122,9277,1505402122014884324,world,0.376753121614,0.844502329826,0.473387569189,-0.0177566614002,-0.998483240604,-0.0308742709458,0.0419834852219
1505402122024265371,9278,1505402122024037937,world,0.376760214567,0.844512701035,0.473407685757,-0.0177778936923,-0.998484015465,-0.0308362059295,0.0419852733612
1505402122034389335,9279,1505402122034259664,world,0.376766651869,0.84452098608,0.473396837711,-0.0177550483495,-0.998483538628,-0.0308695621789,0.0419816859066
1505402122044670564,9280,1505402122044495824,world,0.376761049032,0.844503998756,0.473387867212,-0.0177668072283,-0.998482942581,-0.0308718439192,0.0419894456863
1505402122054872791,9281,1505402122054723199,world,0.376746207476,0.844509184361,0.473384350538,-0.0177756734192,-0.99848395586,-0.0308364517987,0.0419862866402
1505402122065181855,9282,1505402122064952608,world,0.376744657755,0.844499826431,0.473394185305,-0.0177754126489,-0.998484611511,-0.0308260209858,0.0419797711074
1505402122074478699,9283,1505402122074309231,world,0.376743704081,0.844489336014,0.473385244608,-0.017792051658,-0.998483836651,-0.0308363288641,0.0419821068645
1505402122084691181,9284,1505402122084541947,world,0.376753121614,0.84451597929,0.473392724991,-0.0177841484547,-0.998483538628,-0.0308328270912,0.041997063905
1505402122094913735,9285,1505402122094764376,world,0.376760065556,0.844524145126,0.473395854235,-0.0177564974874,-0.998483836651,-0.030848711729,0.0419871658087
1505402122104922109,9286,1505402122104757447,world,0.376754432917,0.844515264034,0.473388761282,-0.0177628435194,-0.99848395586,-0.0308448635042,0.0419842898846
1505402122115131925,9287,1505402122114978266,world,0.376745790243,0.844504654408,0.47337949276,-0.0177834983915,-0.998483598232,-0.0308519694954,0.0419814474881
1505402122124475021,9288,1505402122124217845,world,0.376749664545,0.844464302063,0.473364770412,-0.0178002119064,-0.998483657837,-0.0308270826936,0.0419910959899
1505402122134611395,9289,1505402122134439135,world,0.376746505499,0.844506084919,0.473391801119,-0.0177777558565,-0.998483657837,-0.0308599472046,0.041976429522
1505402122144865844,9290,1505402122144716033,world,0.376749545336,0.844537734985,0.473407268524,-0.017789889127,-0.99848395586,-0.0308221653104,0.0419909469783
1505402122155132756,9291,1505402122154940555,world,0.376756191254,0.84450763464,0.473378658295,-0.0177759043872,-0.998482763767,-0.0308522991836,0.0420033857226
1505402122164287367,9292,1505402122164123267,world,0.376758038998,0.844504415989,0.473381817341,-0.0177603904158,-0.99848395586,-0.030856706202,0.0419774204493
1505402122174560124,9293,1505402122174338431,world,0.376746296883,0.844460248947,0.473354130983,-0.0178007930517,-0.998482108116,-0.0308620706201,0.0420026183128
1505402122184849361,9294,1505402122184564746,world,0.376745998859,0.844513595104,0.473388850689,-0.0177889727056,-0.998484373093,-0.0308205783367,0.0419821962714
1505402122194926535,9295,1505402122194784713,world,0.376754790545,0.844547331333,0.47339951992,-0.0177483595908,-0.998483896255,-0.0308482479304,0.0419919230044
1505402122205235010,9296,1505402122205028560,world,0.376760840416,0.844480335712,0.473350048065,-0.017782650888,-0.998483479023,-0.0308462120593,0.041988812387
1505402122214416114,9297,1505402122214279403,world,0.376756072044,0.844528138638,0.473398029804,-0.0177571065724,-0.998483538628,-0.0308633595705,0.0419851988554
1505402122224641734,9298,1505402122224495778,world,0.376750916243,0.844489037991,0.473384141922,-0.0177801214159,-0.998482942581,-0.0308643057942,0.0419903993607
1505402122235310149,9299,1505402122235184290,world,0.376745820045,0.844486773014,0.4733723104,-0.0177848618478,-0.998483538628,-0.0308425538242,0.0419890470803
1505402122244691030,9300,1505402122244429350,world,0.376752376556,0.844525158405,0.473402678967,-0.0177595112473,-0.998483896255,-0.0308457799256,0.04198814556
1505402122254737993,9301,1505402122254620493,world,0.376760393381,0.844481527805,0.473367452621,-0.0177846886218,-0.998483002186,-0.0308516211808,0.0419945716858
1505402122265102773,9302,1505402122264896036,world,0.376753926277,0.84453189373,0.473382890224,-0.017768016085,-0.998483717442,-0.0308479238302,0.0419876016676
1505402122274219509,9303,1505402122274048829,world,0.37674665451,0.844502866268,0.473367452621,-0.0178024694324,-0.998483598232,-0.0308185853064,0.0419969558716
1505402122284500457,9304,1505402122284291500,world,0.37675601244,0.844481945038,0.473372459412,-0.0177706200629,-0.998483479023,-0.0308575369418,0.041985232383
1505402122294728958,9305,1505402122294533484,world,0.376748710871,0.844533085823,0.473414003849,-0.0177659224719,-0.998484134674,-0.0308367144316,0.0419864915311
1505402122305007268,9306,1505402122304820187,world,0.376765877008,0.844487547874,0.473365336657,-0.017773617059,-0.998483002186,-0.0308491885662,0.0420024320483
1505402122315174236,9307,1505402122315049456,world,0.376764982939,0.844508647919,0.4733697474,-0.0177428424358,-0.998482644558,-0.0308929216117,0.0419907085598
1505402122324470765,9308,1505402122324259387,world,0.376765996218,0.844522714615,0.473399698734,-0.0177544355392,-0.998483657837,-0.0308535490185,0.0419910103083
1505402122334664509,9309,1505402122334497369,world,0.37675639987,0.844497680664,0.473378926516,-0.0178162418306,-0.998483896255,-0.0308062043041,0.0419946089387
1505402122344834357,9310,1505402122344707529,world,0.376755535603,0.844532966614,0.473400056362,-0.0177465956658,-0.998483598232,-0.0308649819344,0.0419863574207
1505402122355071664,9311,1505402122354960628,world,0.376755267382,0.844461739063,0.4733761549,-0.0178079996258,-0.998483300209,-0.030841153115,0.0419855117798
1505402122364455538,9312,1505402122364237257,world,0.37675589323,0.844501316547,0.473377078772,-0.0177627950907,-0.99848306179,-0.0308729633689,0.0419874452055
1505402122374736033,9313,1505402122374480784,world,0.376764059067,0.84454280138,0.473386317492,-0.0177693553269,-0.998483717442,-0.0308379381895,0.0419937558472
1505402122384910721,9314,1505402122384739328,world,0.376749366522,0.844492197037,0.473368287086,-0.0177714154124,-0.998483181,-0.0308506600559,0.041998822242
1505402122395101310,9315,1505402122394935375,world,0.376750051975,0.844502747059,0.473376989365,-0.0177643056959,-0.998483717442,-0.0308425165713,0.0419934615493
1505402122404416814,9316,1505402122404175202,world,0.376753091812,0.84451264143,0.473401248455,-0.0177896022797,-0.998483359814,-0.0308450739831,0.0419901832938
1505402122414553812,9317,1505402122414381993,world,0.376756817102,0.844486415386,0.473375797272,-0.0177747178823,-0.998483717442,-0.0308532752097,0.0419803857803
1505402122424815116,9318,1505402122424619631,world,0.37677103281,0.844514250755,0.473373651505,-0.0177488140762,-0.998483777046,-0.030845772475,0.0419968925416
1505402122435002032,9319,1505402122434865603,world,0.376764655113,0.844512462616,0.473377168179,-0.0177621282637,-0.99848395586,-0.0308528244495,0.0419809706509
1505402122445280789,9320,1505402122445106800,world,0.376751065254,0.844523966312,0.473380982876,-0.0177888013422,-0.998484075069,-0.0308107510209,0.0419976040721
1505402122454511223,9321,1505402122454332325,world,0.376762211323,0.844522297382,0.473400175571,-0.0177503041923,-0.998483717442,-0.0308721475303,0.0419763512909
1505402122464750360,9322,1505402122464549187,world,0.376762419939,0.844460070133,0.473355323076,-0.0177804864943,-0.998482465744,-0.0308702550828,0.0419965945184
1505402122475061223,9323,1505402122474881104,world,0.376765996218,0.844516336918,0.473378896713,-0.0177516881377,-0.998483419418,-0.0308619793504,0.0419907346368
1505402122484264051,9324,1505402122484059209,world,0.376759082079,0.844537615776,0.473388582468,-0.017771622166,-0.998483538628,-0.0308394320309,0.041996832937
1505402122494431296,9325,1505402122494289849,world,0.376757502556,0.844502866268,0.473382800817,-0.0177946481854,-0.998483717442,-0.0308314803988,0.0419882833958
1505402122504701110,9326,1505402122504539792,world,0.376756459475,0.844521939754,0.473386973143,-0.0177579894662,-0.998483717442,-0.0308568738401,0.0419853366911
1505402122514895634,9327,1505402122514743990,world,0.376749068499,0.844461917877,0.473376959562,-0.0177932400256,-0.998483657837,-0.0308472588658,0.041979495436
1505402122534417918,9328,1505402122534229786,world,0.376750946045,0.844501912594,0.473393768072,-0.0177836250514,-0.998483657837,-0.0308468062431,0.0419837385416
1505402122534424018,9329,1505402122534259693,world,0.376748561859,0.844549119473,0.473385035992,-0.0177678223699,-0.998483896255,-0.0308297704905,0.0419967696071
1505402122544712021,9330,1505402122544520185,world,0.376758873463,0.844482243061,0.473354548216,-0.0177839007229,-0.998483121395,-0.0308505501598,0.0419939346611
1505402122554832614,9331,1505402122554706033,world,0.376755833626,0.844504237175,0.473383247852,-0.0177588593215,-0.998483359814,-0.03085902147,0.041991237551
1505402122565143189,9332,1505402122564970241,world,0.376746624708,0.844507455826,0.47337064147,-0.0177842192352,-0.998483240604,-0.0308334343135,0.0420041047037
1505402122574337134,9333,1505402122574183966,world,0.376747786999,0.844506978989,0.473389595747,-0.0177814718336,-0.99848395586,-0.0308310911059,0.0419901646674
1505402122594827339,9334,1505402122594629756,world,0.376755416393,0.844522237778,0.473387122154,-0.0177810303867,-0.998483836651,-0.0308442767709,0.041982896626
1505402122594840164,9335,1505402122594660159,world,0.376761287451,0.844467401505,0.473335921764,-0.0177800040692,-0.998481988907,-0.0308714006096,0.042004223913
1505402122605009724,9336,1505402122604859792,world,0.376759290695,0.844537913799,0.473385721445,-0.0177416559309,-0.998483598232,-0.0308543778956,0.0419968478382
1505402122615225825,9337,1505402122615091719,world,0.37675216794,0.844532489777,0.473408281803,-0.0177784655243,-0.998483777046,-0.0308276712894,0.0419962033629
1505402122624431853,9338,1505402122624318772,world,0.376745998859,0.844477534294,0.473380565643,-0.017803074792,-0.998483359814,-0.0308316759765,0.0419950783253
