%time,field.header.seq,field.header.stamp,field.header.frame_id,field.batteryPercent,field.state,field.magX,field.magY,field.magZ,field.pressure,field.temp,field.wind_speed,field.wind_angle,field.wind_comp_angle,field.rotX,field.rotY,field.rotZ,field.altd,field.vx,field.vy,field.vz,field.ax,field.ay,field.az,field.motor1,field.motor2,field.motor3,field.motor4,field.tags_count,field.tags_type0,field.tags_xc0,field.tags_yc0,field.tags_width0,field.tags_height0,field.tags_orientation0,field.tags_distance0,field.tm
1505402118923142178,16879,1505402118922936673,ardrone_base_link,71.0,0,-12,-16,-20,98905,486,0.0,0.0,0.0,-0.254999995232,-2.58299994469,-129.856002808,0,0.0,-0.0,-0.0,0.0189113710076,0.0114879347384,0.942074239254,0,0,0,0,1,131072,406,545,62,83,267.796936035,213.0,1449389824.0
1505402118927526153,16880,1505402118927203943,ardrone_base_link,71.0,0,-12,-16,-20,98905,486,0.0,0.0,0.0,-0.254999995232,-2.58400011063,-129.856002808,0,0.0,-0.0,-0.0,0.0188663266599,0.0115108676255,0.942636728287,0,0,0,0,1,131072,406,545,62,83,267.796936035,213.0,1449394944.0
1505402118932124099,16881,1505402118931898772,ardrone_base_link,71.0,0,-9,-17,-21,98895,486,0.0,0.0,0.0,-0.254999995232,-2.58400011063,-129.854995728,0,0.0,-0.0,-0.0,0.0189342852682,0.0115555655211,0.94456833601,0,0,0,0,1,131072,406,545,62,83,267.796936035,213.0,1449399808.0
1505402118937126010,16882,1505402118936968437,ardrone_base_link,71.0,0,-9,-17,-21,98895,486,0.0,0.0,0.0,-0.254000008106,-2.58400011063,-129.854003906,0,0.0,-0.0,-0.0,0.0189752783626,0.0116200782359,0.947532236576,0,0,0,0,1,131072,406,545,62,83,267.796936035,213.0,1449404672.0
1505402118943394828,16883,1505402118942996351,ardrone_base_link,71.0,0,-11,-13,-21,98898,486,0.0,0.0,0.0,-0.254000008106,-2.58400011063,-129.852996826,0,0.0,-0.0,-0.0,0.0189542155713,0.0116672217846,0.949549794197,0,0,0,0,1,131072,406,545,62,83,267.796936035,213.0,1449409792.0
1505402118946976065,16884,1505402118946796853,ardrone_base_link,71.0,0,-11,-13,-21,98895,486,0.0,0.0,0.0,-0.254000008106,-2.58400011063,-129.852996826,0,0.0,-0.0,-0.0,0.0190079323947,0.0116465128958,0.948051273823,0,0,0,0,1,131072,396,541,59,79,267.98046875,224.0,1449414784.0
1505402118952130436,16885,1505402118951919703,ardrone_base_link,71.0,0,-14,-16,-22,98908,486,0.0,0.0,0.0,-0.254000008106,-2.58500003815,-129.852005005,0,0.0,-0.0,-0.0,0.0190044138581,0.011622515507,0.94716745615,0,0,0,0,1,131072,396,541,59,79,267.98046875,224.0,1449419776.0
1505402118958450613,16886,1505402118958289762,ardrone_base_link,71.0,0,-14,-16,-22,98911,486,0.0,0.0,0.0,-0.254000008106,-2.58500003815,-129.850997925,0,0.0,-0.0,-0.0,0.0190266482532,0.0115978298709,0.946609854698,0,0,0,0,1,131072,396,541,59,79,267.98046875,224.0,1449424896.0
1505402118962546748,16887,1505402118962289091,ardrone_base_link,71.0,0,-7,-13,-21,98902,486,0.0,0.0,0.0,-0.254000008106,-2.58500003815,-129.850997925,0,0.0,-0.0,-0.0,0.0190272852778,0.0115927057341,0.946934580803,0,0,0,0,1,131072,396,541,59,79,267.98046875,224.0,1449430016.0
1505402118968744510,16888,1505402118968482722,ardrone_base_link,71.0,0,-7,-13,-21,98892,486,0.0,0.0,0.0,-0.252999991179,-2.58599996567,-129.850006104,0,0.0,-0.0,-0.0,0.018986010924,0.0116109019145,0.948049783707,0,0,0,0,1,131072,396,541,59,79,267.98046875,224.0,1449435264.0
1505402118975979197,16889,1505402118975771116,ardrone_base_link,71.0,0,-4,-16,-24,98895,486,0.0,0.0,0.0,-0.252999991179,-2.58599996567,-129.850006104,0,0.0,-0.0,-0.0,0.0189635064453,0.0116075966507,0.94747364521,0,0,0,0,1,131072,384,545,62,83,268.02331543,213.0,1449440000.0
1505402118977601803,16890,1505402118977335896,ardrone_base_link,71.0,0,-4,-16,-24,98902,486,0.0,0.0,0.0,-0.252999991179,-2.58599996567,-129.848999023,0,0.0,-0.0,-0.0,0.0189221110195,0.0116116050631,0.947507321835,0,0,0,0,1,131072,384,545,62,83,268.02331543,213.0,1449444864.0
1505402118983788375,16891,1505402118983378735,ardrone_base_link,71.0,0,-11,-15,-27,98898,486,0.0,0.0,0.0,-0.252999991179,-2.58599996567,-129.848007202,0,0.0,-0.0,-0.0,0.0173487365246,0.0115947155282,0.947233378887,0,0,0,0,1,131072,384,545,62,83,268.02331543,213.0,1449449984.0
1505402118987825941,16892,1505402118987537506,ardrone_base_link,71.0,0,-11,-15,-27,98895,486,0.0,0.0,0.0,-0.252999991179,-2.58599996567,-129.847000122,0,0.0,-0.0,-0.0,0.0169940628111,0.0115809533745,0.947198748589,0,0,0,0,1,131072,384,545,62,83,268.02331543,213.0,1449454976.0
1505402118992615397,16893,1505402118992382772,ardrone_base_link,71.0,0,-9,-11,-19,98895,486,0.0,0.0,0.0,-0.252999991179,-2.58599996567,-129.845993042,0,0.0,-0.0,-0.0,0.0153615120798,0.0115685611963,0.947534680367,0,0,0,0,1,131072,384,545,62,83,268.02331543,213.0,1449460096.0
1505402118997297931,16894,1505402118997162245,ardrone_base_link,71.0,0,-9,-11,-19,98898,486,0.0,0.0,0.0,-0.252000004053,-2.58599996567,-129.845993042,0,0.0,-0.0,-0.0,0.0172347854823,0.0115742543712,0.947383761406,0,0,0,0,1,131072,384,545,62,83,268.02331543,213.0,1449465088.0
1505402119003303502,16895,1505402119002960651,ardrone_base_link,71.0,0,-10,-16,-18,98905,486,0.0,0.0,0.0,-0.252000004053,-2.58699989319,-129.845001221,0,0.0,-0.0,-0.0,0.0183468274772,0.0115921748802,0.94745606184,0,0,0,0,1,131072,384,545,62,83,268.02331543,213.0,1449470208.0
1505402119009621458,16896,1505402119009422857,ardrone_base_link,71.0,0,-10,-16,-18,98905,486,0.0,0.0,0.0,-0.252000004053,-2.58699989319,-129.845001221,0,0.0,-0.0,-0.0,0.0180495865643,0.0116077223793,0.947377920151,0,0,0,0,1,131072,375,545,62,83,267.938842773,213.0,1449475328.0
1505402119012594238,16897,1505402119012404114,ardrone_base_link,71.0,0,-12,-12,-16,98898,486,0.0,0.0,0.0,-0.252000004053,-2.58699989319,-129.845001221,0,0.0,-0.0,-0.0,0.0183386988938,0.0116245476529,0.947332501411,0,0,0,0,1,131072,375,545,62,83,267.938842773,213.0,1449480192.0
1505402119017646816,16898,1505402119017433710,ardrone_base_link,71.0,0,-12,-12,-16,98895,486,0.0,0.0,0.0,-0.250999987125,-2.58699989319,-129.843994141,0,0.0,-0.0,-0.0,0.0131789594889,0.0116085251793,0.947407245636,0,0,0,0,1,131072,375,545,62,83,267.938842773,213.0,1449485184.0
1505402119024647436,16899,1505402119024447665,ardrone_base_link,71.0,0,-3,-13,-19,98902,486,0.0,0.0,0.0,-0.250999987125,-2.58699989319,-129.843994141,0,0.0,-0.0,-0.0,0.0155516033992,0.0116149736568,0.947365701199,0,0,0,0,1,131072,375,545,62,83,267.938842773,213.0,1449490176.0
1505402119031896142,16900,1505402119031738721,ardrone_base_link,71.0,0,-3,-13,-19,98902,486,0.0,0.0,0.0,-0.25,-2.58599996567,-129.843002319,0,0.0,-0.0,-0.0,0.0139719117433,0.0115924421698,0.94739061594,0,0,0,0,1,131072,375,545,62,83,267.938842773,213.0,1449495168.0
1505402119034629606,16901,1505402119034267778,ardrone_base_link,71.0,0,-5,-13,-19,98892,486,0.0,0.0,0.0,-0.25,-2.58599996567,-129.841995239,0,0.0,-0.0,-0.0,0.0167754609138,0.0115796783939,0.947389662266,0,0,0,0,1,131072,365,545,62,83,267.366027832,213.0,1449500416.0
1505402119037635298,16902,1505402119037405309,ardrone_base_link,71.0,0,-5,-13,-19,98892,486,0.0,0.0,0.0,-0.25,-2.58599996567,-129.841003418,0,0.0,-0.0,-0.0,0.0164853259921,0.0115445554256,0.947365701199,0,0,0,0,1,131072,365,545,62,83,267.366027832,213.0,1449505280.0
1505402119043594571,16903,1505402119043254621,ardrone_base_link,71.0,0,-11,-11,-19,98895,486,0.0,0.0,0.0,-0.25,-2.58599996567,-129.841003418,0,0.0,-0.0,-0.0,0.0134247979149,0.0114998435602,0.947377920151,0,0,0,0,1,131072,365,545,62,83,267.366027832,213.0,1449510528.0
1505402119047641715,16904,1505402119047466691,ardrone_base_link,71.0,0,-11,-11,-19,98902,486,0.0,0.0,0.0,-0.25,-2.58599996567,-129.841003418,0,0.0,-0.0,-0.0,0.015452506952,0.0114969518036,0.947372078896,0,0,0,0,1,131072,365,545,62,83,267.366027832,213.0,1449515392.0
1505402119052805356,16905,1505402119052613101,ardrone_base_link,71.0,0,-7,-11,-23,98902,486,0.0,0.0,0.0,-0.25,-2.58599996567,-129.839996338,0,0.0,-0.0,-0.0,0.0149539010599,0.0115122357383,0.947382330894,0,0,0,0,1,131072,365,545,62,83,267.366027832,213.0,1449520384.0
1505402119058020365,16906,1505402119057839774,ardrone_base_link,71.0,0,-7,-11,-23,98895,486,0.0,0.0,0.0,-0.25,-2.58599996567,-129.839996338,0,0.0,-0.0,-0.0,0.0197624694556,0.011580908671,0.947411119938,0,0,0,0,1,131072,365,545,62,83,267.366027832,213.0,1449525504.0
1505402119062864280,16907,1505402119062578669,ardrone_base_link,71.0,0,-9,-15,-21,98898,486,0.0,0.0,0.0,-0.25,-2.58699989319,-129.839996338,0,0.0,-0.0,-0.0,0.0204273685813,0.0116396760568,0.947407245636,0,0,0,0,1,131072,365,545,62,83,267.366027832,213.0,1449530368.0
1505402119067869364,16908,1505402119067554270,ardrone_base_link,71.0,0,-9,-15,-21,98905,486,0.0,0.0,0.0,-0.25,-2.58699989319,-129.839004517,0,0.0,-0.0,-0.0,0.0198187232018,0.0116799632087,0.947414040565,0,0,0,0,1,131072,365,545,62,83,267.366027832,213.0,1449535360.0
1505402119074776472,16909,1505402119074499495,ardrone_base_link,71.0,0,-7,-13,-15,98898,486,0.0,0.0,0.0,-0.25,-2.58699989319,-129.839004517,0,0.0,-0.0,-0.0,0.0189819056541,0.0116920331493,0.947400867939,0,0,0,0,1,131072,356,545,62,83,268.037719727,213.0,1449540480.0
1505402119077894245,16910,1505402119077610099,ardrone_base_link,71.0,0,-7,-13,-15,98898,486,0.0,0.0,0.0,-0.25,-2.58800005913,-129.839004517,0,0.0,-0.0,-0.0,0.0177859906107,0.0116788791493,0.947396993637,0,0,0,0,1,131072,356,545,62,83,268.037719727,213.0,1449545472.0
1505402119084453161,16911,1505402119084056278,ardrone_base_link,71.0,0,-6,-10,-20,98895,486,0.0,0.0,0.0,-0.25,-2.58800005913,-129.837997437,0,0.0,-0.0,-0.0,0.0187165476382,0.0116665707901,0.947403788567,0,0,0,0,1,131072,356,545,62,83,268.037719727,213.0,1449550720.0
1505402119090464719,16912,1505402119090248718,ardrone_base_link,71.0,0,-6,-10,-20,98895,486,0.0,0.0,0.0,-0.25,-2.58899998665,-129.837997437,0,0.0,-0.0,-0.0,0.0193697996438,0.011656886898,0.947404325008,0,0,0,0,1,131072,356,545,62,83,268.037719727,213.0,1449555712.0
1505402119095756878,16913,1505402119095411051,ardrone_base_link,71.0,0,-8,-12,-18,98908,486,0.0,0.0,0.0,-0.25,-2.58899998665,-129.837005615,0,0.0,-0.0,-0.0,0.0190602261573,0.0116500537843,0.94740575552,0,0,0,0,1,131072,356,545,62,83,268.037719727,213.0,1449560704.0
1505402119097982240,16914,1505402119097729649,ardrone_base_link,71.0,0,-8,-12,-18,98908,486,0.0,0.0,0.0,-0.25,-2.58899998665,-129.835998535,0,0.0,-0.0,-0.0,0.0191773865372,0.0116470037028,0.947404325008,0,0,0,0,1,131072,356,545,62,83,268.037719727,213.0,1449565568.0
1505402119103062496,16915,1505402119102843953,ardrone_base_link,71.0,0,-4,-8,-20,98898,486,0.0,0.0,0.0,-0.25,-2.58999991417,-129.835006714,0,0.0,-0.0,-0.0,0.0186683423817,0.0116358371451,0.947401344776,0,0,0,0,1,131072,356,545,62,83,268.037719727,213.0,1449570560.0
1505402119108578532,16916,1505402119108364637,ardrone_base_link,71.0,0,-4,-8,-20,98895,486,0.0,0.0,0.0,-0.248999997973,-2.58999991417,-129.835006714,0,0.0,-0.0,-0.0,0.0188691429794,0.0116199357435,0.947403788567,0,0,0,0,1,131072,343,545,62,83,267.903015137,213.0,1449575680.0
1505402119113132365,16917,1505402119112915338,ardrone_base_link,71.0,0,-9,-11,-21,98898,486,0.0,0.0,0.0,-0.248999997973,-2.58999991417,-129.833999634,0,0.0,-0.0,-0.0,0.0190276671201,0.0115972347558,0.947403311729,0,0,0,0,1,131072,343,545,62,83,267.903015137,213.0,1449580800.0
1505402119121204756,16918,1505402119121022531,ardrone_base_link,71.0,0,-9,-11,-21,98902,486,0.0,0.0,0.0,-0.247999995947,-2.58999991417,-129.833999634,0,0.0,-0.0,-0.0,0.0189380999655,0.0115691097453,0.947404325008,0,0,0,0,1,131072,343,545,62,83,267.903015137,213.0,1449585664.0
1505402119127351199,16919,1505402119127132265,ardrone_base_link,71.0,0,-2,-12,-20,98902,486,0.0,0.0,0.0,-0.247999995947,-2.59100008011,-129.833999634,0,0.0,-0.0,-0.0,0.0190449282527,0.011539125815,0.947403788567,0,0,0,0,1,131072,343,545,62,83,267.903015137,213.0,1449591040.0
1505402119128439673,16920,1505402119128119929,ardrone_base_link,71.0,0,-2,-12,-20,98898,486,0.0,0.0,0.0,-0.247999995947,-2.59100008011,-129.832992554,0,0.0,-0.0,-0.0,0.0188858378679,0.0115069355816,0.947403311729,0,0,0,0,1,131072,343,545,62,83,267.903015137,213.0,1449595904.0
1505402119133305838,16921,1505402119133084452,ardrone_base_link,71.0,0,-9,-13,-21,98898,486,0.0,0.0,0.0,-0.247999995947,-2.59200000763,-129.832992554,0,0.0,-0.0,-0.0,0.0189426019788,0.0114802485332,0.947403311729,0,0,0,0,1,131072,343,545,62,83,267.903015137,213.0,1449600896.0
1505402119138760023,16922,1505402119138543945,ardrone_base_link,71.0,0,-9,-13,-21,98898,486,0.0,0.0,0.0,-0.247999995947,-2.59299993515,-129.832000732,0,0.0,-0.0,-0.0,0.0189925171435,0.0114679653198,0.947403788567,0,0,0,0,1,131072,334,541,59,79,267.589477539,224.0,1449605888.0
1505402119143229184,16923,1505402119142977259,ardrone_base_link,71.0,0,-3,-15,-21,98905,486,0.0,0.0,0.0,-0.247999995947,-2.59299993515,-129.832000732,0,0.0,-0.0,-0.0,0.0189465153962,0.0114806750789,0.947403311729,0,0,0,0,1,131072,334,541,59,79,267.589477539,224.0,1449610752.0
1505402119148196746,16924,1505402119148016526,ardrone_base_link,71.0,0,-3,-15,-21,98908,486,0.0,0.0,0.0,-0.247999995947,-2.59299993515,-129.830993652,0,0.0,-0.0,-0.0,0.0189745724201,0.0115240458399,0.947403788567,0,0,0,0,1,131072,334,541,59,79,267.589477539,224.0,1449615872.0
1505402119153661150,16925,1505402119153484308,ardrone_base_link,71.0,0,-9,-15,-17,98902,486,0.0,0.0,0.0,-0.248999997973,-2.59400010109,-129.830993652,0,0.0,-0.0,-0.0,0.0188945457339,0.0100593389943,0.947411596775,0,0,0,0,1,131072,334,541,59,79,267.589477539,224.0,1449620992.0
1505402119158224041,16926,1505402119158068771,ardrone_base_link,71.0,0,-9,-15,-17,98895,486,0.0,0.0,0.0,-0.248999997973,-2.59400010109,-129.830001831,0,0.0,-0.0,-0.0,0.0188928265125,0.00825506169349,0.947419941425,0,0,0,0,1,131072,334,541,59,79,267.589477539,224.0,1449625856.0
1505402119163687036,16927,1505402119163299588,ardrone_base_link,71.0,0,-8,-18,-22,98895,486,0.0,0.0,0.0,-0.25,-2.59400010109,-129.830001831,0,0.0,-0.0,-0.0,0.0189132839441,0.00636606663465,0.947429716587,0,0,0,0,1,131072,334,541,59,79,267.589477539,224.0,1449631104.0
1505402119168484713,16928,1505402119168265976,ardrone_base_link,71.0,0,-8,-18,-22,98902,486,0.0,0.0,0.0,-0.250999987125,-2.59500002861,-129.828994751,0,0.0,-0.0,-0.0,0.0189199000597,0.00509743764997,0.947436988354,0,0,0,0,1,131072,334,541,59,79,267.589477539,224.0,1449636096.0
1505402119176155097,16929,1505402119175948947,ardrone_base_link,71.0,0,-3,-9,-17,98902,486,0.0,0.0,0.0,-0.250999987125,-2.59500002861,-129.82800293,0,0.0,-0.0,-0.0,0.0189624689519,0.00767625682056,0.947422862053,0,0,0,0,1,131072,325,545,62,83,268.060760498,213.0,1449641088.0
1505402119179142492,16930,1505402119178949201,ardrone_base_link,71.0,0,-3,-9,-17,98902,486,0.0,0.0,0.0,-0.252000004053,-2.59500002861,-129.82800293,0,0.0,-0.0,-0.0,0.0174077283591,0.00836390536278,0.947410166264,0,0,0,0,1,131072,325,545,62,83,268.060760498,213.0,1449646080.0
1505402119186883382,16931,1505402119186574922,ardrone_base_link,71.0,0,-7,-17,-25,98898,486,0.0,0.0,0.0,-0.250999987125,-2.59500002861,-129.82699585,0,0.0,-0.0,-0.0,0.015505336225,0.0119967237115,0.947376966476,0,0,0,0,1,131072,325,545,62,83,268.060760498,213.0,1449651072.0
1505402119188538071,16932,1505402119188342961,ardrone_base_link,71.0,0,-7,-17,-25,98898,486,0.0,0.0,0.0,-0.250999987125,-2.59400010109,-129.82699585,0,0.0,-0.0,-0.0,0.0119745638222,0.011695493944,0.9473554492,0,0,0,0,1,131072,325,545,62,83,268.060760498,213.0,1449656192.0
1505402119198799353,16933,1505402119198589369,ardrone_base_link,71.0,0,-7,-13,-27,98902,486,0.0,0.0,0.0,-0.250999987125,-2.59299993515,-129.826004028,0,0.0,-0.0,-0.0,0.0102878687903,0.011764629744,0.947342276573,0,0,0,0,1,131072,325,545,62,83,268.060760498,213.0,1449661056.0
1505402119202305877,16934,1505402119202049609,ardrone_base_link,71.0,0,-7,-13,-27,98902,486,0.0,0.0,0.0,-0.250999987125,-2.59200000763,-129.826004028,0,0.0,-0.0,-0.0,0.00972398370504,0.0121423276141,0.947336912155,0,0,0,0,1,131072,325,545,62,83,268.060760498,213.0,1449666048.0
1505402119204007515,16935,1505402119203780881,ardrone_base_link,71.0,0,-5,-11,-21,98902,486,0.0,0.0,0.0,-0.250999987125,-2.59100008011,-129.824996948,0,0.0,-0.0,-0.0,0.0104052256793,0.0103557007387,0.947349607944,0,0,0,0,1,131072,312,545,62,83,267.922088623,213.0,1449671296.0
1505402119209901124,16936,1505402119209677142,ardrone_base_link,71.0,0,-5,-11,-21,98898,486,0.0,0.0,0.0,-0.250999987125,-2.58999991417,-129.824996948,0,0.0,-0.0,-0.0,0.0117242634296,0.0122919371352,0.947350084782,0,0,0,0,1,131072,312,545,62,83,267.922088623,213.0,1449676288.0
1505402119213691078,16937,1505402119213485080,ardrone_base_link,71.0,0,-7,-11,-21,98895,486,0.0,0.0,0.0,-0.250999987125,-2.58899998665,-129.824005127,0,0.0,-0.0,-0.0,0.0110815716907,0.0107693048194,0.947352528572,0,0,0,0,1,131072,312,545,62,83,267.922088623,213.0,1449681280.0
1505402119226894620,16938,1505402119226639352,ardrone_base_link,71.0,0,-9,-11,-25,98908,486,0.0,0.0,0.0,-0.250999987125,-2.58800005913,-129.822998047,0,0.0,-0.0,-0.0,0.0104322526604,0.0117167150602,0.949217796326,0,0,0,0,1,131072,312,545,62,83,267.922088623,213.0,1449691264.0
1505402119232350587,16939,1505402119232033138,ardrone_base_link,71.0,0,-9,-11,-25,98908,486,0.0,0.0,0.0,-0.25,-2.58699989319,-129.822006226,0,0.0,-0.0,-0.0,0.0123601388186,0.0113297244534,0.950835466385,0,0,0,0,1,131072,312,545,62,83,267.922088623,213.0,1449696256.0
1505402119233997587,16940,1505402119233762102,ardrone_base_link,71.0,0,-9,-13,-19,98908,486,0.0,0.0,0.0,-0.25,-2.58599996567,-129.820999146,0,0.0,-0.0,-0.0,0.0145007185638,0.0119695002213,0.950546383858,0,0,0,0,1,131072,312,545,62,83,267.922088623,213.0,1449701504.0
1505402119242421173,16941,1505402119242153244,ardrone_base_link,71.0,0,-9,-13,-19,98905,486,0.0,0.0,0.0,-0.248999997973,-2.58599996567,-129.820999146,0,0.0,-0.0,-0.0,0.0179087854922,0.0114362966269,0.951354980469,0,0,0,0,1,131072,303,545,62,83,267.32800293,213.0,1449706240.0
1505402119244222992,16942,1505402119243905283,ardrone_base_link,71.0,0,-6,-14,-16,98892,486,0.0,0.0,0.0,-0.248999997973,-2.58599996567,-129.820007324,0,0.0,-0.0,-0.0,0.0197534151375,0.0118087586015,0.952079594135,0,0,0,0,1,131072,303,545,62,83,267.32800293,213.0,1449711744.0
1505402119250078549,16943,1505402119249761131,ardrone_base_link,71.0,0,-6,-14,-16,98889,486,0.0,0.0,0.0,-0.248999997973,-2.58599996567,-129.820007324,0,0.0,-0.0,-0.0,0.0200701709837,0.0117175308987,0.95122218132,0,0,0,0,1,131072,303,545,62,83,267.32800293,213.0,1449716864.0
1505402119254193529,16944,1505402119253995443,ardrone_base_link,71.0,0,-4,-12,-18,98895,486,0.0,0.0,0.0,-0.248999997973,-2.58599996567,-129.820007324,0,0.0,-0.0,-0.0,0.0194966308773,0.0114769591019,0.950238287449,0,0,0,0,1,131072,303,545,62,83,267.32800293,213.0,1449721728.0
1505402119262612310,16945,1505402119262196783,ardrone_base_link,71.0,0,-4,-12,-18,98898,486,0.0,0.0,0.0,-0.248999997973,-2.58599996567,-129.819000244,0,0.0,-0.0,-0.0,0.0182776264846,0.0116343414411,0.94706004858,0,0,0,0,1,131072,303,545,62,83,267.32800293,213.0,1449726592.0
1505402119264770707,16946,1505402119264606496,ardrone_base_link,71.0,0,-3,-11,-17,98892,486,0.0,0.0,0.0,-0.248999997973,-2.58599996567,-129.819000244,0,0.0,-0.0,-0.0,0.0189013425261,0.0113967154175,0.946251451969,0,0,0,0,1,131072,303,545,62,83,267.32800293,213.0,1449731456.0
1505402119268969620,16947,1505402119268786256,ardrone_base_link,71.0,0,-3,-11,-17,98889,486,0.0,0.0,0.0,-0.248999997973,-2.58699989319,-129.819000244,0,0.0,-0.0,-0.0,0.0187866445631,0.0115417204797,0.946348130703,0,0,0,0,1,131072,293,545,62,83,267.916015625,213.0,1449736576.0
1505402119274812963,16948,1505402119274567973,ardrone_base_link,71.0,0,-5,-19,-21,98892,486,0.0,0.0,0.0,-0.248999997973,-2.58699989319,-129.817993164,0,0.0,-0.0,-0.0,0.019533554092,0.0116001628339,0.947587907314,0,0,0,0,1,131072,293,545,62,83,267.916015625,213.0,1449741568.0
1505402119279162699,16949,1505402119278908935,ardrone_base_link,71.0,0,-5,-19,-21,98898,486,0.0,0.0,0.0,-0.248999997973,-2.58699989319,-129.817001343,0,0.0,-0.0,-0.0,0.0191300939769,0.0115873496979,0.948155283928,0,0,0,0,1,131072,293,545,62,83,267.916015625,213.0,1449746560.0
1505402119284547645,16950,1505402119284258933,ardrone_base_link,71.0,0,-7,-17,-21,98898,486,0.0,0.0,0.0,-0.248999997973,-2.58800005913,-129.817001343,0,0.0,-0.0,-0.0,0.018848054111,0.0117014916614,0.946178197861,0,0,0,0,1,131072,293,545,62,83,267.916015625,213.0,1449751808.0
1505402119293016443,16951,1505402119292804646,ardrone_base_link,71.0,0,-7,-17,-21,98898,486,0.0,0.0,0.0,-0.247999995947,-2.58800005913,-129.815994263,0,0.0,-0.0,-0.0,0.0188895110041,0.0116158090532,0.943663060665,0,0,0,0,1,131072,293,545,62,83,267.916015625,213.0,1449756800.0
1505402119294147162,16952,1505402119293876471,ardrone_base_link,71.0,0,-10,-16,-24,98902,486,0.0,0.0,0.0,-0.247999995947,-2.58800005913,-129.815994263,0,0.0,-0.0,-0.0,0.0187143031508,0.0116122672334,0.940341770649,0,0,0,0,1,131072,293,545,62,83,267.916015625,213.0,1449761664.0
1505402119304744344,16953,1505402119304374322,ardrone_base_link,71.0,0,-10,-16,-24,98895,486,0.0,0.0,0.0,-0.24699999392,-2.58800005913,-129.815002441,0,0.0,-0.0,-0.0,0.0189330335706,0.0115894656628,0.940314948559,0,0,0,0,1,131072,293,545,62,83,267.916015625,213.0,1449766656.0
1505402119316428440,16954,1505402119316049613,ardrone_base_link,71.0,0,-11,-13,-21,98902,486,0.0,0.0,0.0,-0.24699999392,-2.58899998665,-129.815002441,0,0.0,-0.0,-0.0,0.01885997504,0.0115305995569,0.941894054413,0,0,0,0,1,131072,284,545,62,83,267.764556885,213.0,1449771648.0
1505402119316431964,16955,1505402119316078991,ardrone_base_link,71.0,0,-11,-13,-21,98905,486,0.0,0.0,0.0,-0.24699999392,-2.58899998665,-129.813995361,0,0.0,-0.0,-0.0,0.0188228096813,0.0115683516487,0.945987284184,0,0,0,0,1,131072,284,545,62,83,267.764556885,213.0,1449776640.0
1505402119316437260,16956,1505402119316093157,ardrone_base_link,71.0,0,-5,-13,-23,98902,486,0.0,0.0,0.0,-0.24699999392,-2.58899998665,-129.81300354,0,0.0,-0.0,-0.0,0.0189038589597,0.0115294670686,0.948781251907,0,0,0,0,1,131072,284,545,62,83,267.764556885,213.0,1449781888.0
1505402119319069012,16957,1505402119318729822,ardrone_base_link,71.0,0,-5,-13,-23,98905,486,0.0,0.0,0.0,-0.24699999392,-2.58999991417,-129.81300354,0,0.0,-0.0,-0.0,0.0188745632768,0.00998710189015,0.948737323284,0,0,0,0,1,131072,284,545,62,83,267.764556885,213.0,1449786752.0
1505402119324356738,16958,1505402119324096771,ardrone_base_link,71.0,0,-7,-13,-19,98902,486,0.0,0.0,0.0,-0.247999995947,-2.58999991417,-129.81300354,0,0.0,-0.0,-0.0,0.0189885348082,0.00811458285898,0.948265135288,0,0,0,0,1,131072,284,545,62,83,267.764556885,213.0,1449791872.0
1505402119331305781,16959,1505402119331159731,ardrone_base_link,71.0,0,-7,-13,-19,98902,486,0.0,0.0,0.0,-0.247999995947,-2.58999991417,-129.81199646,0,0.0,-0.0,-0.0,0.0189938358963,0.00615385500714,0.946209967136,0,0,0,0,1,131072,284,545,62,83,267.764556885,213.0,1449796992.0
1505402119335412940,16960,1505402119335280627,ardrone_base_link,71.0,0,-4,-18,-18,98905,486,0.0,0.0,0.0,-0.248999997973,-2.58999991417,-129.811004639,0,0.0,-0.0,-0.0,0.0189874041826,0.00645383726805,0.947211921215,0,0,0,0,1,131072,275,545,62,83,267.741577148,213.0,1449801856.0
1505402119345542288,16961,1505402119344730098,ardrone_base_link,71.0,0,-4,-18,-18,98905,486,0.0,0.0,0.0,-0.248999997973,-2.59100008011,-129.811004639,0,0.0,-0.0,-0.0,0.01900851354,0.00939498655498,0.9471758008,0,0,0,0,1,131072,275,545,62,83,267.741577148,213.0,1449806848.0
1505402119345550644,16962,1505402119344784757,ardrone_base_link,71.0,0,-6,-10,-18,98908,486,0.0,0.0,0.0,-0.247999995947,-2.59200000763,-129.809997559,0,0.0,-0.0,-0.0,0.018970914185,0.0117480475456,0.947881817818,0,0,0,0,1,131072,275,545,62,83,267.741577148,213.0,1449811968.0
1505402119349433164,16963,1505402119349235268,ardrone_base_link,71.0,0,-6,-10,-18,98908,486,0.0,0.0,0.0,-0.247999995947,-2.59200000763,-129.809005737,0,0.0,-0.0,-0.0,0.0189776457846,0.013601668179,0.947639644146,0,0,0,0,1,131072,275,545,62,83,267.741577148,213.0,1449816960.0
1505402119357418780,16964,1505402119357230188,ardrone_base_link,71.0,0,-8,-16,-20,98908,486,0.0,0.0,0.0,-0.24699999392,-2.59299993515,-129.807998657,0,0.0,-0.0,-0.0,0.0189434383065,0.0122621394694,0.947165548801,0,0,0,0,1,131072,275,545,62,83,267.741577148,213.0,1449821952.0
1505402119359357107,16965,1505402119359201788,ardrone_base_link,71.0,0,-8,-16,-20,98908,486,0.0,0.0,0.0,-0.247999995947,-2.59299993515,-129.807006836,0,0.0,-0.0,-0.0,0.0188991092145,0.0111597292125,0.947382330894,0,0,0,0,1,131072,275,545,62,83,267.741577148,213.0,1449826944.0
1505402119364734587,16966,1505402119364441577,ardrone_base_link,71.0,0,-8,-16,-16,98895,486,0.0,0.0,0.0,-0.247999995947,-2.59299993515,-129.807006836,0,0.0,-0.0,-0.0,0.0188719220459,0.0109411794692,0.947278320789,0,0,0,0,1,131072,275,545,62,83,267.741577148,213.0,1449832064.0
1505402119369550575,16967,1505402119369354745,ardrone_base_link,71.0,0,-8,-16,-16,98895,486,0.0,0.0,0.0,-0.247999995947,-2.59299993515,-129.805999756,0,0.0,-0.0,-0.0,0.0188385508955,0.0111149828881,0.947498559952,0,0,0,0,1,131072,265,541,62,83,267.48626709,213.0,1449837184.0
1505402119376165783,16968,1505402119376008045,ardrone_base_link,71.0,0,-9,-9,-21,98895,486,0.0,0.0,0.0,-0.24699999392,-2.59400010109,-129.804992676,0,0.0,-0.0,-0.0,0.0188471693546,0.0122092952952,0.947489261627,0,0,0,0,1,131072,265,541,62,83,267.48626709,213.0,1449842048.0
1505402119382879797,16969,1505402119382596048,ardrone_base_link,71.0,0,-9,-9,-21,98892,486,0.0,0.0,0.0,-0.24699999392,-2.59400010109,-129.804992676,0,0.0,-0.0,-0.0,0.018872404471,0.0117336334661,0.947343766689,0,0,0,0,1,131072,265,541,62,83,267.48626709,213.0,1449847168.0
1505402119384550960,16970,1505402119384351607,ardrone_base_link,71.0,0,-6,-16,-20,98898,486,0.0,0.0,0.0,-0.24699999392,-2.59400010109,-129.804992676,0,0.0,-0.0,-0.0,0.0189127549529,0.0117147127166,0.94895118475,0,0,0,0,1,131072,265,541,62,83,267.48626709,213.0,1449852160.0
1505402119390660972,16971,1505402119390502044,ardrone_base_link,71.0,0,-6,-16,-20,98898,486,0.0,0.0,0.0,-0.24699999392,-2.59400010109,-129.804000854,0,0.0,-0.0,-0.0,0.0189683064818,0.0115898018703,0.949227511883,0,0,0,0,1,131072,265,541,62,83,267.48626709,213.0,1449857152.0
1505402119394889013,16972,1505402119394741214,ardrone_base_link,71.0,0,-4,-16,-22,98905,486,0.0,0.0,0.0,-0.24699999392,-2.59500002861,-129.802993774,0,0.0,-0.0,-0.0,0.0190076921135,0.0115323429927,0.950895011425,0,0,0,0,1,131072,265,541,62,83,267.48626709,213.0,1449862272.0
1505402119399459485,16973,1505402119399242994,ardrone_base_link,71.0,0,-4,-16,-22,98902,486,0.0,0.0,0.0,-0.24699999392,-2.59500002861,-129.802993774,0,0.0,-0.0,-0.0,0.0190381594002,0.0118211470544,0.949077129364,0,0,0,0,1,131072,265,541,62,83,267.48626709,213.0,1449867136.0
1505402119408586838,16974,1505402119408325782,ardrone_base_link,71.0,0,-3,-17,-21,98892,486,0.0,0.0,0.0,-0.24699999392,-2.59500002861,-129.802001953,0,0.0,-0.0,-0.0,0.0190412644297,0.0116505576298,0.947939932346,0,0,0,0,1,131072,256,545,62,83,267.320281982,213.0,1449872384.0
1505402119410044443,16975,1505402119409729529,ardrone_base_link,71.0,0,-3,-17,-21,98898,486,0.0,0.0,0.0,-0.246000006795,-2.59500002861,-129.802001953,0,0.0,-0.0,-0.0,0.0190223883837,0.0116372862831,0.946738302708,0,0,0,0,1,131072,256,545,62,83,267.320281982,213.0,1449877376.0
1505402119415115359,16976,1505402119414897134,ardrone_base_link,71.0,0,-7,-15,-21,98895,486,0.0,0.0,0.0,-0.246000006795,-2.59500002861,-129.800994873,0,0.0,-0.0,-0.0,0.0189945399761,0.0115812402219,0.946078598499,0,0,0,0,1,131072,256,545,62,83,267.320281982,213.0,1449882368.0
1505402119423516655,16977,1505402119422727326,ardrone_base_link,71.0,0,-7,-15,-21,98892,486,0.0,0.0,0.0,-0.246000006795,-2.59500002861,-129.800994873,0,0.0,-0.0,-0.0,0.0174041222781,0.0115288840607,0.948023438454,0,0,0,0,1,131072,256,545,62,83,267.320281982,213.0,1449887232.0
1505402119425285729,16978,1505402119425056396,ardrone_base_link,71.0,0,-13,-17,-21,98898,486,0.0,0.0,0.0,-0.246000006795,-2.59500002861,-129.800994873,0,0.0,-0.0,-0.0,0.0154737317935,0.0115953683853,0.9471758008,0,0,0,0,1,131072,256,545,62,83,267.320281982,213.0,1449892480.0
1505402119429832496,16979,1505402119429591430,ardrone_base_link,71.0,0,-13,-17,-21,98902,486,0.0,0.0,0.0,-0.24699999392,-2.59500002861,-129.800003052,0,0.0,-0.0,-0.0,0.011920414865,0.011533357203,0.94818264246,0,0,0,0,1,131072,256,545,62,83,267.320281982,213.0,1449897344.0
1505402119434785055,16980,1505402119434616347,ardrone_base_link,71.0,0,-8,-12,-20,98908,486,0.0,0.0,0.0,-0.24699999392,-2.59400010109,-129.800003052,0,0.0,-0.0,-0.0,0.0117941265926,0.0115261776373,0.946988761425,0,0,0,0,1,131072,243,545,62,83,268.005371094,213.0,1449902336.0
1505402119442779218,16981,1505402119442225312,ardrone_base_link,71.0,0,-8,-12,-20,98905,486,0.0,0.0,0.0,-0.24699999392,-2.59299993515,-129.800003052,0,0.0,-0.0,-0.0,0.0115763116628,0.011537861079,0.947112798691,0,0,0,0,1,131072,243,545,62,83,268.005371094,213.0,1449907328.0
1505402119445140730,16982,1505402119444888060,ardrone_base_link,71.0,0,-11,-15,-19,98902,486,0.0,0.0,0.0,-0.246000006795,-2.59200000763,-129.798995972,0,0.0,-0.0,-0.0,0.0138921979815,0.01155768428,0.947498559952,0,0,0,0,1,131072,243,545,62,83,268.005371094,213.0,1449912576.0
1505402119450282939,16983,1505402119450102298,ardrone_base_link,71.0,0,-11,-15,-19,98902,486,0.0,0.0,0.0,-0.246000006795,-2.59200000763,-129.798995972,0,0.0,-0.0,-0.0,0.0133606866002,0.0116220200434,0.947209000587,0,0,0,0,1,131072,243,545,62,83,268.005371094,213.0,1449917696.0
1505402119454988168,16984,1505402119454738340,ardrone_base_link,71.0,0,-5,-15,-23,98898,486,0.0,0.0,0.0,-0.246000006795,-2.59100008011,-129.798995972,0,0.0,-0.0,-0.0,0.0131726115942,0.0116344178095,0.947630882263,0,0,0,0,1,131072,243,545,62,83,268.005371094,213.0,1449922432.0
1505402119461335083,16985,1505402119460877913,ardrone_base_link,71.0,0,-5,-15,-23,98898,486,0.0,0.0,0.0,-0.246000006795,-2.59100008011,-129.798995972,0,0.0,-0.0,-0.0,0.0140551039949,0.0116419317201,0.947293937206,0,0,0,0,1,131072,243,545,62,83,268.005371094,213.0,1449927552.0
1505402119465226538,16986,1505402119464904881,ardrone_base_link,71.0,0,-7,-13,-21,98892,486,0.0,0.0,0.0,-0.246000006795,-2.59100008011,-129.798995972,0,0.0,-0.0,-0.0,0.0161179453135,0.0116350026801,0.947317361832,0,0,0,0,1,131072,237,545,62,83,266.673706055,213.0,1449932544.0
1505402119470057317,16987,1505402119469742059,ardrone_base_link,71.0,0,-7,-13,-21,98892,486,0.0,0.0,0.0,-0.246000006795,-2.59200000763,-129.798995972,0,0.0,-0.0,-0.0,0.0201528482139,0.0116175496951,0.947466313839,0,0,0,0,1,131072,237,545,62,83,266.673706055,213.0,1449937536.0
1505402119476573424,16988,1505402119476283299,ardrone_base_link,71.0,0,-8,-18,-18,98902,486,0.0,0.0,0.0,-0.245000004768,-2.59200000763,-129.798995972,0,0.0,-0.0,-0.0,0.0200964864343,0.0116009125486,0.94732862711,0,0,0,0,1,131072,237,545,62,83,266.673706055,213.0,1449942528.0
1505402119481546619,16989,1505402119481261120,ardrone_base_link,71.0,0,-8,-18,-18,98898,486,0.0,0.0,0.0,-0.245000004768,-2.59299993515,-129.79800415,0,0.0,-0.0,-0.0,0.020327841863,0.0115746017545,0.9475004673,0,0,0,0,1,131072,237,545,62,83,266.673706055,213.0,1449947648.0
1505402119488658385,16990,1505402119488362765,ardrone_base_link,71.0,0,-11,-9,-17,98898,486,0.0,0.0,0.0,-0.245000004768,-2.59299993515,-129.79699707,0,0.0,-0.0,-0.0,0.0179084166884,0.0115412902087,0.947376966476,0,0,0,0,1,131072,237,545,62,83,266.673706055,213.0,1449953024.0
1505402119491600474,16991,1505402119491418851,ardrone_base_link,71.0,0,-11,-9,-17,98905,486,0.0,0.0,0.0,-0.245000004768,-2.59400010109,-129.796005249,0,0.0,-0.0,-0.0,0.0183964930475,0.0115251233801,0.94738137722,0,0,0,0,1,131072,237,545,62,83,266.673706055,213.0,1449957760.0
1505402119495140357,16992,1505402119494921701,ardrone_base_link,71.0,0,-7,-15,-19,98902,486,0.0,0.0,0.0,-0.245000004768,-2.59400010109,-129.794998169,0,0.0,-0.0,-0.0,0.0186162553728,0.0115120392293,0.947426259518,0,0,0,0,1,131072,237,545,62,83,266.673706055,213.0,1449962752.0
1505402119500173774,16993,1505402119499932999,ardrone_base_link,71.0,0,-7,-15,-19,98895,486,0.0,0.0,0.0,-0.245000004768,-2.59400010109,-129.794006348,0,0.0,-0.0,-0.0,0.0192412305623,0.0115256588906,0.947371602058,0,0,0,0,1,131072,225,545,62,83,268.037078857,213.0,1449967744.0
1505402119510977324,16994,1505402119510718225,ardrone_base_link,71.0,0,-7,-13,-17,98898,486,0.0,0.0,0.0,-0.245000004768,-2.59400010109,-129.792999268,0,0.0,-0.0,-0.0,0.0192607790232,0.0115510746837,0.947433590889,0,0,0,0,1,131072,225,545,62,83,268.037078857,213.0,1449972736.0
1505402119510981010,16995,1505402119510752632,ardrone_base_link,71.0,0,-7,-13,-17,98905,486,0.0,0.0,0.0,-0.245000004768,-2.59400010109,-129.792999268,0,0.0,-0.0,-0.0,0.0187895521522,0.0115898679942,0.947396993637,0,0,0,0,1,131072,225,545,62,83,268.037078857,213.0,1449977728.0
1505402119516641277,16996,1505402119516366275,ardrone_base_link,71.0,0,-4,-16,-16,98895,486,0.0,0.0,0.0,-0.245000004768,-2.59500002861,-129.792007446,0,0.0,-0.0,-0.0,0.0188882984221,0.0116350864992,0.947396457195,0,0,0,0,1,131072,225,545,62,83,268.037078857,213.0,1449983360.0
1505402119520303459,16997,1505402119520106328,ardrone_base_link,71.0,0,-4,-16,-16,98892,486,0.0,0.0,0.0,-0.245000004768,-2.59500002861,-129.791000366,0,0.0,-0.0,-0.0,0.0189064498991,0.0116681894287,0.947413563728,0,0,0,0,1,131072,225,545,62,83,268.037078857,213.0,1449987840.0
1505402119525524731,16998,1505402119525331348,ardrone_base_link,71.0,0,-11,-15,-25,98898,486,0.0,0.0,0.0,-0.244000002742,-2.59599995613,-129.789993286,0,0.0,-0.0,-0.0,0.0190790165216,0.0101530877873,0.947398424149,0,0,0,0,1,131072,225,545,62,83,268.037078857,213.0,1449992960.0
1505402119530374622,16999,1505402119530206410,ardrone_base_link,71.0,0,-11,-15,-25,98902,486,0.0,0.0,0.0,-0.245000004768,-2.59699988365,-129.789001465,0,0.0,-0.0,-0.0,0.0191434752196,0.00826194044203,0.947430193424,0,0,0,0,1,131072,212,545,62,83,267.282104492,213.0,1449997952.0
1505402119536754215,17000,1505402119536543381,ardrone_base_link,71.0,0,-7,-13,-21,98902,486,0.0,0.0,0.0,-0.245000004768,-2.59699988365,-129.787994385,0,0.0,-0.0,-0.0,0.0189734492451,0.00627372413874,0.947427749634,0,0,0,0,1,131072,212,545,62,83,267.282104492,213.0,1450002944.0
1505402119542343451,17001,1505402119542087395,ardrone_base_link,71.0,0,-7,-13,-21,98898,486,0.0,0.0,0.0,-0.246000006795,-2.59800004959,-129.787002563,0,0.0,-0.0,-0.0,0.0189550668001,0.00645267823711,0.947425782681,0,0,0,0,1,131072,212,545,62,83,267.282104492,213.0,1450007936.0
1505402119545483559,17002,1505402119545278103,ardrone_base_link,71.0,0,-7,-17,-23,98898,486,0.0,0.0,0.0,-0.246000006795,-2.59800004959,-129.787002563,0,0.0,-0.0,-0.0,0.0188684631139,0.00933133531362,0.947419941425,0,0,0,0,1,131072,212,545,62,83,267.282104492,213.0,1450013056.0
1505402119550269159,17003,1505402119550055271,ardrone_base_link,71.0,0,-7,-17,-23,98898,486,0.0,0.0,0.0,-0.245000004768,-2.59899997711,-129.787002563,0,0.0,-0.0,-0.0,0.018864961341,0.0116341263056,0.947396457195,0,0,0,0,1,131072,212,545,62,83,267.282104492,213.0,1450017920.0
1505402119555415899,17004,1505402119555238681,ardrone_base_link,71.0,0,-9,-15,-17,98898,486,0.0,0.0,0.0,-0.245000004768,-2.59999990463,-129.785995483,0,0.0,-0.0,-0.0,0.0188758410513,0.0134927695617,0.947397470474,0,0,0,0,1,131072,203,541,62,83,267.610565186,213.0,1450023040.0
1505402119560386699,17005,1505402119560156234,ardrone_base_link,71.0,0,-9,-15,-17,98898,486,0.0,0.0,0.0,-0.244000002742,-2.60100007057,-129.785995483,0,0.0,-0.0,-0.0,0.0188316833228,0.0121889123693,0.947399914265,0,0,0,0,1,131072,203,541,62,83,267.610565186,213.0,1450028032.0
1505402119565653605,17006,1505402119565407271,ardrone_base_link,71.0,0,-13,-9,-19,98902,486,0.0,0.0,0.0,-0.245000004768,-2.60100007057,-129.785003662,0,0.0,-0.0,-0.0,0.0188497826457,0.0111044123769,0.947404801846,0,0,0,0,1,131072,203,541,62,83,267.610565186,213.0,1450033152.0
1505402119577097800,17007,1505402119576896669,ardrone_base_link,71.0,0,-13,-9,-19,98905,486,0.0,0.0,0.0,-0.245000004768,-2.60100007057,-129.783996582,0,0.0,-0.0,-0.0,0.0188412033021,0.0109151657671,0.94740819931,0,0,0,0,1,131072,203,541,62,83,267.610565186,213.0,1450038272.0
1505402119581673397,17008,1505402119581272552,ardrone_base_link,71.0,0,-15,-11,-13,98902,486,0.0,0.0,0.0,-0.245000004768,-2.60100007057,-129.783004761,0,0.0,-0.0,-0.0,0.0188659913838,0.0111060515046,0.947403788567,0,0,0,0,1,131072,203,541,62,83,267.610565186,213.0,1450043264.0
1505402119582880590,17009,1505402119582493995,ardrone_base_link,71.0,0,-15,-11,-13,98902,486,0.0,0.0,0.0,-0.244000002742,-2.60199999809,-129.781997681,0,0.0,-0.0,-0.0,0.0173529423773,0.012211962603,0.947391629219,0,0,0,0,1,131072,203,541,62,83,267.610565186,213.0,1450048256.0
1505402119588309356,17010,1505402119588049383,ardrone_base_link,71.0,0,-9,-13,-27,98905,486,0.0,0.0,0.0,-0.244000002742,-2.60199999809,-129.781997681,0,0.0,-0.0,-0.0,0.0170338153839,0.0117526268587,0.947389185429,0,0,0,0,1,131072,203,541,62,83,267.610565186,213.0,1450053120.0
1505402119590554149,17011,1505402119590368004,ardrone_base_link,71.0,0,-9,-13,-27,98905,486,0.0,0.0,0.0,-0.244000002742,-2.60100007057,-129.781997681,0,0.0,-0.0,-0.0,0.0139021361247,0.0116945067421,0.947367668152,0,0,0,0,1,131072,203,541,62,83,267.610565186,213.0,1450058112.0
1505402119595621301,17012,1505402119595449169,ardrone_base_link,71.0,0,-5,-15,-21,98905,486,0.0,0.0,0.0,-0.244000002742,-2.60100007057,-129.781005859,0,0.0,-0.0,-0.0,0.0138876857236,0.0115653648973,0.947370588779,0,0,0,0,1,131072,193,545,62,83,267.739807129,213.0,1450063232.0
1505402119600666708,17013,1505402119600504392,ardrone_base_link,71.0,0,-5,-15,-21,98898,486,0.0,0.0,0.0,-0.244000002742,-2.59999990463,-129.779998779,0,0.0,-0.0,-0.0,0.0114803146571,0.0114670917392,0.947350084782,0,0,0,0,1,131072,193,545,62,83,267.739807129,213.0,1450068224.0
1505402119610424047,17014,1505402119610202984,ardrone_base_link,71.0,0,-4,-14,-18,98895,486,0.0,0.0,0.0,-0.244000002742,-2.59899997711,-129.779998779,0,0.0,-0.0,-0.0,0.0110632805154,0.0117822829634,0.947350084782,0,0,0,0,1,131072,193,545,62,83,267.739807129,213.0,1450073472.0
1505402119611591212,17015,1505402119611462016,ardrone_base_link,71.0,0,-4,-14,-18,98898,486,0.0,0.0,0.0,-0.243000000715,-2.59800004959,-129.779006958,0,0.0,-0.0,-0.0,0.0111138662323,0.0116241751239,0.947347640991,0,0,0,0,1,131072,193,545,62,83,267.739807129,213.0,1450078464.0
1505402119617042194,17016,1505402119616842852,ardrone_base_link,71.0,0,-8,-16,-20,98898,486,0.0,0.0,0.0,-0.243000000715,-2.59699988365,-129.777999878,0,0.0,-0.0,-0.0,0.00980524718761,0.0116061726585,0.947340846062,0,0,0,0,1,131072,193,545,62,83,267.739807129,213.0,1450083328.0
1505402119620803965,17017,1505402119620400685,ardrone_base_link,71.0,0,-8,-16,-20,98898,486,0.0,0.0,0.0,-0.244000002742,-2.59599995613,-129.777999878,0,0.0,-0.0,-0.0,0.0119560174644,0.0115499831736,0.9473554492,0,0,0,0,1,131072,193,545,62,83,267.739807129,213.0,1450088320.0
1505402119629743263,17018,1505402119629511919,ardrone_base_link,71.0,0,-6,-18,-22,98905,486,0.0,0.0,0.0,-0.244000002742,-2.59500002861,-129.776992798,0,0.0,-0.0,-0.0,0.0102183427662,0.0114512536675,0.947343289852,0,0,0,0,1,131072,193,545,62,83,267.739807129,213.0,1450093312.0
1505402119634721399,17019,1505402119634360564,ardrone_base_link,71.0,0,-6,-18,-22,98905,486,0.0,0.0,0.0,-0.244000002742,-2.59400010109,-129.776000977,0,0.0,-0.0,-0.0,0.0116499271244,0.0115544712171,0.947354018688,0,0,0,0,1,131072,184,541,62,83,267.182098389,213.0,1450098304.0
1505402119635841530,17020,1505402119635641785,ardrone_base_link,71.0,0,-9,-15,-27,98898,486,0.0,0.0,0.0,-0.244000002742,-2.59400010109,-129.774993896,0,0.0,-0.0,-0.0,0.0122110163793,0.0115208150819,0.947356939316,0,0,0,0,1,131072,184,541,62,83,267.182098389,213.0,1450103424.0
1505402119640967097,17021,1505402119640778749,ardrone_base_link,71.0,0,-9,-15,-27,98902,486,0.0,0.0,0.0,-0.243000000715,-2.59400010109,-129.774002075,0,0.0,-0.0,-0.0,0.0141402231529,0.0115710282698,0.947370588779,0,0,0,0,1,131072,184,541,62,83,267.182098389,213.0,1450108544.0
1505402119646334312,17022,1505402119646177309,ardrone_base_link,71.0,0,-12,-12,-22,98908,486,0.0,0.0,0.0,-0.241999998689,-2.59400010109,-129.774002075,0,0.0,-0.0,-0.0,0.0182179044932,0.01161164511,0.947398900986,0,0,0,0,1,131072,184,541,62,83,267.182098389,213.0,1450113792.0
1505402119653299477,17023,1505402119653148768,ardrone_base_link,71.0,0,-12,-12,-22,98908,486,0.0,0.0,0.0,-0.240999996662,-2.59500002861,-129.774002075,0,0.0,-0.0,-0.0,0.0193258132786,0.0116223925725,0.948934078217,0,0,0,0,1,131072,184,541,62,83,267.182098389,213.0,1450118656.0
1505402119656042873,17024,1505402119655894500,ardrone_base_link,71.0,0,-11,-9,-21,98902,486,0.0,0.0,0.0,-0.240999996662,-2.59500002861,-129.772994995,0,0.0,-0.0,-0.0,0.0188432950526,0.0116447573528,0.94927829504,0,0,0,0,1,131072,184,541,62,83,267.182098389,213.0,1450123520.0
1505402119661490262,17025,1505402119660831636,ardrone_base_link,71.0,0,-11,-9,-21,98902,486,0.0,0.0,0.0,-0.240999996662,-2.59500002861,-129.772994995,0,0.0,-0.0,-0.0,0.0175019241869,0.0116065302864,0.950868189335,0,0,0,0,1,131072,175,541,62,83,267.989196777,213.0,1450128512.0
1505402119667654029,17026,1505402119667369613,ardrone_base_link,71.0,0,-10,-16,-22,98905,486,0.0,0.0,0.0,-0.240999996662,-2.59400010109,-129.772003174,0,0.0,-0.0,-0.0,0.0145030654967,0.0115195196122,0.949019014835,0,0,0,0,1,131072,175,541,62,83,267.989196777,213.0,1450133632.0
1505402119671487406,17027,1505402119671295610,ardrone_base_link,71.0,0,-10,-16,-22,98905,486,0.0,0.0,0.0,-0.240999996662,-2.59400010109,-129.770996094,0,0.0,-0.0,-0.0,0.0172287113965,0.0114821633324,0.947947263718,0,0,0,0,1,131072,175,541,62,83,267.989196777,213.0,1450138624.0
1505402119679019375,17028,1505402119678769602,ardrone_base_link,71.0,0,-5,-9,-17,98902,486,0.0,0.0,0.0,-0.239999994636,-2.59400010109,-129.770996094,0,0.0,-0.0,-0.0,0.0179165694863,0.0114538287744,0.946716785431,0,0,0,0,1,131072,175,541,62,83,267.989196777,213.0,1450143744.0
1505402119681897439,17029,1505402119681543606,ardrone_base_link,71.0,0,-5,-9,-17,98898,486,0.0,0.0,0.0,-0.239999994636,-2.59500002861,-129.770004272,0,0.0,-0.0,-0.0,0.020247630775,0.0115037653595,0.946105003357,0,0,0,0,1,131072,175,541,62,83,267.989196777,213.0,1450148608.0
1505402119686434805,17030,1505402119686132580,ardrone_base_link,71.0,0,-7,-15,-21,98892,486,0.0,0.0,0.0,-0.238999992609,-2.59599995613,-129.768997192,0,0.0,-0.0,-0.0,0.0204354207963,0.0115841533989,0.948041498661,0,0,0,0,1,131072,175,541,62,83,267.989196777,213.0,1450153856.0
1505402119691776330,17031,1505402119691593320,ardrone_base_link,71.0,0,-7,-15,-21,98895,486,0.0,0.0,0.0,-0.238999992609,-2.59599995613,-129.768005371,0,0.0,-0.0,-0.0,0.0182133000344,0.0116072259843,0.947184562683,0,0,0,0,1,131072,165,541,62,83,267.749969482,213.0,1450158848.0
1505402119696557963,17032,1505402119696317411,ardrone_base_link,71.0,0,-5,-13,-21,98902,486,0.0,0.0,0.0,-0.238999992609,-2.59699988365,-129.76600647,0,0.0,-0.0,-0.0,0.0192721821368,0.0116514544934,0.948240697384,0,0,0,0,1,131072,165,541,62,83,267.749969482,213.0,1450163968.0
1505402119701246821,17033,1505402119700989826,ardrone_base_link,71.0,0,-5,-13,-21,98898,486,0.0,0.0,0.0,-0.239999994636,-2.59699988365,-129.76499939,0,0.0,-0.0,-0.0,0.0179226286709,0.0116454837844,0.948551297188,0,0,0,0,1,131072,165,541,62,83,267.749969482,213.0,1450168704.0
1505402119714005529,17034,1505402119713481492,ardrone_base_link,71.0,0,-12,-14,-22,98902,486,0.0,0.0,0.0,-0.239999994636,-2.59699988365,-129.76499939,0,0.0,-0.0,-0.0,0.0194575339556,0.0116627980024,0.949048340321,0,0,0,0,1,131072,165,541,62,83,267.749969482,213.0,1450173824.0
1505402119714254254,17035,1505402119714060771,ardrone_base_link,71.0,0,-12,-14,-22,98905,486,0.0,0.0,0.0,-0.238999992609,-2.59800004959,-129.764007568,0,0.0,-0.0,-0.0,0.0191663932055,0.0117010846734,0.951008796692,0,0,0,0,1,131072,165,541,62,83,267.749969482,213.0,1450178816.0
1505402119716981084,17036,1505402119716775501,ardrone_base_link,71.0,0,-7,-15,-21,98908,486,0.0,0.0,0.0,-0.238999992609,-2.59800004959,-129.763000488,0,0.0,-0.0,-0.0,0.0187007840723,0.0116864768788,0.948889136314,0,0,0,0,1,131072,165,541,62,83,267.749969482,213.0,1450184320.0
1505402119721219534,17037,1505402119721053225,ardrone_base_link,71.0,0,-7,-15,-21,98908,486,0.0,0.0,0.0,-0.238999992609,-2.59800004959,-129.763000488,0,0.0,-0.0,-0.0,0.0190864987671,0.0116985114291,0.948229968548,0,0,0,0,1,131072,165,541,62,83,267.749969482,213.0,1450188800.0
1505402119726371744,17038,1505402119726229307,ardrone_base_link,71.0,0,-10,-14,-18,98908,486,0.0,0.0,0.0,-0.238999992609,-2.59800004959,-129.761993408,0,0.0,-0.0,-0.0,0.0185574684292,0.0116724641994,0.946642577648,0,0,0,0,1,131072,156,541,62,83,267.951293945,213.0,1450194048.0
1505402119731463291,17039,1505402119731281449,ardrone_base_link,71.0,0,-10,-14,-18,98908,486,0.0,0.0,0.0,-0.238999992609,-2.59800004959,-129.761001587,0,0.0,-0.0,-0.0,0.0190685354173,0.0116507513449,0.946031749249,0,0,0,0,1,131072,156,541,62,83,267.951293945,213.0,1450199040.0
1505402119736340580,17040,1505402119736143112,ardrone_base_link,71.0,0,-8,-12,-22,98908,486,0.0,0.0,0.0,-0.238999992609,-2.59800004959,-129.761001587,0,0.0,-0.0,-0.0,0.01906565018,0.0116565544158,0.9480869174,0,0,0,0,1,131072,156,541,62,83,267.951293945,213.0,1450203904.0
1505402119742725964,17041,1505402119742413657,ardrone_base_link,71.0,0,-8,-12,-22,98908,486,0.0,0.0,0.0,-0.238999992609,-2.59899997711,-129.759994507,0,0.0,-0.0,-0.0,0.0189551021904,0.0116158174351,0.947105944157,0,0,0,0,1,131072,156,541,62,83,267.951293945,213.0,1450209024.0
1505402119746366403,17042,1505402119746174644,ardrone_base_link,71.0,0,-4,-12,-22,98908,486,0.0,0.0,0.0,-0.238999992609,-2.59899997711,-129.759994507,0,0.0,-0.0,-0.0,0.0191498361528,0.0116273164749,0.948327660561,0,0,0,0,1,131072,156,541,62,83,267.951293945,213.0,1450214016.0
1505402119763511044,17043,1505402119763287924,ardrone_base_link,71.0,0,-4,-12,-22,98908,486,0.0,0.0,0.0,-0.238999992609,-2.59899997711,-129.759994507,0,0.0,-0.0,-0.0,0.018917735666,0.0116087170318,0.94700974226,0,0,0,0,1,131072,156,541,62,83,267.951293945,213.0,1450219008.0
1505402119765049001,17044,1505402119764746675,ardrone_base_link,71.0,0,-4,-20,-26,98905,486,0.0,0.0,0.0,-0.238000005484,-2.59999990463,-129.759002686,0,0.0,-0.0,-0.0,0.0190365668386,0.0116220293567,0.947150886059,0,0,0,0,1,131072,146,541,62,83,266.902496338,213.0,1450224000.0
1505402119765063338,17045,1505402119764769731,ardrone_base_link,71.0,0,-4,-20,-26,98902,486,0.0,0.0,0.0,-0.238000005484,-2.59999990463,-129.757995605,0,0.0,-0.0,-0.0,0.0189805049449,0.0116282682866,0.947557151318,0,0,0,0,1,131072,146,541,62,83,266.902496338,213.0,1450229120.0
1505402119773588470,17046,1505402119773365355,ardrone_base_link,71.0,0,-7,-17,-17,98892,486,0.0,0.0,0.0,-0.238000005484,-2.59999990463,-129.757003784,0,0.0,-0.0,-0.0,0.0188817661256,0.0116044078022,0.947209000587,0,0,0,0,1,131072,146,541,62,83,266.902496338,213.0,1450234496.0
1505402119782416338,17047,1505402119782108253,ardrone_base_link,71.0,0,-7,-17,-17,98895,486,0.0,0.0,0.0,-0.238000005484,-2.59999990463,-129.757003784,0,0.0,-0.0,-0.0,0.0189247764647,0.0115826828405,0.947701632977,0,0,0,0,1,131072,146,541,62,83,266.902496338,213.0,1450239360.0
1505402119782419697,17048,1505402119782163754,ardrone_base_link,71.0,0,-6,-12,-16,98905,486,0.0,0.0,0.0,-0.238999992609,-2.59999990463,-129.755996704,0,0.0,-0.0,-0.0,0.0188259780407,0.011548246257,0.947318851948,0,0,0,0,1,131072,146,541,62,83,266.902496338,213.0,1450244352.0
1505402119782428180,17049,1505402119782210347,ardrone_base_link,71.0,0,-6,-12,-16,98895,486,0.0,0.0,0.0,-0.238000005484,-2.59999990463,-129.755996704,0,0.0,-0.0,-0.0,0.018885076046,0.01153915748,0.947332978249,0,0,0,0,1,131072,146,541,62,83,266.902496338,213.0,1450249472.0
1505402119786684060,17050,1505402119786516499,ardrone_base_link,71.0,0,-5,-11,-17,98892,486,0.0,0.0,0.0,-0.238000005484,-2.60100007057,-129.755996704,0,0.0,-0.0,-0.0,0.0189141146839,0.0115531887859,0.947468280792,0,0,0,0,1,131072,146,541,62,83,266.902496338,213.0,1450254208.0
1505402119792087244,17051,1505402119791921970,ardrone_base_link,71.0,0,-5,-11,-17,98898,486,0.0,0.0,0.0,-0.238000005484,-2.60100007057,-129.755996704,0,0.0,-0.0,-0.0,0.0189351066947,0.0115761635825,0.947306156158,0,0,0,0,1,131072,137,541,62,83,267.771362305,213.0,1450259584.0
1505402119796812257,17052,1505402119796603807,ardrone_base_link,71.0,0,-3,-13,-19,98905,486,0.0,0.0,0.0,-0.238000005484,-2.60100007057,-129.755996704,0,0.0,-0.0,-0.0,0.0190065912902,0.0116064371541,0.947501003742,0,0,0,0,1,131072,137,541,62,83,267.771362305,213.0,1450264320.0
1505402119801694738,17053,1505402119801491288,ardrone_base_link,71.0,0,-3,-13,-19,98905,486,0.0,0.0,0.0,-0.238000005484,-2.60100007057,-129.755004883,0,0.0,-0.0,-0.0,0.0189992841333,0.0116470651701,0.948910176754,0,0,0,0,1,131072,137,541,62,83,267.771362305,213.0,1450269312.0
1505402119807332169,17054,1505402119807084683,ardrone_base_link,71.0,0,-10,-18,-20,98898,486,0.0,0.0,0.0,-0.237000003457,-2.60100007057,-129.753997803,0,0.0,-0.0,-0.0,0.0190226100385,0.0116567183286,0.949256837368,0,0,0,0,1,131072,137,541,62,83,267.771362305,213.0,1450274560.0
1505402119813214089,17055,1505402119813019962,ardrone_base_link,71.0,0,-10,-18,-20,98902,486,0.0,0.0,0.0,-0.237000003457,-2.60199999809,-129.753005981,0,0.0,-0.0,-0.0,0.0190132930875,0.0116741200909,0.950908184052,0,0,0,0,1,131072,137,541,62,83,267.771362305,213.0,1450279424.0
1505402119817328100,17056,1505402119817118772,ardrone_base_link,71.0,0,-5,-11,-17,98902,486,0.0,0.0,0.0,-0.237000003457,-2.60199999809,-129.751998901,0,0.0,-0.0,-0.0,0.0189876481891,0.0116234552115,0.949007809162,0,0,0,0,1,131072,137,541,62,83,267.771362305,213.0,1450284672.0
1505402119821931257,17057,1505402119821650008,ardrone_base_link,71.0,0,-5,-11,-17,98902,486,0.0,0.0,0.0,-0.237000003457,-2.60199999809,-129.751998901,0,0.0,-0.0,-0.0,0.0189752541482,0.0115853277966,0.947991192341,0,0,0,0,1,131072,137,541,62,83,267.771362305,213.0,1450289408.0
1505402119826924087,17058,1505402119826651687,ardrone_base_link,71.0,0,-8,-16,-22,98902,486,0.0,0.0,0.0,-0.237000003457,-2.60299992561,-129.75100708,0,0.0,-0.0,-0.0,0.0189354550093,0.0100179947913,0.946725070477,0,0,0,0,1,131072,128,541,62,83,267.444824219,213.0,1450294400.0
1505402119831796363,17059,1505402119831605862,ardrone_base_link,71.0,0,-8,-16,-22,98895,486,0.0,0.0,0.0,-0.237000003457,-2.60199999809,-129.75,0,0.0,-0.0,-0.0,0.0189108196646,0.0081253265962,0.946105003357,0,0,0,0,1,131072,128,541,62,83,267.444824219,213.0,1450299392.0
1505402119838482894,17060,1505402119838273871,ardrone_base_link,71.0,0,-6,-10,-20,98895,486,0.0,0.0,0.0,-0.238000005484,-2.60299992561,-129.74899292,0,0.0,-0.0,-0.0,0.0188903547823,0.00468064192683,0.948079586029,0,0,0,0,1,131072,128,541,62,83,267.444824219,213.0,1450304640.0
1505402119844197267,17061,1505402119843761203,ardrone_base_link,71.0,0,-6,-10,-20,98902,486,0.0,0.0,0.0,-0.238999992609,-2.60299992561,-129.748001099,0,0.0,-0.0,-0.0,0.0204370710999,0.00456147594377,0.947218775749,0,0,0,0,1,131072,128,541,62,83,267.444824219,213.0,1450310016.0
1505402119847223816,17062,1505402119847007394,ardrone_base_link,71.0,0,-9,-15,-21,98908,486,0.0,0.0,0.0,-0.239999994636,-2.60400009155,-129.748001099,0,0.0,-0.0,-0.0,0.0223679486662,0.00438283476979,0.948309540749,0,0,0,0,1,131072,128,541,62,83,267.444824219,213.0,1450314752.0
1505402119852199040,17063,1505402119852023679,ardrone_base_link,71.0,0,-9,-15,-21,98902,486,0.0,0.0,0.0,-0.241999998689,-2.60500001907,-129.746994019,0,0.0,-0.0,-0.0,0.0259327311069,0.00666800187901,0.947100579739,0,0,0,0,1,131072,128,541,62,83,267.444824219,213.0,1450319616.0
1505402119858625490,17064,1505402119858380644,ardrone_base_link,71.0,0,-15,-11,-21,98898,486,0.0,0.0,0.0,-0.241999998689,-2.60700011253,-129.746994019,0,0.0,-0.0,-0.0,0.0260897744447,0.00616274820641,0.947243154049,0,0,0,0,1,131072,118,541,59,79,267.774353027,224.0,1450324608.0
1505402119862257501,17065,1505402119861890624,ardrone_base_link,71.0,0,-15,-11,-21,98905,486,0.0,0.0,0.0,-0.244000002742,-2.60899996758,-129.746002197,0,0.0,-0.0,-0.0,0.0247680470347,0.00446745939553,0.947613298893,0,0,0,0,1,131072,118,541,59,79,267.774353027,224.0,1450329600.0
1505402119867593959,17066,1505402119867376272,ardrone_base_link,71.0,0,-10,-16,-18,98902,486,0.0,0.0,0.0,-0.244000002742,-2.6099998951,-129.744995117,0,0.0,-0.0,-0.0,0.0205273833126,0.00501043396071,0.948810517788,0,0,0,0,1,131072,118,541,59,79,267.774353027,224.0,1450334848.0
1505402119872720053,17067,1505402119872509164,ardrone_base_link,71.0,0,-10,-16,-18,98902,486,0.0,0.0,0.0,-0.245000004768,-2.6099998951,-129.744003296,0,0.0,-0.0,-0.0,0.0174911208451,0.00547570269555,0.951100587845,0,0,0,0,1,131072,118,541,59,79,267.774353027,224.0,1450339712.0
1505402119880194626,17068,1505402119879731908,ardrone_base_link,71.0,0,-3,-11,-21,98902,486,0.0,0.0,0.0,-0.245000004768,-2.6099998951,-129.744003296,0,0.0,-0.0,-0.0,0.0175131857395,0.0113062961027,0.952664554119,0,0,0,0,1,131072,118,541,59,79,267.774353027,224.0,1450344832.0
1505402119882057785,17069,1505402119881857758,ardrone_base_link,71.0,0,-3,-11,-21,98902,486,0.0,0.0,0.0,-0.245000004768,-2.6099998951,-129.742996216,0,0.0,-0.0,-0.0,0.0179559364915,0.0123316450045,0.952450215816,0,0,0,0,1,131072,118,541,59,79,267.774353027,224.0,1450349696.0
1505402119887737293,17070,1505402119887386518,ardrone_base_link,71.0,0,-5,-15,-23,98902,486,0.0,0.0,0.0,-0.244000002742,-2.6099998951,-129.742996216,0,0.0,-0.0,-0.0,0.0201240591705,0.0137381386012,0.949658215046,0,0,0,0,1,131072,112,541,62,83,267.64630127,213.0,1450355200.0
1505402119892611218,17071,1505402119892449659,ardrone_base_link,71.0,0,-5,-15,-23,98902,486,0.0,0.0,0.0,-0.244000002742,-2.61100006104,-129.742996216,0,0.0,-0.0,-0.0,0.019117699936,0.0119177773595,0.947195291519,0,0,0,0,1,131072,112,541,62,83,267.64630127,213.0,1450360192.0
1505402119897241236,17072,1505402119897088122,ardrone_base_link,71.0,0,-7,-21,-17,98905,486,0.0,0.0,0.0,-0.244000002742,-2.61100006104,-129.742004395,0,0.0,-0.0,-0.0,0.0191263686866,0.0104122254997,0.945512712002,0,0,0,0,1,131072,112,541,62,83,267.64630127,213.0,1450364928.0
1505402119905950451,17073,1505402119905745139,ardrone_base_link,71.0,0,-7,-21,-17,98902,486,0.0,0.0,0.0,-0.244000002742,-2.61199998856,-129.742004395,0,0.0,-0.0,-0.0,0.0184343345463,0.0114802792668,0.946699678898,0,0,0,0,1,131072,112,541,62,83,267.64630127,213.0,1450369920.0
1505402119910806331,17074,1505402119910579200,ardrone_base_link,71.0,0,-7,-13,-21,98892,486,0.0,0.0,0.0,-0.245000004768,-2.61199998856,-129.740997314,0,0.0,-0.0,-0.0,0.0186815112829,0.0110669052228,0.947800755501,0,0,0,0,1,131072,112,541,62,83,267.64630127,213.0,1450374912.0
1505402119913350584,17075,1505402119913065512,ardrone_base_link,71.0,0,-7,-13,-21,98895,486,0.0,0.0,0.0,-0.244000002742,-2.61199998856,-129.740005493,0,0.0,-0.0,-0.0,0.0192120503634,0.0123068215325,0.948048353195,0,0,0,0,1,131072,112,541,62,83,267.64630127,213.0,1450380288.0
1505402119918017643,17076,1505402119917563289,ardrone_base_link,71.0,0,-7,-19,-17,98905,486,0.0,0.0,0.0,-0.244000002742,-2.61199998856,-129.740005493,0,0.0,-0.0,-0.0,0.0190146379173,0.0117198526859,0.949357926846,0,0,0,0,1,131072,112,541,62,83,267.64630127,213.0,1450385024.0
1505402119926102211,17077,1505402119925890015,ardrone_base_link,71.0,0,-7,-19,-17,98902,486,0.0,0.0,0.0,-0.244000002742,-2.61199998856,-129.738998413,0,0.0,-0.0,-0.0,0.0191224236041,0.0114254141226,0.948702156544,0,0,0,0,1,131072,103,541,62,83,267.312011719,213.0,1450390016.0
1505402119927542829,17078,1505402119927383961,ardrone_base_link,71.0,0,-7,-13,-15,98895,486,0.0,0.0,0.0,-0.244000002742,-2.61199998856,-129.738006592,0,0.0,-0.0,-0.0,0.0189115796238,0.0117381606251,0.95076662302,0,0,0,0,1,131072,103,541,62,83,267.312011719,213.0,1450395136.0
1505402119932369549,17079,1505402119932213906,ardrone_base_link,71.0,0,-7,-13,-15,98895,486,0.0,0.0,0.0,-0.244000002742,-2.61199998856,-129.738006592,0,0.0,-0.0,-0.0,0.0189175009727,0.0114235943183,0.949012696743,0,0,0,0,1,131072,103,541,62,83,267.312011719,213.0,1450400000.0
1505402119937988370,17080,1505402119937747250,ardrone_base_link,71.0,0,-10,-12,-18,98902,486,0.0,0.0,0.0,-0.244000002742,-2.61199998856,-129.738006592,0,0.0,-0.0,-0.0,0.0190782751888,0.0118092624471,0.948080062866,0,0,0,0,1,131072,103,541,62,83,267.312011719,213.0,1450405248.0
1505402119943022875,17081,1505402119942769833,ardrone_base_link,71.0,0,-10,-12,-18,98905,486,0.0,0.0,0.0,-0.244000002742,-2.61199998856,-129.738006592,0,0.0,-0.0,-0.0,0.0190017279238,0.0116181392223,0.946901381016,0,0,0,0,1,131072,103,541,62,83,267.312011719,213.0,1450410368.0
1505402119947585634,17082,1505402119947364635,ardrone_base_link,71.0,0,-5,-15,-17,98905,486,0.0,0.0,0.0,-0.244000002742,-2.61199998856,-129.736999512,0,0.0,-0.0,-0.0,0.0190640464425,0.0114992298186,0.945960938931,0,0,0,0,1,131072,103,541,62,83,267.312011719,213.0,1450414976.0
1505402119952542473,17083,1505402119952343280,ardrone_base_link,71.0,0,-5,-15,-17,98898,486,0.0,0.0,0.0,-0.244000002742,-2.61199998856,-129.735992432,0,0.0,-0.0,-0.0,0.0189887862653,0.0116390381008,0.948020994663,0,0,0,0,1,131072,96,541,62,83,268.040679932,213.0,1450420096.0
1505402119957542107,17084,1505402119957359989,ardrone_base_link,71.0,0,-8,-16,-18,98895,486,0.0,0.0,0.0,-0.244000002742,-2.61299991608,-129.73500061,0,0.0,-0.0,-0.0,0.0189618915319,0.0115016596392,0.947157204151,0,0,0,0,1,131072,96,541,62,83,268.040679932,213.0,1450425088.0
1505402119965267434,17085,1505402119964916904,ardrone_base_link,71.0,0,-8,-16,-18,98895,486,0.0,0.0,0.0,-0.243000000715,-2.61299991608,-129.73500061,0,0.0,-0.0,-0.0,0.018989989534,0.0116832954809,0.948248028755,0,0,0,0,1,131072,96,541,62,83,268.040679932,213.0,1450430080.0
1505402119967843956,17086,1505402119967554309,ardrone_base_link,71.0,0,-12,-10,-20,98892,486,0.0,0.0,0.0,-0.243000000715,-2.61299991608,-129.73500061,0,0.0,-0.0,-0.0,0.0189343094826,0.0116628380492,0.948621571064,0,0,0,0,1,131072,96,541,62,83,268.040679932,213.0,1450435328.0
1505402119973038538,17087,1505402119972784530,ardrone_base_link,71.0,0,-12,-10,-20,98898,486,0.0,0.0,0.0,-0.243000000715,-2.61299991608,-129.73500061,0,0.0,-0.0,-0.0,0.018940070644,0.0116651849821,0.950536131859,0,0,0,0,1,131072,96,541,62,83,268.040679932,213.0,1450440448.0
1505402119977710814,17088,1505402119977528782,ardrone_base_link,71.0,0,-8,-12,-20,98898,486,0.0,0.0,0.0,-0.243000000715,-2.61299991608,-129.73500061,0,0.0,-0.0,-0.0,0.0189046189189,0.0117568876594,0.954417467117,0,0,0,0,1,131072,96,541,62,83,268.040679932,213.0,1450445312.0
1505402119983527288,17089,1505402119983150724,ardrone_base_link,71.0,0,-8,-12,-20,98898,486,0.0,0.0,0.0,-0.243000000715,-2.61299991608,-129.73399353,0,0.0,-0.0,-0.0,0.0188946891576,0.011674022302,0.954225122929,0,0,0,0,1,131072,96,541,62,83,268.040679932,213.0,1450450176.0
1505402119987743420,17090,1505402119987522965,ardrone_base_link,71.0,0,-8,-14,-20,98898,486,0.0,0.0,0.0,-0.243000000715,-2.61299991608,-129.73399353,0,0.0,-0.0,-0.0,0.0189182423055,0.0116937216371,0.953346192837,0,0,0,0,1,131072,87,541,62,83,267.871643066,213.0,1450455296.0
1505402119992890031,17091,1505402119992630142,ardrone_base_link,71.0,0,-8,-14,-20,98898,486,0.0,0.0,0.0,-0.241999998689,-2.61400008202,-129.733001709,0,0.0,-0.0,-0.0,0.0189181063324,0.0116055067629,0.948865711689,0,0,0,0,1,131072,87,541,62,83,267.871643066,213.0,1450460288.0
1505402119997769656,17092,1505402119997585956,ardrone_base_link,71.0,0,-11,-15,-21,98902,486,0.0,0.0,0.0,-0.241999998689,-2.61400008202,-129.733001709,0,0.0,-0.0,-0.0,0.0189378168434,0.0115482108667,0.945895969868,0,0,0,0,1,131072,87,541,62,83,267.871643066,213.0,1450465280.0
1505402120010110183,17093,1505402120009854547,ardrone_base_link,71.0,0,-11,-15,-21,98902,486,0.0,0.0,0.0,-0.241999998689,-2.61500000954,-129.733001709,0,0.0,-0.0,-0.0,0.0189289543778,0.0115647446364,0.946103990078,0,0,0,0,1,131072,87,541,62,83,267.871643066,213.0,1450470400.0
