%time,field.header.seq,field.header.stamp,field.header.frame_id,field.pose.position.x,field.pose.position.y,field.pose.position.z,field.pose.orientation.x,field.pose.orientation.y,field.pose.orientation.z,field.pose.orientation.w
1503329553714918813,0,1503329553714651445,world,-0.186279013753,0.796499729156,1.10377168655,-0.0183898862451,0.0333898477256,0.00972135458142,0.999225854874
1503329553714922199,1,1503329553714687022,world,-0.187420532107,0.795324623585,1.09962368011,-0.0175143983215,0.0329726263881,0.00848854426295,0.999266624451
1503329553734361782,2,1503329553734183210,world,-0.18856780231,0.794057071209,1.09525382519,-0.0154031235725,0.0328369811177,0.00718107260764,0.999316215515
1503329553744667334,3,1503329553744485462,world,-0.189487919211,0.792875826359,1.0910153389,-0.0158847477287,0.0328123755753,0.00794514548033,0.99930369854
1503329553753962042,4,1503329553753761685,world,-0.190529152751,0.791768491268,1.08697164059,-0.0154186850414,0.0326767154038,0.00769155845046,0.999317407608
1503329553764226470,5,1503329553764064103,world,-0.191554844379,0.790510654449,1.08239817619,-0.013936557807,0.031963262707,0.00695418054238,0.999367713928
1503329553774483325,6,1503329553774317876,world,-0.192575320601,0.789415538311,1.07874298096,-0.0155284358189,0.0317954458296,0.0078382473439,0.999342978001
1503329553784636828,7,1503329553784530977,world,-0.19367057085,0.788133144379,1.0740571022,-0.0139040797949,0.0313366316259,0.00673872372136,0.999389410019
1503329553784642100,8,1503329553784571279,world,-0.194759324193,0.786976635456,1.07002079487,-0.0153471371159,0.0313940122724,0.00747169647366,0.999361336231
1503329553804570005,9,1503329553804314826,world,-0.195833712816,0.785842657089,1.06605899334,-0.0157321877778,0.0313826464117,0.00780330691487,0.99935311079
1503329553814656716,10,1503329553814537093,world,-0.196963056922,0.784686923027,1.06155335903,-0.0150226866826,0.0312523506582,0.00767679465935,0.999369084835
1503329553814660747,11,1503329553814572247,world,-0.198125854135,0.783715426922,1.05772054195,-0.01661702618,0.0317014046013,0.00834141392261,0.999324321747
1503329553834232545,12,1503329553834089969,world,-0.199268251657,0.78254789114,1.05345737934,-0.014757655561,0.031385153532,0.0073188780807,0.999371647835
1503329553844537929,13,1503329553844320037,world,-0.200355902314,0.781422078609,1.04941618443,-0.0159646905959,0.0310711171478,0.00817711278796,0.999356210232
1503329553844554054,14,1503329553844367018,world,-0.201545909047,0.780245959759,1.04517257214,-0.0155586116016,0.03067532368,0.0080882832408,0.999375581741
1503329553864056818,15,1503329553863844171,world,-0.202820807695,0.779208481312,1.04133009911,-0.014816259034,0.030460331589,0.00778476148844,0.999395847321
1503329553874315982,16,1503329553874105210,world,-0.20394718647,0.778252661228,1.03716897964,-0.0148234441876,0.0307284742594,0.00788101460785,0.999386847019
1503329553884714614,17,1503329553884377185,world,-0.205235749483,0.777126610279,1.03305518627,-0.0146562075242,0.0306171085685,0.00836429279298,0.999388694763
1503329553894004810,18,1503329553893897746,world,-0.206506714225,0.776109218597,1.0291826725,-0.013624323532,0.0302793737501,0.00806734152138,0.99941599369
1503329553904319726,19,1503329553904182649,world,-0.207590028644,0.775070846081,1.02492320538,-0.0142282973975,0.0299514643848,0.00873881205916,0.99941188097
1503329553914730137,20,1503329553914485887,world,-0.209024176002,0.774034619331,1.02115130424,-0.0135237760842,0.0292752571404,0.00812775548548,0.999446809292
1503329553914734317,21,1503329553914520350,world,-0.210199430585,0.772995948792,1.01681220531,-0.0144346319139,0.0294066872448,0.00873613823205,0.999425113201
1503329553934138609,22,1503329553933986368,world,-0.211448192596,0.772013485432,1.01320421696,-0.0146813960746,0.0297595392913,0.00831654574722,0.999414622784
1503329553994077212,23,1503329553993908467,world,-0.219446212053,0.766107857227,0.989292800426,-0.0146458717063,0.0284592229873,0.00702982814983,0.999462962151
1503329554004414214,24,1503329554004203709,world,-0.220773905516,0.7652105093,0.985423743725,-0.0151069005951,0.0286931898445,0.00697205215693,0.999449729919
1503329554014719065,25,1503329554014523133,world,-0.222199514508,0.764246821404,0.981701791286,-0.0153257977217,0.028459072113,0.00662872754037,0.99945551157
1503329554074263079,26,1503329554074047935,world,-0.230944648385,0.758836746216,0.958749055862,-0.0123785668984,0.0273793134838,0.00690350169316,0.999524593353
1503329554084487954,27,1503329554084315204,world,-0.232331097126,0.757951915264,0.954887270927,-0.0116407740861,0.0274142436683,0.00698502315208,0.999531984329
1503329554094721329,28,1503329554094580288,world,-0.233706340194,0.757172048092,0.951310873032,-0.0114202313125,0.0275911558419,0.00608539814129,0.999535560608
1503329554094736352,29,1503329554094653705,world,-0.235244557261,0.756286859512,0.947429776192,-0.0107304565609,0.0269831735641,0.0050580650568,0.99956548214
1503329554114205430,30,1503329554114104372,world,-0.236757099628,0.755399763584,0.943786203861,-0.0121558578685,0.0271001961082,0.00569807225838,0.999542534351
1503329554124522415,31,1503329554124364511,world,-0.238175109029,0.754477322102,0.940184950829,-0.011137583293,0.0267970729619,0.00509897014126,0.999565839767
1503329554133742950,32,1503329554133596383,world,-0.239726990461,0.753672778606,0.936268270016,-0.0117084840313,0.0267844479531,0.00493689719588,0.999560475349
1503329554143999000,33,1503329554143842598,world,-0.241178095341,0.752720952034,0.932840287685,-0.0121002485976,0.026617795229,0.00571889383718,0.999556064606
1503329554154170668,34,1503329554154086760,world,-0.242718070745,0.751928389072,0.929090559483,-0.0102816987783,0.0262188632041,0.00446809781715,0.999593377113
1503329554164476689,35,1503329554164353228,world,-0.244190812111,0.751177728176,0.925453543663,-0.0118554728106,0.0265002008528,0.00531493127346,0.999564290047
1503329554174690609,36,1503329554174575681,world,-0.245718896389,0.750313103199,0.921911537647,-0.0103965587914,0.0263812001795,0.004161009565,0.999589204788
1503329554183999284,37,1503329554183851463,world,-0.247280552983,0.749609589577,0.918318152428,-0.0103831868619,0.0263746436685,0.00397659698501,0.999590277672
1503329554194394645,38,1503329554194245009,world,-0.248768359423,0.748838663101,0.914401710033,-0.00742183858529,0.0274859555066,0.00130209268536,0.999593794346
1503329554204665965,39,1503329554204500504,world,-0.250461041927,0.748073756695,0.910973131657,-0.00758395623416,0.0274303946644,0.00113739736844,0.999594330788
1503329554214084441,40,1503329554213863144,world,-0.251937359571,0.747221291065,0.907330095768,-0.00759116606787,0.0271279681474,0.00155190657824,0.999601900578
1503329554224222223,41,1503329554224091468,world,-0.253384232521,0.746555924416,0.903858959675,-0.00810222513974,0.0272568315268,0.00209786486812,0.999593436718
1503329554234555752,42,1503329554234328559,world,-0.255086034536,0.745799899101,0.900387346745,-0.0078335031867,0.0270098466426,0.00199910020456,0.999602496624
1503329554244786453,43,1503329554244593177,world,-0.25647777319,0.74510037899,0.896631300449,-0.00786732882261,0.0268422048539,0.00217405357398,0.999606370926
1503329554254086370,44,1503329554253881070,world,-0.258079051971,0.744483411312,0.893565714359,-0.00781202269718,0.0270493328571,0.00206650514156,0.999601483345
1503329554264373776,45,1503329554264193478,world,-0.259656786919,0.743729054928,0.889606773853,-0.00795165356249,0.0266680102795,0.00168769713491,0.999611258507
1503329554274641465,46,1503329554274489433,world,-0.261184692383,0.743099272251,0.886510312557,-0.00967447925359,0.0267564449459,0.00178466038778,0.999593555927
1503329554283879403,47,1503329554283731517,world,-0.262743622065,0.742459774017,0.882952213287,-0.00932695157826,0.0265001486987,0.00119619572069,0.999604582787
1503329554294146841,48,1503329554294011175,world,-0.264335244894,0.741947233677,0.879204273224,-0.00986775942147,0.0264947302639,0.000874246296007,0.99959987402
1503329554304397001,49,1503329554304252093,world,-0.265852212906,0.741344749928,0.87636500597,-0.0106751509011,0.0275800302625,0.0015015352983,0.999561488628
1503329554314610126,50,1503329554314472480,world,-0.267442941666,0.740714430809,0.8725913167,-0.00942659843713,0.0275680292398,0.000610378338024,0.999575316906
1503329554323906367,51,1503329554323767567,world,-0.269025981426,0.740290701389,0.869340598583,-0.0098430281505,0.0276293028146,0.000939495686907,0.999569356441
1503329554334144822,52,1503329554334027122,world,-0.27059340477,0.739681243896,0.866056740284,-0.00896658841521,0.0273174177855,0.000399159500375,0.999586582184
1503329554344414526,53,1503329554344314061,world,-0.272117048502,0.739255726337,0.862710177898,-0.00848059821874,0.0272471383214,-2.44093698711e-05,0.999592721462
1503329554353703692,54,1503329554353570601,world,-0.272971123457,0.738504469395,0.86088591814,-0.00601041316986,0.0343624837697,0.00250300229527,0.999388217926
1503329554363996587,55,1503329554363835831,world,-0.274541079998,0.738006293774,0.85762488842,-0.00670256884769,0.0345408506691,0.00239462521859,0.999377906322
1503329554374164050,56,1503329554374056339,world,-0.276061743498,0.737727224827,0.854315400124,-0.00668220082298,0.0347544699907,0.00262182974257,0.999370098114
1503329554384444069,57,1503329554384291852,world,-0.277657717466,0.737347960472,0.850941181183,-0.00680293701589,0.035402033478,0.00262218224816,0.999346554279
1503329554394703498,58,1503329554394517007,world,-0.279207736254,0.737147271633,0.847790300846,-0.00663178088143,0.0350981727242,0.00266995583661,0.999358296394
1503329554403839530,59,1503329554403738431,world,-0.280765324831,0.737020850182,0.844535887241,-0.00660055270419,0.0348542779684,0.0025876450818,0.999367237091
1503329554414075759,60,1503329554413937975,world,-0.282324910164,0.736808478832,0.841379582882,-0.0069011664018,0.0349747724831,0.00253168097697,0.999361157417
1503329554424329032,61,1503329554424194380,world,-0.283883810043,0.736747324467,0.838148713112,-0.00710826087743,0.0351344197989,0.00245853839442,0.999354302883
1503329554434642548,62,1503329554434453127,world,-0.285443067551,0.736623883247,0.834943115711,-0.00713089993224,0.0356486514211,0.00222627003677,0.99933642149
1503329554443910923,63,1503329554443762552,world,-0.286956787109,0.736547231674,0.831880331039,-0.00700342096388,0.0362567789853,0.00152806832921,0.999316811562
1503329554454275170,64,1503329554454085848,world,-0.288480103016,0.73648250103,0.828491330147,-0.00725195556879,0.0366914533079,0.00169605051633,0.999298930168
1503329554464566975,65,1503329554464384541,world,-0.290085166693,0.736551344395,0.825135171413,-0.00748445652425,0.0349472388625,-0.000663765415084,0.999360918999
1503329554473817854,66,1503329554473593836,world,-0.291596323252,0.736706793308,0.821819782257,-0.00701970420778,0.0348182097077,-0.00165365298744,0.999367594719
1503329554484002422,67,1503329554483826793,world,-0.292945921421,0.736621379852,0.819360435009,-0.007072575856,0.0368037968874,0.000688449246809,0.999297201633
1503329554494500205,68,1503329554494302604,world,-0.294535815716,0.736919045448,0.816091954708,-0.00707415118814,0.0352900400758,-0.00324364914559,0.999346792698
1503329554504762403,69,1503329554504574834,world,-0.295938581228,0.737225353718,0.812511920929,-0.00766621157527,0.0359644256532,-0.00400553876534,0.999315619469
1503329554514071385,70,1503329554513841168,world,-0.297358453274,0.737383365631,0.809836566448,-0.00862909853458,0.0364718735218,-0.00443490920588,0.99928766489
1503329554524206893,71,1503329554524079014,world,-0.298687756062,0.739160358906,0.806877672672,-0.00130520341918,0.0364793203771,-0.0162704922259,0.999201059341
1503329554534769555,72,1503329554534582976,world,-0.300107419491,0.739567875862,0.803791582584,-0.00119469256606,0.0366788320243,-0.0171013697982,0.999180018902
1503329554543973222,73,1503329554543798537,world,-0.301466703415,0.739170134068,0.801487326622,-0.00350907607935,0.0376574732363,-0.0133220134303,0.999195754528
1503329554554263979,74,1503329554554082911,world,-0.302977979183,0.740451335907,0.797896504402,-0.000368409790099,0.0373418219388,-0.0181317906827,0.999137997627
1503329554564496641,75,1503329554564338302,world,-0.304203033447,0.741062521935,0.795174717903,0.000119509582873,0.0377005636692,-0.0190386045724,0.999107658863
1503329554574676585,76,1503329554574563613,world,-0.305517405272,0.74087023735,0.792577981949,-0.00266055879183,0.0387869253755,-0.0154802221805,0.999123990536
1503329554583945059,77,1503329554583813424,world,-0.306853353977,0.741543114185,0.789767563343,-0.00297106662765,0.0394842103124,-0.0160146076232,0.999087452888
1503329554594291280,78,1503329554594109426,world,-0.308162599802,0.742168962955,0.78697013855,-0.00349028268829,0.0397251136601,-0.0164077207446,0.999069809914
1503329554604511829,79,1503329554604372080,world,-0.309530377388,0.742907583714,0.783845901489,-0.0040749120526,0.0402112267911,-0.0166242644191,0.999044597149
1503329554613787602,80,1503329554613607270,world,-0.31078016758,0.743684768677,0.781274974346,-0.00430709356442,0.0406509190798,-0.0170497223735,0.999018609524
1503329554624077803,81,1503329554623894283,world,-0.311988979578,0.744354069233,0.778211832047,-0.00480577070266,0.0408745035529,-0.0170555151999,0.999007165432
1503329554634385174,82,1503329554634234656,world,-0.313201546669,0.745189964771,0.775428771973,-0.00532011687756,0.0416100770235,-0.0173021480441,0.998969912529
1503329554644724828,83,1503329554644563030,world,-0.314434468746,0.746112167835,0.772708714008,-0.0055743092671,0.0423628129065,-0.0177863910794,0.998928368092
1503329554654004472,84,1503329554653898204,world,-0.31565991044,0.746935546398,0.769740700722,-0.00660359906033,0.0432510226965,-0.0178894568235,0.998882174492
1503329554664351956,85,1503329554664202053,world,-0.316764116287,0.747939288616,0.767103970051,-0.00755332503468,0.0434565022588,-0.0180481560528,0.998863756657
1503329554674703916,86,1503329554674499004,world,-0.31787443161,0.748825609684,0.764196276665,-0.00838918145746,0.043660223484,-0.0177888590842,0.998852849007
1503329554683931695,87,1503329554683739322,world,-0.319055467844,0.749857962132,0.761330485344,-0.00910611078143,0.0441877134144,-0.0175045002252,0.998828291893
1503329554694136337,88,1503329554694001179,world,-0.32004070282,0.750932574272,0.758698582649,-0.00971415173262,0.0443696416914,-0.0174342188984,0.998815774918
1503329554704350966,89,1503329554704236606,world,-0.321165084839,0.751862227917,0.755865454674,-0.0102698672563,0.0448319911957,-0.0174758955836,0.998788833618
1503329554714586993,90,1503329554714483400,world,-0.322217196226,0.753128528595,0.753048717976,-0.0102689489722,0.04545147717,-0.0181947965175,0.998748064041
1503329554723938873,91,1503329554723791499,world,-0.323152095079,0.754199624062,0.750335276127,-0.0106183271855,0.0460710674524,-0.0177526641637,0.998723983765
1503329554734208495,92,1503329554734075675,world,-0.324187785387,0.755259513855,0.747503638268,-0.0113853029907,0.0464769564569,-0.0171136613935,0.998707890511
1503329554744497069,93,1503329554744352324,world,-0.325099289417,0.756550431252,0.744760155678,-0.0116747841239,0.0466080904007,-0.0176039654762,0.998689889908
1503329554754845533,94,1503329554754626762,world,-0.32611477375,0.757736563683,0.742091596127,-0.0121838143095,0.0473233126104,-0.0177966076881,0.998646736145
1503329554764091354,95,1503329554763914599,world,-0.327032208443,0.758954226971,0.73916554451,-0.013133328408,0.0475362166762,-0.0174088645726,0.998631536961
1503329554774319759,96,1503329554774162304,world,-0.327817201614,0.760216593742,0.736418783665,-0.0133938463405,0.0477239899337,-0.0177365150303,0.998613297939
1503329554784554387,97,1503329554784431271,world,-0.328786432743,0.76140409708,0.7337500453,-0.0138441231102,0.0485242195427,-0.0178625993431,0.998566269875
1503329554793903533,98,1503329554793711222,world,-0.329625815153,0.762727499008,0.730865955353,-0.0141485929489,0.0488143824041,-0.0177984889597,0.998549044132
1503329554804124030,99,1503329554803940461,world,-0.330424964428,0.764081835747,0.728164553642,-0.0141500746831,0.0494953989983,-0.0177120491862,0.998517036438
1503329554814260258,100,1503329554814156129,world,-0.331232517958,0.765361785889,0.725310862064,-0.0145688336343,0.0496616587043,-0.0175730064511,0.998505234718
1503329554824538831,101,1503329554824413118,world,-0.332001388073,0.766676545143,0.722605288029,-0.0148558579385,0.0495376959443,-0.0178875923157,0.99850153923
1503329554833731694,102,1503329554833618538,world,-0.332773715258,0.767980396748,0.719884157181,-0.0150047745556,0.0499135181308,-0.0176056902856,0.99848562479
1503329554844084594,103,1503329554843896416,world,-0.333469092846,0.769426226616,0.716866731644,-0.0153301022947,0.0501519106328,-0.0176038127393,0.998468756676
1503329554854440806,104,1503329554854220663,world,-0.334409087896,0.770507574081,0.714235067368,-0.0158301144838,0.0515302531421,-0.018818449229,0.998368620872
1503329554864727631,105,1503329554864534983,world,-0.335127174854,0.771874010563,0.711359798908,-0.0164134595543,0.0519915223122,-0.0190312247723,0.998331308365
1503329554873910816,106,1503329554873801587,world,-0.335717201233,0.773289203644,0.708432078362,-0.0165584273636,0.0518511794508,-0.0187028329819,0.998342394829
1503329554884260565,107,1503329554884133690,world,-0.336423188448,0.774549365044,0.70567637682,-0.0168432388455,0.0522910133004,-0.0189414415509,0.998310148716
1503329554894672738,108,1503329554894407647,world,-0.336992591619,0.775918185711,0.702664256096,-0.0172245558351,0.0520251765847,-0.0188281964511,0.998319685459
1503329554903663436,109,1503329554903557264,world,-0.337496936321,0.777188301086,0.700168132782,-0.0172702744603,0.0520110689104,-0.0180162955076,0.998334646225
1503329554913973340,110,1503329554913839993,world,-0.338230937719,0.778611421585,0.697072088718,-0.0174970552325,0.0528044290841,-0.0186062455177,0.998278260231
1503329554924290148,111,1503329554924103024,world,-0.338761746883,0.779859960079,0.69414550066,-0.0177405495197,0.0526808537543,-0.0184006411582,0.9982842803
1503329554934588199,112,1503329554934432760,world,-0.339340925217,0.781130552292,0.691377937794,-0.0176675319672,0.0533547848463,-0.0183016005903,0.99825155735
1503329554943766458,113,1503329554943603057,world,-0.339795917273,0.782416880131,0.688225626945,-0.0177820138633,0.05340571329,-0.01792438142,0.998253643513
1503329554954062674,114,1503329554953851031,world,-0.340188384056,0.7835739851,0.685817122459,-0.0182859674096,0.0533969216049,-0.017167057842,0.99825823307
1503329554964357365,115,1503329554964210386,world,-0.340893507004,0.784973204136,0.682504177094,-0.018180411309,0.0537072606385,-0.0181892905384,0.99822551012
1503329554974619370,116,1503329554974494327,world,-0.34137442708,0.786290466785,0.679739892483,-0.0183525402099,0.053871743381,-0.0180469397455,0.998216092587
1503329554983934377,117,1503329554983793092,world,-0.341760933399,0.787358105183,0.676734864712,-0.0184036903083,0.0540912076831,-0.0171450041234,0.998219132423
1503329554994263550,118,1503329554994077219,world,-0.342045962811,0.788585186005,0.673655390739,-0.0186787489802,0.0537392273545,-0.0174475573003,0.998227834702
1503329555004442134,119,1503329555004329709,world,-0.342513442039,0.789674222469,0.671125531197,-0.0182929448783,0.0543780848384,-0.0168901383877,0.998209953308
1503329555014691357,120,1503329555014573026,world,-0.342933297157,0.790835380554,0.667695462704,-0.0183812063187,0.0543047711253,-0.0171622503549,0.998207628727
1503329555023937675,121,1503329555023796842,world,-0.34344920516,0.791950404644,0.66492754221,-0.0180962011218,0.055288054049,-0.0177049580961,0.998149514198
1503329555034239224,122,1503329555034077710,world,-0.34376975894,0.79280769825,0.661909103394,-0.0179760791361,0.0553156770766,-0.0162173379213,0.998175323009
1503329555044523585,123,1503329555044376361,world,-0.344022333622,0.793835222721,0.65870475769,-0.0182398930192,0.0547621101141,-0.016319565475,0.998199403286
1503329555053867059,124,1503329555053592766,world,-0.344419747591,0.79460901022,0.656253695488,-0.0180808566511,0.0553564094007,-0.0154124936089,0.998183965683
1503329555064068484,125,1503329555063891087,world,-0.344733297825,0.795500695705,0.652631402016,-0.0180227626115,0.0554439723492,-0.0151017485186,0.998184978962
1503329555074222558,126,1503329555074112882,world,-0.345075547695,0.796254277229,0.649966657162,-0.0183631945401,0.0559220761061,-0.0144951408729,0.99816095829
1503329555084525183,127,1503329555084376643,world,-0.345472365618,0.7971316576,0.646857738495,-0.0182773955166,0.0562200322747,-0.0145610459149,0.998144805431
1503329555093795847,128,1503329555093631438,world,-0.345875263214,0.797939300537,0.643885791302,-0.0188431236893,0.0560808032751,-0.0148101272061,0.998138606548
1503329555104124208,129,1503329555103930887,world,-0.346124440432,0.798307478428,0.641117095947,-0.0193751659244,0.0558597035706,-0.0131730372086,0.998163700104
1503329555114328496,130,1503329555114207220,world,-0.346431881189,0.799049496651,0.637668907642,-0.0194083750248,0.0554368793964,-0.0132254520431,0.998185873032
1503329555124723658,131,1503329555124544622,world,-0.346653670073,0.799641788006,0.634665548801,-0.0195569042116,0.0560089685023,-0.0129749989137,0.998154342175
1503329555134032169,132,1503329555133849924,world,-0.347005039454,0.800139009953,0.631633520126,-0.0198558680713,0.0560822039843,-0.0128550184891,0.998145878315
1503329555144436141,133,1503329555144269255,world,-0.347263455391,0.800691068172,0.628517627716,-0.0200709663332,0.0562048368156,-0.012760267593,0.998135924339
1503329555154667692,134,1503329555154536463,world,-0.347604542971,0.801183283329,0.625523805618,-0.020199265331,0.05649375543,-0.0123025802895,0.998122751713
1503329555163916349,135,1503329555163776907,world,-0.347711294889,0.801733672619,0.621998846531,-0.0201721899211,0.056158605963,-0.0126382689923,0.998138070107
1503329555174230151,136,1503329555174065153,world,-0.347963899374,0.801901876926,0.619002521038,-0.0201984252781,0.0562122166157,-0.0114093841985,0.99814927578
1503329555184538032,137,1503329555184371082,world,-0.348332971334,0.802319765091,0.61593490839,-0.0201668143272,0.0563608780503,-0.0120205245912,0.998134434223
1503329555193825574,138,1503329555193583744,world,-0.348508089781,0.80258333683,0.612976193428,-0.0198648590595,0.0562342889607,-0.0115403262898,0.998153209686
1503329555203911479,139,1503329555203809226,world,-0.348837614059,0.802813529968,0.609642624855,-0.0199217945337,0.0562935993075,-0.0113435853273,0.99815094471
1503329555214270111,140,1503329555214120058,world,-0.349058479071,0.803145349026,0.606597006321,-0.0195605847985,0.0564533211291,-0.0114265019074,0.998148143291
1503329555224656823,141,1503329555224421950,world,-0.349364936352,0.803165733814,0.603448092937,-0.0199521556497,0.0569167509675,-0.0104464581236,0.99812489748
1503329555233972646,142,1503329555233776288,world,-0.34954354167,0.803417623043,0.59990054369,-0.0195549950004,0.0566335655749,-0.0109076555818,0.998143970966
1503329555244224226,143,1503329555244036561,world,-0.349795907736,0.803496897221,0.597156643867,-0.019644331187,0.0568984560668,-0.0106741534546,0.998129606247
1503329555254396841,144,1503329555254267341,world,-0.350010871887,0.803567707539,0.593468785286,-0.0194149762392,0.0569557845592,-0.0103984493762,0.998133718967
1503329555264699914,145,1503329555264523841,world,-0.350158363581,0.803577840328,0.590521514416,-0.0195241887122,0.0569310225546,-0.0105922883376,0.998130977154
1503329555273948250,146,1503329555273803823,world,-0.35054692626,0.80342912674,0.587192893028,-0.019098687917,0.0568194314837,-0.0103561170399,0.998148024082
1503329555284276055,147,1503329555284023495,world,-0.350754708052,0.803546190262,0.583803415298,-0.0189966894686,0.0568036809564,-0.0107171833515,0.998147010803
1503329555294423381,148,1503329555294276090,world,-0.350965321064,0.803326904774,0.580873906612,-0.0193449854851,0.0572560727596,-0.0101537471637,0.998120427132
1503329555304771421,149,1503329555304539416,world,-0.351180970669,0.803223311901,0.5771946311,-0.0190872158855,0.0571731962264,-0.0105367004871,0.998126208782
1503329555313958468,150,1503329555313813328,world,-0.351381242275,0.803090751171,0.574163079262,-0.0189585536718,0.0571311600506,-0.0107940351591,0.99812823534
1503329555324221525,151,1503329555324074421,world,-0.351675510406,0.802834689617,0.570743083954,-0.0192256569862,0.0573038049042,-0.0101534398273,0.998120009899
1503329555334554093,152,1503329555334375053,world,-0.351842403412,0.80274116993,0.567410945892,-0.0190231502056,0.0571134611964,-0.0106368781999,0.998129725456
1503329555343748855,153,1503329555343562208,world,-0.352184087038,0.802406191826,0.564199864864,-0.0191748384386,0.0579644814134,-0.0103113371879,0.99808126688
1503329555354048571,154,1503329555353840010,world,-0.352384656668,0.802268147469,0.560655713081,-0.019025342539,0.0580086074769,-0.0108151910827,0.998076140881
1503329555364265607,155,1503329555364114215,world,-0.352550148964,0.801976978779,0.557580173016,-0.0194299090654,0.0577999018133,-0.0108236102387,0.998080313206
1503329555374596212,156,1503329555374387002,world,-0.352845102549,0.801673769951,0.553815305233,-0.0192750953138,0.0579030811787,-0.0104404613376,0.998081505299
1503329555383683008,157,1503329555383559605,world,-0.353078216314,0.801613092422,0.550813317299,-0.0196596942842,0.0579075142741,-0.0110681429505,0.998066961765
1503329555393998834,158,1503329555393832363,world,-0.35339397192,0.80108076334,0.547244906425,-0.0200123488903,0.0580523870885,-0.0103679327294,0.998059093952
1503329555404196321,159,1503329555404059841,world,-0.353512018919,0.800960838795,0.543803751469,-0.0201220288873,0.0580959171057,-0.0107956109568,0.998049795628
1503329555414551725,160,1503329555414359687,world,-0.353795230389,0.800720751286,0.540672063828,-0.0201085228473,0.0583055689931,-0.0108104813844,0.998037695885
1503329555423762651,161,1503329555423578814,world,-0.354073524475,0.800310194492,0.536814153194,-0.0204264037311,0.0581583641469,-0.0104509787634,0.998043656349
1503329555434052719,162,1503329555433896918,world,-0.354173392057,0.800166428089,0.533874928951,-0.0201881937683,0.0580435395241,-0.011345163919,0.998045384884
1503329555444334103,163,1503329555444172321,world,-0.354531645775,0.79965788126,0.530123591423,-0.0200355742127,0.0582965053618,-0.0106864385307,0.99804097414
1503329555454644533,164,1503329555454456644,world,-0.354633927345,0.799511373043,0.526819884777,-0.020182268694,0.0581398457289,-0.0109017621726,0.998044848442
1503329555463808276,165,1503329555463702254,world,-0.354913204908,0.799267411232,0.523527503014,-0.0199507474899,0.0585015453398,-0.0116364015266,0.998020112514
1503329555474243826,166,1503329555474093425,world,-0.355174928904,0.798840820789,0.519700109959,-0.0198897086084,0.0585682466626,-0.0119748776779,0.99801337719
1503329555484726678,167,1503329555484403670,world,-0.355273723602,0.798692286015,0.516623020172,-0.0197389945388,0.0584435462952,-0.0119734993204,0.998023748398
1503329555493677354,168,1503329555493568295,world,-0.35564532876,0.798274457455,0.512790441513,-0.0200706273317,0.058979190886,-0.0117019629106,0.997988879681
1503329555503952702,169,1503329555503794730,world,-0.355698317289,0.798113167286,0.509508013725,-0.0205789599568,0.0589030832052,-0.0122430631891,0.997976481915
1503329555514276045,170,1503329555514081547,world,-0.355915993452,0.79781717062,0.505802810192,-0.0199683979154,0.0591277107596,-0.0122144063935,0.997975945473
1503329555524586193,171,1503329555524399030,world,-0.356135547161,0.797519505024,0.502045631409,-0.0197873525321,0.059041492641,-0.0128478175029,0.997976720333
1503329555534114676,172,1503329555533938533,world,-0.356289923191,0.797430157661,0.498898804188,-0.0199959613383,0.0594673976302,-0.0129389408976,0.997946023941
1503329555544458094,173,1503329555544272935,world,-0.356585860252,0.797148108482,0.494898468256,-0.0197638180107,0.0596809089184,-0.0125704696402,0.997942686081
1503329555554667544,174,1503329555554526789,world,-0.35664281249,0.796951889992,0.491792351007,-0.0200079791248,0.0597595386207,-0.0127488886937,0.997930824757
1503329555563921994,175,1503329555563773602,world,-0.356957256794,0.796748876572,0.487908393145,-0.0205614678562,0.0603158958256,-0.0128514626995,0.997884750366
1503329555574338116,176,1503329555574093247,world,-0.357124745846,0.796603739262,0.4842248559,-0.0208076070994,0.0604795105755,-0.0131744882092,0.997865557671
1503329555584444907,177,1503329555584321554,world,-0.357173025608,0.796588122845,0.481046527624,-0.021204335615,0.0605193115771,-0.0138595802709,0.99784553051
1503329555594763770,178,1503329555594603718,world,-0.357481509447,0.796334147453,0.476827085018,-0.0219533424824,0.060732588172,-0.0133065320551,0.997823894024
1503329555604048282,179,1503329555603847357,world,-0.357529044151,0.796252071857,0.473701149225,-0.0217849314213,0.0606975145638,-0.0136904073879,0.99782449007
1503329555614400224,180,1503329555614180877,world,-0.35769739747,0.796181797981,0.469808459282,-0.0220400243998,0.0612940788269,-0.0143814878538,0.997772753239
1503329555624661783,181,1503329555624466972,world,-0.357800960541,0.796068549156,0.466081231833,-0.0225557498634,0.0612539276481,-0.0142814768478,0.997765123844
1503329555633981665,182,1503329555633759243,world,-0.357882976532,0.796104550362,0.46277743578,-0.0224767271429,0.0614150427282,-0.0143026178703,0.997756719589
1503329555644180654,183,1503329555643985533,world,-0.358118504286,0.79606038332,0.458585053682,-0.0224327631295,0.061652328819,-0.0145345116034,0.997739732265
1503329555654416077,184,1503329555654246053,world,-0.358067452908,0.796077251434,0.455367922783,-0.0228035394102,0.062156971544,-0.0147794894874,0.997696459293
1503329555664722319,185,1503329555664570343,world,-0.35824906826,0.796028494835,0.451379984617,-0.0233243890107,0.0626158416271,-0.0148210050538,0.997655034065
1503329555674024852,186,1503329555673808992,world,-0.358352065086,0.79622733593,0.447428166866,-0.0234045535326,0.0625835284591,-0.0153856119141,0.997646570206
1503329555684265311,187,1503329555684145824,world,-0.358320295811,0.796283423901,0.444133102894,-0.0242154281586,0.0625830814242,-0.0153459385037,0.997627854347
1503329555694628937,188,1503329555694426775,world,-0.35856205225,0.796438097954,0.439834237099,-0.0245872884989,0.0628728941083,-0.0156094562262,0.997596502304
1503329555703891168,189,1503329555703732595,world,-0.358512014151,0.796479403973,0.436283499002,-0.0246647521853,0.0628745555878,-0.016271494329,0.997583866119
1503329555714233874,190,1503329555714034309,world,-0.358605891466,0.796619355679,0.432486146688,-0.0238692518324,0.0630512759089,-0.0164103060961,0.997589945793
1503329555724534396,191,1503329555724340108,world,-0.358612626791,0.796837925911,0.42838087678,-0.0233050473034,0.0631342381239,-0.0173022374511,0.99758285284
1503329555734862588,192,1503329555734623761,world,-0.358584433794,0.797058165073,0.42494276166,-0.022853018716,0.063441477716,-0.0175005123019,0.99757039547
1503329555744112890,193,1503329555743959470,world,-0.358732938766,0.797234117985,0.420621484518,-0.0221969000995,0.0638360381126,-0.0173642914742,0.997562348843
1503329555754288308,194,1503329555754178365,world,-0.358596235514,0.797483980656,0.416974365711,-0.0219696164131,0.0633415356278,-0.0177246909589,0.997592628002
1503329555764623367,195,1503329555764455265,world,-0.358568191528,0.797757744789,0.413265675306,-0.0212157443166,0.0639105588198,-0.0178610924631,0.997570216656
1503329555773969883,196,1503329555773768668,world,-0.358534455299,0.798027932644,0.408959954977,-0.0204844158143,0.0638236328959,-0.018821079284,0.997573316097
1503329555784181741,197,1503329555784005988,world,-0.358437925577,0.798307716846,0.405455052853,-0.0189183857292,0.0640631765127,-0.0188168827444,0.997588992119
1503329555794357836,198,1503329555794262862,world,-0.358458638191,0.798491597176,0.401353985071,-0.0176088772714,0.0641983672976,-0.0182859487832,0.997614204884
1503329555804808858,199,1503329555804627176,world,-0.358233809471,0.798900961876,0.397543281317,-0.0158446300775,0.0642440244555,-0.0189039334655,0.997629404068
1503329555814106059,200,1503329555813933336,world,-0.358147382736,0.799207270145,0.393797248602,-0.0144974309951,0.0646005868912,-0.0188868287951,0.997627079487
1503329555824397084,201,1503329555824236762,world,-0.358086556196,0.799617171288,0.38959479332,-0.0123435147107,0.0645629838109,-0.0194883514196,0.997646927834
1503329555834657216,202,1503329555834537098,world,-0.357924878597,0.799935936928,0.386162638664,-0.0111274113879,0.065040640533,-0.0199281964451,0.99762159586
1503329555843909102,203,1503329555843755981,world,-0.357782304287,0.800130486488,0.381912320852,-0.00951442215592,0.0655869692564,-0.0192503146827,0.997615754604
1503329555854264932,204,1503329555854076825,world,-0.3574629426,0.800580978394,0.378137886524,-0.00837012473494,0.0653096437454,-0.0190238598734,0.997648596764
1503329555864495166,205,1503329555864326467,world,-0.357368409634,0.800810217857,0.37429189682,-0.006873160135,0.0654898285866,-0.0193014033139,0.997642874718
1503329555874752460,206,1503329555874563881,world,-0.357173025608,0.801239073277,0.370292514563,-0.00490094674751,0.0654101371765,-0.0198193658143,0.997649610043
1503329555883999108,207,1503329555883848515,world,-0.356851100922,0.801461935043,0.366702854633,-0.00388593715616,0.0656431317329,-0.0191509854048,0.997651815414
1503329555894331151,208,1503329555894153631,world,-0.356679141521,0.801897227764,0.362599730492,-0.0024570855312,0.0661636665463,-0.0189582016319,0.997625648975
1503329555904538611,209,1503329555904412254,world,-0.356273472309,0.802214980125,0.358984738588,-0.00115398748312,0.0658468306065,-0.0188300795853,0.997651398182
1503329555913817919,210,1503329555913638562,world,-0.356065928936,0.802476584911,0.355248838663,0.000805694784503,0.0664583221078,-0.0189903061837,0.997608184814
1503329555924107808,211,1503329555923939872,world,-0.355698257685,0.802887260914,0.351447314024,0.00210500787944,0.0664815232158,-0.0192017238587,0.997600615025
1503329555934449412,212,1503329555934250666,world,-0.355376452208,0.803216695786,0.34775686264,0.0037867820356,0.066516071558,-0.0187203306705,0.997602522373
1503329555944648484,213,1503329555944508298,world,-0.355064719915,0.803550302982,0.343838423491,0.00509424740449,0.0665618777275,-0.0183134973049,0.997601211071
1503329555953984487,214,1503329555953821585,world,-0.354644477367,0.804027080536,0.340497732162,0.00640295213088,0.0666438117623,-0.0187719706446,0.997579693794
1503329555964264149,215,1503329555964060380,world,-0.354278415442,0.804226458073,0.336591660976,0.00719016697258,0.0666419193149,-0.0176441501826,0.997595012188
1503329555974565039,216,1503329555974376190,world,-0.353887230158,0.804772377014,0.33302667737,0.00802829209715,0.067207545042,-0.0179717354476,0.997544765472
1503329555983780780,217,1503329555983579587,world,-0.353507310152,0.805184483528,0.329675346613,0.00882504880428,0.0672263950109,-0.0174102392048,0.997546851635
1503329555993996294,218,1503329555993825231,world,-0.353089660406,0.805526733398,0.325852811337,0.00992652773857,0.067341580987,-0.0170680396259,0.997534573078
1503329556004212281,219,1503329556004092896,world,-0.352504014969,0.806180417538,0.322577238083,0.0112326424569,0.0670615136623,-0.0176427401602,0.997529506683
1503329556014617835,220,1503329556014398266,world,-0.352129399776,0.80661457777,0.319019556046,0.0117432838306,0.0670688375831,-0.0165973585099,0.997541248798
1503329556023709999,221,1503329556023550956,world,-0.3516074121,0.807275295258,0.315752923489,0.0125437900424,0.0671235024929,-0.0171104073524,0.997519075871
1503329556033987290,222,1503329556033792692,world,-0.351076513529,0.807839691639,0.312483847141,0.0135425049812,0.0675647631288,-0.0170775428414,0.997476756573
1503329556044181061,223,1503329556044032574,world,-0.350608825684,0.808327138424,0.308843851089,0.0145472222939,0.0676380470395,-0.0163919981569,0.997469186783
1503329556054530897,224,1503329556054323959,world,-0.35004517436,0.809182405472,0.305824965239,0.0153447827324,0.0677151381969,-0.0172505434602,0.997437536716
1503329556064719921,225,1503329556064573384,world,-0.34955227375,0.809820055962,0.302587240934,0.0158948879689,0.0680959820747,-0.0168179944158,0.997410297394
1503329556073984204,226,1503329556073855069,world,-0.34886187315,0.810558259487,0.299450814724,0.0169630460441,0.0679208338261,-0.0170796830207,0.997400224209
1503329556084286588,227,1503329556084104711,world,-0.348258733749,0.811344504356,0.296461641788,0.0181090943515,0.0678094998002,-0.0169835258275,0.997389316559
1503329556094558400,228,1503329556094376846,world,-0.347837895155,0.812235593796,0.293222099543,0.0189642123878,0.0682110786438,-0.0168555695564,0.997348189354
1503329556103791534,229,1503329556103603755,world,-0.347032934427,0.813191413879,0.290444642305,0.0195836313069,0.0682014673948,-0.0166336037219,0.997340679169
1503329556114102159,230,1503329556113898172,world,-0.346489727497,0.814066827297,0.287370532751,0.0201033838093,0.0683935731649,-0.0159656237811,0.997328102589
1503329556124376169,231,1503329556124211128,world,-0.345761239529,0.815002739429,0.284507244825,0.0205155070871,0.0683410465717,-0.0160430092365,0.99732208252
1503329556134610250,232,1503329556134443402,world,-0.345087260008,0.816104888916,0.281909674406,0.0212781243026,0.068795107305,-0.0166811738163,0.997264325619
1503329556143832538,233,1503329556143689755,world,-0.344400316477,0.817052841187,0.278627306223,0.0217434354126,0.068590991199,-0.0162650067359,0.997275233269
1503329556154136270,234,1503329556153974566,world,-0.343697994947,0.818189561367,0.27661755681,0.0223309285939,0.068967372179,-0.0163733232766,0.997234523296
1503329556164352367,235,1503329556164230091,world,-0.342909783125,0.819464564323,0.273424804211,0.0226280800998,0.0692017823458,-0.0152889769524,0.997228860855
1503329556174711313,236,1503329556174545144,world,-0.342125117779,0.820637643337,0.270822495222,0.0227632131428,0.0694102197886,-0.015173853375,0.99721300602
1503329556183926061,237,1503329556183765518,world,-0.341420352459,0.821836292744,0.268791288137,0.0229872018099,0.0693042874336,-0.0152932964265,0.997213423252
1503329556194177739,238,1503329556194044433,world,-0.340669929981,0.822960138321,0.265694648027,0.0231300164014,0.0691642314196,-0.0150999091566,0.997222840786
1503329556204446467,239,1503329556204316399,world,-0.339819401503,0.824347376823,0.263979762793,0.0235641151667,0.0693992972374,-0.0155289778486,0.997189760208
1503329556214840276,240,1503329556214630044,world,-0.339155495167,0.8256098032,0.2614762187,0.0238324217498,0.0698368996382,-0.0148756802082,0.997162818909
1503329556224083871,241,1503329556223897133,world,-0.338358193636,0.826872467995,0.258992552757,0.0240502357483,0.070338010788,-0.0146016553044,0.997126340866
1503329556234522351,242,1503329556234128531,world,-0.337431311607,0.828294873238,0.25727173686,0.0243639927357,0.0707656890154,-0.0147221768275,0.997086703777
1503329556244604072,243,1503329556244422268,world,-0.336691200733,0.829590320587,0.254680424929,0.0242310985923,0.0713566094637,-0.0146511318162,0.997048854828
1503329556253885969,244,1503329556253688170,world,-0.335711658001,0.83101016283,0.25291004777,0.0240669548512,0.0712937414646,-0.0148028498515,0.997055113316
1503329556264132733,245,1503329556263985561,world,-0.334939092398,0.832362890244,0.250941216946,0.0240730363876,0.0716629400849,-0.0150389717892,0.997024953365
1503329556274482028,246,1503329556274281564,world,-0.334030389786,0.83374106884,0.248492613435,0.0239139944315,0.0718679055572,-0.0149619989097,0.997015178204
1503329556284683674,247,1503329556284542379,world,-0.332968682051,0.835035145283,0.247102111578,0.0241172537208,0.072047367692,-0.0145422564819,0.997003555298
1503329556293962633,248,1503329556293784887,world,-0.332275241613,0.836369216442,0.245101049542,0.0247368533164,0.0727550759912,-0.0145009364933,0.996937513351
1503329556304116398,249,1503329556304019058,world,-0.331296414137,0.83783864975,0.243551835418,0.0250889081508,0.072683006525,-0.0150972045958,0.99692517519
1503329556314571806,250,1503329556314367965,world,-0.330385386944,0.83908611536,0.241896033287,0.0255990196019,0.073075056076,-0.014659342356,0.996890127659
1503329556323661096,251,1503329556323518172,world,-0.329439014196,0.84129357338,0.240291535854,0.0277472306043,0.0734259337187,-0.0179589856416,0.996752798557
1503329556333952534,252,1503329556333752516,world,-0.328309684992,0.842654585838,0.239025235176,0.0281700566411,0.0739651247859,-0.01824657619,0.996695876122
1503329556344209676,253,1503329556344020224,world,-0.327544748783,0.843846440315,0.237251967192,0.0281936731189,0.0743116438389,-0.0177736375481,0.996677935123
1503329556354501278,254,1503329556354292451,world,-0.326463162899,0.845250964165,0.236135289073,0.0286026354879,0.074158705771,-0.018318830058,0.996667802334
1503329556364635704,255,1503329556364551486,world,-0.32554847002,0.846255004406,0.234789326787,0.0289673637599,0.0749848857522,-0.0176134128124,0.996608197689
1503329556374001068,256,1503329556373811481,world,-0.32447424531,0.847616016865,0.233222991228,0.029446894303,0.0746896415949,-0.0179891940206,0.996609628201
1503329556384187029,257,1503329556384051893,world,-0.323455423117,0.848887503147,0.232418254018,0.0301415417343,0.0749628320336,-0.0180338025093,0.996567606926
1503329556394557697,258,1503329556394425013,world,-0.322380900383,0.849938035011,0.230668380857,0.0301652457565,0.0750755816698,-0.0178097561002,0.996562302113
1503329556403888013,259,1503329556403703113,world,-0.321362197399,0.851085722446,0.229920834303,0.0304403267801,0.0752233713865,-0.0182673875242,0.996534526348
1503329556414230237,260,1503329556414055089,world,-0.320407241583,0.851979672909,0.228784441948,0.0307949427515,0.0757188051939,-0.0175352077931,0.996499240398
1503329556424479225,261,1503329556424322646,world,-0.3190292418,0.853208005428,0.227485999465,0.0313574001193,0.0753350034356,-0.0180495120585,0.996501684189
1503329556434798192,262,1503329556434611663,world,-0.31806075573,0.854055166245,0.226860836148,0.0316096358001,0.0758920907974,-0.0175330750644,0.996460556984
1503329556443993962,263,1503329556443856871,world,-0.317001521587,0.854983448982,0.225765451789,0.0321647822857,0.0755466222763,-0.0177031587809,0.996466159821
1503329556454332262,264,1503329556454153283,world,-0.315743118525,0.855819225311,0.224971041083,0.0327883474529,0.0755661576986,-0.0171813759953,0.996453404427
1503329556464680509,265,1503329556464457088,world,-0.314781397581,0.856703937054,0.224191516638,0.0329802036285,0.0766613483429,-0.0173117797822,0.996361196041
1503329556473861164,266,1503329556473735624,world,-0.31345012784,0.856712818146,0.223024323583,0.0317246839404,0.0756775513291,-0.0144407628104,0.996522963047
1503329556484118977,267,1503329556483974184,world,-0.312326878309,0.858080685139,0.222808480263,0.0337496809661,0.0762572959065,-0.0164684653282,0.996380746365
1503329556494417304,268,1503329556494248437,world,-0.311187028885,0.85890763998,0.22205914557,0.0339936092496,0.0765221789479,-0.0176192373037,0.996332406998
1503329556504744352,269,1503329556504544812,world,-0.31010851264,0.859480500221,0.221877723932,0.0341781936586,0.0770261883736,-0.0173590201885,0.996291875839
1503329556513996515,270,1503329556513803924,world,-0.308830320835,0.860111951828,0.22117780149,0.0346109233797,0.0768242403865,-0.0173370055854,0.996292948723
1503329556524208697,271,1503329556524061497,world,-0.307615309954,0.860639929771,0.220724925399,0.0346756018698,0.0769602507353,-0.0170148797333,0.996285676956
1503329556533637550,272,1503329556533533050,world,-0.306486189365,0.860998570919,0.220479175448,0.0346421785653,0.0772172138095,-0.0166460126638,0.996273219585
1503329556543957130,273,1503329556543822336,world,-0.305232584476,0.861569643021,0.220085993409,0.0350934490561,0.0774569734931,-0.0176446847618,0.996221661568
1503329556554254114,274,1503329556554077779,world,-0.304064542055,0.861858725548,0.219896525145,0.0353230237961,0.0775759667158,-0.016970532015,0.996215999126
1503329556564430982,275,1503329556564301446,world,-0.302813857794,0.862344503403,0.219763100147,0.0355951413512,0.0775602534413,-0.0176563747227,0.996195554733
1503329556574681074,276,1503329556574537860,world,-0.301587581635,0.862592101097,0.219602227211,0.036159157753,0.0777575299144,-0.0172814540565,0.996166467667
1503329556583906761,277,1503329556583775071,world,-0.300063550472,0.861933231354,0.219189852476,0.0343377552927,0.0763723030686,-0.0133933750913,0.996397912502
1503329556594170479,278,1503329556594020844,world,-0.298822999001,0.862249851227,0.219159454107,0.0342887043953,0.0767810493708,-0.0139358723536,0.996360778809
1503329556604355654,279,1503329556604240607,world,-0.297687083483,0.863280892372,0.219600617886,0.036192163825,0.0778439417481,-0.016793275252,0.996166944504
1503329556614699695,280,1503329556614478719,world,-0.296312272549,0.863349676132,0.219763725996,0.036104850471,0.077352643013,-0.016524085775,0.996212780476
1503329556623887829,281,1503329556623721238,world,-0.295051574707,0.863461256027,0.219860568643,0.0363364741206,0.0776884332299,-0.0166711397469,0.996175765991
1503329556634272431,282,1503329556633962929,world,-0.293768912554,0.863474726677,0.220255181193,0.0362772531807,0.0777792036533,-0.0167114194483,0.996170222759
1503329556644337975,283,1503329556644195362,world,-0.292363733053,0.86345911026,0.220396205783,0.036445595324,0.077833853662,-0.0164931565523,0.99616342783
1503329556654625386,284,1503329556654448205,world,-0.291201919317,0.863359510899,0.220864012837,0.0367066115141,0.0781529173255,-0.0165140274912,0.996128559113
1503329556664289266,285,1503329556664180742,world,-0.289842844009,0.863311290741,0.221489995718,0.036903001368,0.0784996151924,-0.0168528426439,0.996088325977
1503329556674645554,286,1503329556674465700,world,-0.288515806198,0.862259805202,0.221255764365,0.0352055169642,0.0780428275466,-0.0133494893089,0.996238768101
1503329556683936058,287,1503329556683723032,world,-0.287063270807,0.863050282001,0.22247351706,0.0372310467064,0.0784384310246,-0.0161796696484,0.996092140675
1503329556694160082,288,1503329556694006041,world,-0.2858299613,0.862755715847,0.222873166203,0.0373801998794,0.0789090842009,-0.0159996170551,0.996052265167
1503329556704356907,289,1503329556704229415,world,-0.284476816654,0.862609267235,0.223637089133,0.0376059524715,0.0793559029698,-0.0161634348333,0.996005654335
1503329556714632450,290,1503329556714457182,world,-0.282888203859,0.862214446068,0.224456518888,0.0374799259007,0.0792336389422,-0.0152674932033,0.99603420496
1503329556723835444,291,1503329556723715239,world,-0.281588584185,0.861867725849,0.224798575044,0.0374665260315,0.0793958455324,-0.0148680042475,0.996027827263
1503329556734129462,292,1503329556733971836,world,-0.280266702175,0.861508131027,0.226248830557,0.0373411625624,0.0799081847072,-0.0153236724436,0.995984733105
1503329556744310594,293,1503329556744205482,world,-0.279029011726,0.861016392708,0.226687699556,0.0377900972962,0.080223031342,-0.0147087043151,0.995951771736
1503329556754610746,294,1503329556754481531,world,-0.277463763952,0.860702037811,0.227959051728,0.0378807596862,0.07996622473,-0.0147781055421,0.99596786499
1503329556763815336,295,1503329556763714132,world,-0.27609822154,0.860145688057,0.229037672281,0.0383450165391,0.0802607759833,-0.0143476165831,0.99593269825
1503329556774134862,296,1503329556773939953,world,-0.274690568447,0.859670221806,0.229875639081,0.038616091013,0.0803555399179,-0.0141660925001,0.995917201042
1503329556784285086,297,1503329556784173870,world,-0.273216962814,0.859052717686,0.231575086713,0.0393272824585,0.0809242650867,-0.0135916778818,0.995851397514
1503329556794673609,298,1503329556794482138,world,-0.271927595139,0.85857963562,0.232258141041,0.0397925004363,0.0809361934662,-0.0133667262271,0.995834946632
1503329556803799379,299,1503329556803702068,world,-0.270399898291,0.858067393303,0.233930572867,0.039945833385,0.0809321254492,-0.0134428432211,0.995828092098
1503329556814107551,300,1503329556813911470,world,-0.269002735615,0.857336163521,0.235158145428,0.0406223759055,0.0812366679311,-0.0126305585727,0.99578666687
1503329556824229877,301,1503329556824108573,world,-0.267569571733,0.856871902943,0.236399948597,0.0407792590559,0.0811827778816,-0.0131244901568,0.995778143406
1503329556834556384,302,1503329556834394415,world,-0.266196876764,0.85587823391,0.238210126758,0.0410400852561,0.0817785039544,-0.0115785244852,0.995737910271
1503329556843745217,303,1503329556843593269,world,-0.26479279995,0.855407595634,0.23929657042,0.0414901077747,0.0820800885558,-0.0123014785349,0.995685756207
1503329556854022361,304,1503329556853855910,world,-0.263382196426,0.854519188404,0.241279318929,0.0412895902991,0.0823842436075,-0.0113827688619,0.995679855347
1503329556864183662,305,1503329556864099886,world,-0.262007206678,0.853738903999,0.242854788899,0.0415799878538,0.0819956213236,-0.011139347218,0.995702683926
1503329556874529515,306,1503329556874374915,world,-0.260576963425,0.853080034256,0.244435876608,0.0420630276203,0.0823107808828,-0.0115212118253,0.995651960373
1503329556883671177,307,1503329556883531729,world,-0.259191393852,0.852090239525,0.246342435479,0.0421379059553,0.0823493897915,-0.0105811674148,0.995656073093
1503329556894108980,308,1503329556893942738,world,-0.257749557495,0.851375281811,0.248085454106,0.0418908521533,0.0824434235692,-0.0105501739308,0.995658993721
1503329556904406822,309,1503329556904250363,world,-0.256491392851,0.850380182266,0.250101476908,0.041571740061,0.0835977122188,-0.00961256213486,0.995585680008
1503329556914714914,310,1503329556914528968,world,-0.255049884319,0.849645793438,0.252092301846,0.0421226732433,0.0834861770272,-0.0092785237357,0.995575070381
1503329556923919983,311,1503329556923795064,world,-0.253719240427,0.848847210407,0.253961324692,0.0416643284261,0.0835814774036,-0.00921711791307,0.995586931705
1503329556934266007,312,1503329556934032169,world,-0.252296686172,0.847110331059,0.255860745907,0.0397401042283,0.0829469040036,-0.00531140249223,0.995747148991
1503329556944497120,313,1503329556944354036,world,-0.250920563936,0.846448659897,0.258170336485,0.0403191633523,0.0830429643393,-0.00544571923092,0.995715081692
1503329556953680211,314,1503329556953538823,world,-0.249697834253,0.84549844265,0.260107040405,0.0399943143129,0.0832855477929,-0.00457463460043,0.995712280273
1503329556963892117,315,1503329556963762317,world,-0.248248323798,0.844765365124,0.262742340565,0.0399875454605,0.0833379626274,-0.00437692552805,0.995709121227
1503329556974281096,316,1503329556974094062,world,-0.246995642781,0.843939721584,0.264860749245,0.0404060333967,0.0838199108839,-0.00364356255159,0.995654642582
1503329556984514114,317,1503329556984386269,world,-0.245715484023,0.843161225319,0.267341405153,0.0402796939015,0.0841005444527,-0.00305189238861,0.9956381917
1503329556993800972,318,1503329556993612688,world,-0.244379296899,0.842391431332,0.270260602236,0.0405702888966,0.0842449218035,-0.00268286908977,0.995615184307
1503329557004081293,319,1503329557003913929,world,-0.243163257837,0.841654837132,0.272261440754,0.0409192629158,0.0841617882252,-0.00217230198905,0.995609164238
1503329557014446365,320,1503329557014228401,world,-0.241733551025,0.840939164162,0.275353223085,0.0412119142711,0.084120169282,-0.00226211268455,0.99560046196
1503329557024612157,321,1503329557024444572,world,-0.240607514977,0.840126335621,0.277965158224,0.0411932878196,0.0843370854855,-0.00144455162808,0.99558442831
1503329557033840097,322,1503329557033680088,world,-0.239267617464,0.839455127716,0.280540525913,0.0412169136107,0.0840861424804,-0.00137683155481,0.995604753494
1503329557044017242,323,1503329557043888436,world,-0.237991005182,0.838632762432,0.283838897943,0.0412777774036,0.0847041606903,-0.000922926701605,0.995550394058
1503329557054264476,324,1503329557054138284,world,-0.236792311072,0.838179409504,0.286319166422,0.0407319664955,0.0848483964801,-0.00152676622383,0.995559751987
1503329557064520123,325,1503329557064376091,world,-0.235699936748,0.837389409542,0.289431512356,0.0400355197489,0.0854622349143,-0.000817371415906,0.995536386967
1503329557073690922,326,1503329557073559946,world,-0.23444698751,0.836801707745,0.292460560799,0.0392197407782,0.0857151150703,-0.000550352327991,0.995547294617
1503329557084010648,327,1503329557083777647,world,-0.233241409063,0.836230158806,0.295231431723,0.0374618507922,0.0854783654213,-0.000951812544372,0.995635092258
1503329557094163555,328,1503329557094007121,world,-0.232076063752,0.835569918156,0.298409253359,0.0357121042907,0.0858446285129,-0.000261338078417,0.995668232441
1503329557104380984,329,1503329557104218550,world,-0.231041669846,0.834999918938,0.301719844341,0.0344049856067,0.0858290791512,-0.00159699260257,0.995714426041
1503329557114608577,330,1503329557114459314,world,-0.229946583509,0.834396958351,0.304712116718,0.0325164832175,0.0860160440207,-0.00170265347697,0.995761573315
1503329557123914504,331,1503329557123737259,world,-0.228721901774,0.83396589756,0.308042228222,0.0308920312673,0.0861109569669,-0.00232943892479,0.995803773403
1503329557134094615,332,1503329557133958773,world,-0.227653548121,0.833276569843,0.311273187399,0.0294270478189,0.0864477306604,-0.00239171204157,0.995818853378
1503329557144359723,333,1503329557144208699,world,-0.226702868938,0.832810461521,0.314249515533,0.0275192148983,0.0867522209883,-0.00297242379747,0.995845317841
1503329557154601823,334,1503329557154431864,world,-0.225450545549,0.832341969013,0.317950308323,0.0255828052759,0.0867818892002,-0.00339801958762,0.995893001556
1503329557163796006,335,1503329557163653842,world,-0.224470421672,0.831783890724,0.320885688066,0.0233478322625,0.0871943682432,-0.00355689763092,0.995911300182
1503329557173995707,336,1503329557173878121,world,-0.223435968161,0.831407606602,0.324361622334,0.0215221550316,0.0873578637838,-0.00430130166933,0.99593514204
1503329557184192512,337,1503329557184108738,world,-0.222416818142,0.830879747868,0.32793033123,0.0198215208948,0.0873247459531,-0.00424150191247,0.995973587036
1503329557194467754,338,1503329557194318313,world,-0.221431404352,0.830606937408,0.330788999796,0.0177752804011,0.0877635776997,-0.00460666976869,0.995972037315
1503329557204674100,339,1503329557204536953,world,-0.22036215663,0.830306470394,0.334941983223,0.0157467667013,0.0880502909422,-0.00521066458896,0.995977938175
1503329557213958806,340,1503329557213766395,world,-0.219596877694,0.82991284132,0.338074862957,0.0140507211909,0.0881442129612,-0.00456172926351,0.995998203754
1503329557224142451,341,1503329557224020930,world,-0.218566313386,0.829932510853,0.341479867697,0.0123826963827,0.0880841612816,-0.00580480787903,0.996019184589
1503329557234551271,342,1503329557234396078,world,-0.217543289065,0.82952183485,0.345295131207,0.0106226047501,0.0884797051549,-0.00531450426206,0.996007144451
1503329557243696354,343,1503329557243554673,world,-0.216656923294,0.829511284828,0.348157316446,0.00909096095711,0.0880405679345,-0.00592770427465,0.996057748795
1503329557254019295,344,1503329557253883149,world,-0.215782478452,0.829476475716,0.351972728968,0.00727181509137,0.0885001420975,-0.00613050162792,0.996030688286
1503329557264346190,345,1503329557264193395,world,-0.214945569634,0.82947576046,0.355317562819,0.0057268650271,0.0887529626489,-0.00590931531042,0.996019661427
1503329557274751939,346,1503329557274616792,world,-0.213947251439,0.82954698801,0.358433991671,0.00356848351657,0.0882923901081,-0.00613659527153,0.996069312096
1503329557284073489,347,1503329557283916077,world,-0.212920635939,0.829414248466,0.362110435963,0.00213180924766,0.088331438601,-0.00540664838627,0.996074140072
1503329557294367722,348,1503329557294205393,world,-0.212235972285,0.829682767391,0.365268230438,0.000795295403805,0.0885336995125,-0.00632052775472,0.996052801609
1503329557304666893,349,1503329557304461965,world,-0.211429744959,0.829855561256,0.368713915348,-0.000705433601979,0.0884344503284,-0.00640596821904,0.996061086655
1503329557313788118,350,1503329557313675862,world,-0.210606426001,0.830044209957,0.372135490179,-0.00181381765287,0.0884172990918,-0.00636976724491,0.996061503887
1503329557324002480,351,1503329557323864939,world,-0.209667727351,0.830383837223,0.375239133835,-0.00322920642793,0.088507629931,-0.00652442732826,0.996048808098
1503329557334209815,352,1503329557334067333,world,-0.209066212177,0.83052611351,0.378492504358,-0.00464310450479,0.0892162546515,-0.00662721600384,0.995979368687
1503329557344491390,353,1503329557344314863,world,-0.208288937807,0.830847203732,0.381792038679,-0.00576752098277,0.0889379307628,-0.00642274785787,0.995999753475
1503329557353774311,354,1503329557353566788,world,-0.207516312599,0.831175208092,0.384788602591,-0.00723495334387,0.0892426148057,-0.00645586801693,0.995962679386
1503329557363971457,355,1503329557363788171,world,-0.206758454442,0.831605672836,0.388063549995,-0.00880966614932,0.0897572040558,-0.00654755579308,0.995903253555
1503329557374142244,356,1503329557373996024,world,-0.206109002233,0.83200854063,0.391158282757,-0.00983852427453,0.089483037591,-0.00656798435375,0.995918095112
1503329557384308292,357,1503329557384204123,world,-0.205466687679,0.83231395483,0.394009262323,-0.0109947519377,0.0895075947046,-0.00636501749977,0.995905101299
1503329557394577500,358,1503329557394422339,world,-0.204649165273,0.832740008831,0.397235929966,-0.011895108968,0.0894558876753,-0.00595311075449,0.995901942253
1503329557403759100,359,1503329557403642338,world,-0.204099774361,0.833272278309,0.400031864643,-0.0126491067931,0.0899849534035,-0.00654727965593,0.995841264725
1503329557414101026,360,1503329557413896695,world,-0.20342835784,0.833815455437,0.402989327908,-0.0136961713433,0.0900110527873,-0.00691818678752,0.995822548866
1503329557424253309,361,1503329557424124583,world,-0.202683165669,0.834256708622,0.406047135592,-0.0143790636212,0.090121999383,-0.00629299785942,0.995807051659
1503329557434553628,362,1503329557434362064,world,-0.202247023582,0.834708631039,0.408629506826,-0.0151550313458,0.0906204804778,-0.00684219785035,0.995746731758
1503329557444766382,363,1503329557444569568,world,-0.201475545764,0.835315942764,0.411727279425,-0.0156010240316,0.090260989964,-0.00689670164138,0.995772063732
1503329557454081852,364,1503329557453941044,world,-0.200967416167,0.835643649101,0.414348989725,-0.0159659590572,0.0904073044658,-0.00695453444496,0.995752632618
1503329557464312796,365,1503329557464166184,world,-0.200359985232,0.836239755154,0.416999459267,-0.0160179790109,0.0902606323361,-0.00787999853492,0.995758116245
1503329557474544706,366,1503329557474394422,world,-0.199690103531,0.836613833904,0.420003861189,-0.0162879861891,0.0903565436602,-0.00724565749988,0.995749890804
1503329557483735525,367,1503329557483572167,world,-0.199222579598,0.837107241154,0.422431766987,-0.0165988784283,0.090544976294,-0.00781385414302,0.995723366737
1503329557493931238,368,1503329557493803902,world,-0.198705375195,0.837750792503,0.425314217806,-0.0160065982491,0.0908831506968,-0.00840216875076,0.995697498322
1503329557504228483,369,1503329557504019010,world,-0.198232129216,0.838066279888,0.427700966597,-0.0160521864891,0.0912891700864,-0.00773737346753,0.99566501379
1503329557514420951,370,1503329557514249766,world,-0.197551906109,0.838526725769,0.430182188749,-0.0161218754947,0.0909889414907,-0.00850128848106,0.995685100555
1503329557524647898,371,1503329557524483381,world,-0.197008356452,0.838899731636,0.432799071074,-0.0156532265246,0.0913486331701,-0.00808761641383,0.995663046837
1503329557534112058,372,1503329557533890425,world,-0.196513414383,0.839378356934,0.435012847185,-0.0154982479289,0.0911194831133,-0.0086003979668,0.995682239532
