%time,field.header.seq,field.header.stamp,field.header.frame_id,field.pose.position.x,field.pose.position.y,field.pose.position.z,field.pose.orientation.x,field.pose.orientation.y,field.pose.orientation.z,field.pose.orientation.w
1503103885338372290,59566,1503103885338173339,world,-0.0176976583898,0.167325675488,0.041778318584,0.22488501668,0.717730641365,-0.56060475111,0.346427202225
1503103885348567836,59567,1503103885348425644,world,0.147498995066,0.151373758912,0.0308376476169,-0.547487080097,-0.249679341912,0.733998417854,-0.314903765917
1503103885357837833,59568,1503103885357679499,world,0.102378576994,0.120116211474,0.167765274644,-0.549456059933,-0.25142249465,0.731996417046,-0.314747661352
1503103885368203937,59569,1503103885367983979,world,0.112683430314,0.131409779191,0.194803059101,-0.536426782608,-0.246278509498,0.742224097252,-0.317327320576
1503103885378454596,59570,1503103885378325427,world,0.122260116041,0.142115801573,0.222981184721,-0.560536682606,-0.255684822798,0.722992420197,-0.312579393387
1503103885388681785,59571,1503103885388556309,world,0.131110146642,0.151732802391,0.244833245873,-0.577386021614,-0.262259602547,0.708791792393,-0.308965265751
1503103885397957896,59572,1503103885397838874,world,0.13930387795,0.160379856825,0.261359989643,-0.587621867657,-0.266243994236,0.699844837189,-0.306646347046
1503103885408249821,59573,1503103885408116827,world,0.146647006273,0.167985662818,0.274037271738,-0.593659281731,-0.26858985424,0.694455504417,-0.305220782757
1503103885418482006,59574,1503103885418373327,world,0.153110861778,0.174598664045,0.283907949924,-0.597094893456,-0.269917607307,0.691361308098,-0.304370880127
1503103885427903828,59575,1503103885427768678,world,0.158772110939,0.180318459868,0.291528642178,-0.598677039146,-0.27051499486,0.689939081669,-0.30395963788
1503103885438192253,59576,1503103885438024808,world,0.158736526966,0.180297449231,0.291721493006,-0.599199771881,-0.270694434643,0.689472675323,-0.303828418255
1503103885448463050,59577,1503103885448290133,world,0.593168616295,0.39797231555,0.730549633503,-0.00570921367034,0.00379455788061,0.00780211761594,0.999946057796
1503103885448493519,59578,1503103885448319760,world,0.593059718609,0.398052096367,0.727393209934,-0.00422478374094,0.00302935461514,0.0060281320475,0.999968349934
1503103885458689126,59579,1503103885458547643,world,0.592691361904,0.398074120283,0.724669516087,-0.00516990525648,0.00413548294455,0.00790530722588,0.999946832657
1503103885478186956,59580,1503103885478009320,world,0.592524826527,0.398262441158,0.720908761024,-0.00571718346328,0.00434251083061,0.00769098848104,0.99994468689
1503103885478203087,59581,1503103885478039861,world,0.592068254948,0.398432075977,0.718240022659,-0.00577887101099,0.00472215516493,0.00838266778737,0.999937057495
1503103885488414677,59582,1503103885488297711,world,0.591751754284,0.398631751537,0.714794516563,-0.00611572992057,0.00456301076338,0.00861585699022,0.999933719635
1503103885507987545,59583,1503103885507826043,world,0.591357827187,0.398846149445,0.711643576622,-0.00683622946963,0.00456179864705,0.00839981902391,0.999930977821
1503103885508009454,59584,1503103885507853417,world,0.590805888176,0.398987740278,0.708819031715,-0.0067599285394,0.00451772566885,0.00877177622169,0.999928474426
1503103885518183522,59585,1503103885518056225,world,0.59013313055,0.399045795202,0.705026984215,-0.00109636655543,0.00512355845422,0.00397091731429,0.999978363514
1503103885528497290,59586,1503103885528377522,world,0.589489638805,0.399303823709,0.702405631542,-0.000895111297723,0.00570692308247,0.00411286903545,0.999974906445
1503103885547997366,59587,1503103885547849032,world,0.588900923729,0.399533599615,0.698901772499,-0.000466002878966,0.00556652760133,0.00437219394371,0.999974787235
1503103885548007508,59588,1503103885547876166,world,0.58837980032,0.399799048901,0.695774912834,-0.00177114503458,0.00571979489177,0.00483917165548,0.999970376492
1503103885558293934,59589,1503103885558149322,world,0.58758944273,0.40000090003,0.692878603935,-0.00076376600191,0.00572917191312,0.00464951898903,0.999972462654
1503103885577958541,59590,1503103885577708857,world,0.587023854256,0.400277972221,0.689206779003,-0.00185777980369,0.00570620037615,0.00535106426105,0.999967694283
1503103885588038824,59591,1503103885587950466,world,0.586193442345,0.400538682938,0.686689734459,-0.00137771992013,0.00566442497075,0.00534417526796,0.999968767166
1503103885598401537,59592,1503103885598242265,world,0.585355579853,0.40084913373,0.683140337467,0.000215919440961,0.00570117216557,0.00496846949682,0.999971330166
1503103885598449318,59593,1503103885598265329,world,0.584573030472,0.401198595762,0.680043637753,-0.00116390944459,0.00601731054485,0.00533179147169,0.999966979027
1503103885608589812,59594,1503103885608494723,world,0.583593964577,0.401557892561,0.677211821079,0.00167250155937,0.0059629403986,0.00403599673882,0.999972701073
1503103885628363685,59595,1503103885628205376,world,0.582761883736,0.401866227388,0.673509478569,0.00268862489611,0.0058277589269,0.0038076043129,0.999972105026
1503103885628383403,59596,1503103885628233680,world,0.581792831421,0.402233749628,0.671038985252,0.00235079997219,0.00626467261463,0.003337665461,0.999972045422
1503103885638660782,59597,1503103885638500416,world,0.580846965313,0.402608066797,0.667505681515,0.00373104959726,0.00576668139547,0.00226779351942,0.999973833561
1503103885648029524,59598,1503103885647839452,world,0.579875230789,0.402944892645,0.664488315582,0.00405619340017,0.0058478009887,0.00237615266815,0.999971866608
1503103885658316631,59599,1503103885658134718,world,0.578777194023,0.403346598148,0.66164714098,0.0052211470902,0.00624628271908,0.00112929276656,0.999966263771
1503103885668585256,59600,1503103885668440333,world,0.577800989151,0.403724014759,0.657970070839,0.00543298572302,0.00639800680801,0.00012367941963,0.999964773655
1503103885688173624,59601,1503103885687968424,world,0.576604902744,0.40411067009,0.655420541763,0.00873709470034,0.00708660902455,-0.000242802794673,0.999936699867
1503103885688179255,59602,1503103885687995512,world,0.575509428978,0.404578238726,0.651898026466,0.00912357773632,0.00650721415877,-0.00184414535761,0.999935567379
1503103885698302955,59603,1503103885698212824,world,0.574356377125,0.404959827662,0.649098873138,0.00894102267921,0.00651083840057,-0.00258324481547,0.99993544817
1503103885708626022,59604,1503103885708490983,world,0.573160886765,0.405496060848,0.646256387234,0.0101815322414,0.00644248211756,-0.00448121316731,0.999917387962
1503103885728317233,59605,1503103885728169195,world,0.572105646133,0.405881762505,0.642749726772,0.0100559433922,0.00636846106499,-0.00553277414292,0.999913871288
1503103885728327878,59606,1503103885728197940,world,0.570823550224,0.406379908323,0.640392065048,0.0104171941057,0.00652839895338,-0.00623581930995,0.999905049801
1503103885738682799,59607,1503103885738503982,world,0.569640338421,0.406774193048,0.637037992477,0.012283205986,0.00678845774382,-0.00734635442495,0.999874532223
1503103885758318243,59608,1503103885758116064,world,0.568356513977,0.407232969999,0.634152412415,0.0119644720107,0.00704345107079,-0.00772349536419,0.999873816967
1503103885758322169,59609,1503103885758152857,world,0.567087471485,0.407689154148,0.631631553173,0.0134809501469,0.00698114233091,-0.00890897214413,0.999845027924
1503103885768594308,59610,1503103885768408867,world,0.565885066986,0.408174335957,0.62824422121,0.0149647435173,0.00672511477023,-0.00969969760627,0.999818325043
1503103885788062509,59611,1503103885787884014,world,0.564503550529,0.408685535192,0.625886559486,0.0147229135036,0.00682187033817,-0.00981785170734,0.999820172787
1503103885788068151,59612,1503103885787912688,world,0.563078463078,0.409189611673,0.622362196445,0.0169211681932,0.00553155411035,-0.0112965041772,0.99977773428
1503103885798286880,59613,1503103885798157541,world,0.561791598797,0.409652650356,0.61947542429,0.0170001015067,0.00610369024798,-0.0115785235539,0.999769806862
1503103885818720699,59614,1503103885818541944,world,0.560616612434,0.410059005022,0.617624700069,0.0166413970292,0.00765428692102,-0.0116346217692,0.999764561653
1503103885828051541,59615,1503103885827875198,world,0.559367120266,0.410512655973,0.614367902279,0.0191572979093,0.00730184232816,-0.0128237400204,0.999707579613
1503103885838296374,59616,1503103885838116172,world,0.557823002338,0.411126494408,0.61161583662,0.0188663527369,0.00660668686032,-0.0133719779551,0.999710679054
1503103885838303602,59617,1503103885838140098,world,0.556639671326,0.411490172148,0.608957767487,0.0205755606294,0.00653345324099,-0.0139799136668,0.999669253826
1503103885848684993,59618,1503103885848449171,world,0.555487751961,0.411999553442,0.606150865555,0.0211479850113,0.00677491025999,-0.0149529725313,0.999641537666
1503103885857946171,59619,1503103885857831172,world,0.554068446159,0.412223100662,0.604379951954,0.0207166131586,0.00775631004944,-0.0150422025472,0.999642133713
1503103885877754589,59620,1503103885877594619,world,0.552816152573,0.41275703907,0.601724207401,0.0225767623633,0.00772393960506,-0.0164859946817,0.999579370022
1503103885888027718,59621,1503103885887844463,world,0.551511824131,0.413311094046,0.599350869656,0.0217782780528,0.00817801617086,-0.0162369310856,0.999597489834
1503103885888137006,59622,1503103885887881399,world,0.550152659416,0.41382971406,0.596766531467,0.0221134088933,0.00842929724604,-0.0168711487204,0.999577522278
1503103885908496574,59623,1503103885908343614,world,0.548909723759,0.414198279381,0.594447135925,0.0229612328112,0.00844078604132,-0.0172662399709,0.999551594257
1503103885908507562,59624,1503103885908370503,world,0.547905981541,0.414657920599,0.592042088509,0.0227561052889,0.00858689472079,-0.017241531983,0.999555468559
1503103885927997499,59625,1503103885927836856,world,0.546573758125,0.415117412806,0.589802980423,0.024977164343,0.00872149225324,-0.0187684521079,0.999473750591
1503103885928049943,59626,1503103885927873060,world,0.545380890369,0.415634423494,0.587009429932,0.0246072597802,0.00812065135688,-0.0190720912069,0.999482274055
1503103885948547883,59627,1503103885948392279,world,0.544096112251,0.416136354208,0.584694743156,0.0249305106699,0.00806461554021,-0.0200437847525,0.999455749989
1503103885948560459,59628,1503103885948423198,world,0.542772591114,0.416578620672,0.582581043243,0.0255930926651,0.00840187072754,-0.0206832122058,0.999423146248
1503103885968066464,59629,1503103885967851442,world,0.541445314884,0.417014628649,0.580333650112,0.0240127369761,0.00886240508407,-0.0203488003463,0.999465167522
1503103885978172549,59630,1503103885978070734,world,0.540953159332,0.417755663395,0.578988790512,0.0176310017705,0.0116035202518,-0.0193793140352,0.999589383602
1503103885978183079,59631,1503103885978092836,world,0.539857566357,0.418260782957,0.576849758625,0.0168705899268,0.0117891691625,-0.0187882129103,0.999611616135
1503103885988519054,59632,1503103885988369363,world,0.538650035858,0.418720781803,0.574753940105,0.0169583912939,0.0116474907845,-0.0194934308529,0.999598264694
1503103886007918215,59633,1503103886007798601,world,0.537460684776,0.419070571661,0.573037266731,0.0173574537039,0.0121488533914,-0.0199705380946,0.999576032162
1503103886018229888,59634,1503103886018084134,world,0.536209344864,0.419553548098,0.570723414421,0.017516521737,0.0123556917533,-0.0199343729764,0.999571502209
1503103886018241167,59635,1503103886018112618,world,0.535252869129,0.419930368662,0.569213569164,0.0170919578522,0.0127983735874,-0.0206413175911,0.999558866024
1503103886028521432,59636,1503103886028375394,world,0.53420817852,0.420439958572,0.567108094692,0.0171899031848,0.0126175070181,-0.0201225746423,0.999570131302
1503103886047951440,59637,1503103886047759930,world,0.533095419407,0.42095246911,0.565397679806,0.0165010727942,0.0129336202517,-0.0201757904142,0.999576628208
1503103886058234866,59638,1503103886058119867,world,0.532012045383,0.421287626028,0.563847541809,0.0171867832541,0.0127727212384,-0.0203678291291,0.999563217163
1503103886068494786,59639,1503103886068343456,world,0.530805110931,0.421901285648,0.5617172122,0.0165997594595,0.0131715731695,-0.0204545408487,0.999566137791
1503103886068508860,59640,1503103886068372312,world,0.529945969582,0.422248005867,0.560432195663,0.0170937329531,0.0139140663669,-0.0205474030226,0.999545812607
1503103886088051157,59641,1503103886087938750,world,0.528974413872,0.422810226679,0.55856359005,0.0172799993306,0.0140709429979,-0.0206275638193,0.999538838863
1503103886098391044,59642,1503103886098223590,world,0.52804762125,0.423279285431,0.557021379471,0.0176423713565,0.0143919326365,-0.0206229966134,0.999528050423
1503103886098397656,59643,1503103886098271985,world,0.527002692223,0.423709779978,0.555759549141,0.0177103243768,0.0143386861309,-0.0206810347736,0.999526381493
1503103886108693669,59644,1503103886108532785,world,0.5261323452,0.424277096987,0.553916037083,0.0175745338202,0.0142098553479,-0.0206294786185,0.999531686306
1503103886128512016,59645,1503103886128331488,world,0.525138199329,0.424716770649,0.55278646946,0.0173389520496,0.0145539529622,-0.0209317840636,0.999524593353
1503103886128574515,59646,1503103886128360078,world,0.524307906628,0.425251454115,0.551170766354,0.0178834814578,0.015170388855,-0.0209792591631,0.999504804611
1503103886148054351,59647,1503103886147847645,world,0.523248076439,0.425754249096,0.549821734428,0.0175805650651,0.0156023949385,-0.0211670808494,0.999499559402
1503103886158365378,59648,1503103886158219875,world,0.522305488586,0.426199376583,0.548682689667,0.0171601288021,0.0156188458204,-0.0217239409685,0.999494671822
1503103886158374857,59649,1503103886158267496,world,0.521509885788,0.426756650209,0.547128081322,0.0170400384814,0.0157684590667,-0.0215921252966,0.999497234821
1503103886177972170,59650,1503103886177810791,world,0.52072250843,0.427263349295,0.546072602272,0.0167295634747,0.0157307088375,-0.0219199787825,0.999495923519
1503103886188329034,59651,1503103886188126421,world,0.519942760468,0.427707701921,0.544786334038,0.016803348437,0.0163593254983,-0.0223307367414,0.999475538731
1503103886198516599,59652,1503103886198395478,world,0.519201815128,0.428194373846,0.543537974358,0.0161846410483,0.0169497095048,-0.0223956052214,0.999474525452
1503103886198526489,59653,1503103886198430749,world,0.518440425396,0.428627759218,0.542501866817,0.016935640946,0.0169243384153,-0.0228201150894,0.999452888966
1503103886208102874,59654,1503103886207995779,world,0.517691135406,0.429142564535,0.541220664978,0.0162133704871,0.0172456447035,-0.0227740481496,0.999460399151
1503103886228665501,59655,1503103886228537020,world,0.516952633858,0.429703325033,0.540298461914,0.0156367253512,0.0176386404783,-0.0230057090521,0.999457418919
1503103886228673601,59656,1503103886228567159,world,0.516252636909,0.430059194565,0.539208352566,0.016353148967,0.0180455837399,-0.0231704432517,0.999434888363
1503103886248267227,59657,1503103886248059781,world,0.515638828278,0.430500507355,0.538172245026,0.0157677363604,0.0183760952204,-0.022541526705,0.999452650547
1503103886248286412,59658,1503103886248086966,world,0.51495462656,0.430998384953,0.537326753139,0.0164449792355,0.018723545596,-0.0230273026973,0.999424219131
1503103886268778448,59659,1503103886268605930,world,0.514330685139,0.431428581476,0.536247968674,0.0164792407304,0.01887624152,-0.023282950744,0.999414801598
1503103886268786910,59660,1503103886268633530,world,0.513741075993,0.431887149811,0.535451948643,0.0171018578112,0.0191617812961,-0.0230101794004,0.99940520525
1503103886288157778,59661,1503103886288080777,world,0.513103604317,0.432204961777,0.534584760666,0.0175143945962,0.0195790827274,-0.0223319549114,0.999405384064
1503103886288216001,59662,1503103886288113758,world,0.512739598751,0.432764649391,0.53369551897,0.0173168424517,0.0199155192822,-0.0220820009708,0.99940776825
1503103886298614541,59663,1503103886298400084,world,0.512173473835,0.433231174946,0.533116400242,0.0173052381724,0.0199692547321,-0.0222612023354,0.999402880669
1503103886318095086,59664,1503103886317915070,world,0.511615157127,0.433567076921,0.532240569592,0.018063608557,0.0198708791286,-0.0221989881247,0.999392867088
1503103886328385295,59665,1503103886328236741,world,0.51118272543,0.433936476707,0.531667888165,0.0190219562501,0.0202367659658,-0.021945156157,0.999373316765
1503103886328404435,59666,1503103886328265357,world,0.510591685772,0.434271872044,0.531047701836,0.0197401940823,0.020825760439,-0.0218960158527,0.999348402023
1503103886347837066,59667,1503103886347700140,world,0.510104477406,0.434899151325,0.530280530453,0.019895253703,0.0209498275071,-0.0214493256062,0.999352455139
1503103886358293249,59668,1503103886358182285,world,0.509641766548,0.435302346945,0.529918551445,0.0204423908144,0.0213710926473,-0.0209286045283,0.999343454838
1503103886358336939,59669,1503103886358247897,world,0.509201467037,0.435733228922,0.529268741608,0.0215200539678,0.0214298963547,-0.0211206246167,0.999315619469
1503103886377913735,59670,1503103886377748827,world,0.508860647678,0.43606030941,0.529264569283,0.021161435172,0.0216834973544,-0.0205627512187,0.999329388142
1503103886388092875,59671,1503103886387997393,world,0.508288621902,0.43632748723,0.528937041759,0.021578585729,0.0221448671073,-0.0201262123883,0.999319195747
1503103886398322188,59672,1503103886398244971,world,0.5079190135,0.436793923378,0.528550922871,0.0212027747184,0.0224140249193,-0.0198500938714,0.999326765537
1503103886398356654,59673,1503103886398287588,world,0.507554769516,0.437282443047,0.528362631798,0.0210933480412,0.0230904836208,-0.019419066608,0.99932217598
1503103886418011539,59674,1503103886417876464,world,0.507143259048,0.437774896622,0.527881860733,0.0214511714876,0.0231638886034,-0.0196947101504,0.999307513237
1503103886428498059,59675,1503103886428258378,world,0.506961762905,0.438514500856,0.527496099472,0.02237685211,0.0227925889194,-0.0202451683581,0.999284684658
1503103886428620549,59676,1503103886428291349,world,0.506473660469,0.438796937466,0.527425050735,0.0220537818968,0.0233713388443,-0.019794985652,0.999287545681
1503103886438683997,59677,1503103886438569670,world,0.506164669991,0.439301460981,0.527255535126,0.0218541398644,0.0236299466342,-0.0193640068173,0.999294281006
1503103886458271481,59678,1503103886458073533,world,0.505897641182,0.439838856459,0.527255833149,0.0213876087219,0.0238473713398,-0.0191641803831,0.999303102493
1503103886468530489,59679,1503103886468341174,world,0.505563855171,0.440322011709,0.526942968369,0.0212963335216,0.0238273367286,-0.0194370765239,0.99930024147
1503103886468536088,59680,1503103886468372052,world,0.505420446396,0.441014289856,0.526790142059,0.02154918015,0.0237050764263,-0.0196705516428,0.999293148518
1503103886488126923,59681,1503103886488002109,world,0.505135893822,0.4414280653,0.526669859886,0.0218756441027,0.0241805687547,-0.0197340846062,0.99927341938
1503103886498502455,59682,1503103886498337247,world,0.504882335663,0.441974282265,0.52662229538,0.021647118032,0.0245397482067,-0.0192311480641,0.999279379845
1503103886507804114,59683,1503103886507570690,world,0.504654228687,0.442464321852,0.526795387268,0.0214029308408,0.024680621922,-0.0188095979393,0.999289274216
1503103886517995863,59684,1503103886517827469,world,0.504347741604,0.442942172289,0.526684522629,0.0212570857257,0.0243133753538,-0.0185267813504,0.999306678772
1503103886528320083,59685,1503103886528119435,world,0.504180669785,0.443482637405,0.527013123035,0.0207620859146,0.0244472883642,-0.0181948486716,0.999319851398
1503103886528325389,59686,1503103886528161042,world,0.503877460957,0.44405284524,0.526807308197,0.0208689514548,0.0241588614881,-0.0188440605998,0.999312579632
1503103886538572884,59687,1503103886538408291,world,0.503675282001,0.444595575333,0.526877880096,0.0201230403036,0.0246546976268,-0.0184094663709,0.999323904514
1503103886558015204,59688,1503103886557839929,world,0.503453493118,0.444744497538,0.527807235718,0.0189636386931,0.0258192587644,-0.0168852359056,0.999344170094
1503103886568297237,59689,1503103886568112970,world,0.503159701824,0.445217043161,0.527881205082,0.018913436681,0.0257399603724,-0.0166810918599,0.999350547791
1503103886578538074,59690,1503103886578371922,world,0.503134965897,0.445954799652,0.528198063374,0.0193198602647,0.0254967492074,-0.0165350697935,0.999351382256
1503103886578544343,59691,1503103886578419988,world,0.50293302536,0.446425050497,0.528506755829,0.019660172984,0.0256317295134,-0.0163266379386,0.99934476614
1503103886597969847,59692,1503103886597826212,world,0.502675354481,0.446674734354,0.52897465229,0.0189250502735,0.0264673549682,-0.0152587555349,0.999354064465
1503103886608311905,59693,1503103886608112116,world,0.502526402473,0.447171807289,0.529591202736,0.0193466152996,0.0268694255501,-0.0146971940994,0.999343633652
1503103886608317377,59694,1503103886608140555,world,0.502293765545,0.447649359703,0.529804825783,0.0196145419031,0.0270538330078,-0.0145989144221,0.999334931374
1503103886618563178,59695,1503103886618400975,world,0.502296209335,0.448334544897,0.530282258987,0.0202055834234,0.0265232734382,-0.0145698096603,0.999337852001
1503103886638225556,59696,1503103886638016547,world,0.502076148987,0.44858366251,0.531014859676,0.0203463509679,0.0269181840122,-0.014018679969,0.999332308769
1503103886648415422,59697,1503103886648262133,world,0.501986861229,0.449380636215,0.530925154686,0.0215755235404,0.0266006551683,-0.015009554103,0.999300539494
1503103886648424420,59698,1503103886648290322,world,0.50181466341,0.449612468481,0.53228020668,0.0202376246452,0.0279635433108,-0.0137339970097,0.999309718609
1503103886667956671,59699,1503103886667757432,world,0.50166785717,0.45008918643,0.532657325268,0.0202840473503,0.0280368998647,-0.0134485242888,0.999310612679
1503103886678213607,59700,1503103886678013499,world,0.501533567905,0.450649827719,0.533523082733,0.0200324822217,0.0284001156688,-0.0134591106325,0.99930524826
1503103886688375170,59701,1503103886688251813,world,0.501398444176,0.451191216707,0.534152626991,0.0202972777188,0.0283190216869,-0.0137952724472,0.999297618866
1503103886698561085,59702,1503103886698453983,world,0.501294314861,0.451661974192,0.534803569317,0.0202710609883,0.02817661874,-0.0138466618955,0.999301552773
1503103886698613569,59703,1503103886698505661,world,0.501191198826,0.452119529247,0.53585088253,0.0204008929431,0.0287703443319,-0.01376398094,0.999283075333
1503103886718050943,59704,1503103886717884436,world,0.501103997231,0.452549934387,0.536459028721,0.0203600656241,0.02901051566,-0.0137841831893,0.999276697636
1503103886728273516,59705,1503103886728107735,world,0.501055777073,0.453252643347,0.537216544151,0.0208905488253,0.0288330167532,-0.014216854237,0.999264836311
1503103886738529973,59706,1503103886738362429,world,0.500935077667,0.453740030527,0.538067102432,0.0210223030299,0.0289805512875,-0.0143731972203,0.999255537987
1503103886738540890,59707,1503103886738406852,world,0.500810325146,0.454379975796,0.538569390774,0.0213907063007,0.0286614187062,-0.0152918696404,0.99924325943
1503103886757804545,59708,1503103886757728283,world,0.500710487366,0.454867601395,0.539741575718,0.0214128177613,0.0288248620927,-0.0154199423268,0.999236166477
1503103886768113107,59709,1503103886767947724,world,0.500697016716,0.455251604319,0.540363430977,0.0217487532645,0.0286079812795,-0.0150911025703,0.999240100384
1503103886778261961,59710,1503103886778178723,world,0.500530183315,0.455689936876,0.541692912579,0.0212295595556,0.0290069337934,-0.0148140601814,0.999243974686
1503103886788539497,59711,1503103886788401057,world,0.500366151333,0.456077456474,0.54256016016,0.0212592352182,0.0290678944439,-0.0147548895329,0.999242424965
1503103886788547877,59712,1503103886788426831,world,0.500357508659,0.456259936094,0.543969750404,0.0204654671252,0.0296079069376,-0.0138597562909,0.999256014824
1503103886808170576,59713,1503103886807987737,world,0.500218153,0.456720113754,0.545438885689,0.0201318170875,0.0303760971874,-0.0137488599867,0.999241232872
1503103886818355309,59714,1503103886818243975,world,0.500215291977,0.457079052925,0.546206355095,0.0206847414374,0.0303069129586,-0.0136268436909,0.999233722687
1503103886828693921,59715,1503103886828526652,world,0.500059843063,0.457481116056,0.547691881657,0.0204986389726,0.030502313748,-0.013425395824,0.999234318733
1503103886837887025,59716,1503103886837768912,world,0.499938845634,0.45782867074,0.548805236816,0.0204900261015,0.030375033617,-0.0131268268451,0.999242305756
1503103886848182503,59717,1503103886848040526,world,0.499802023172,0.458250820637,0.549964487553,0.0196220800281,0.0309533644468,-0.013012772426,0.999243497849
1503103886858549260,59718,1503103886858276675,world,0.499655932188,0.458627611399,0.551569640636,0.019571390003,0.0318703092635,-0.0131213692948,0.999214231968
1503103886858556960,59719,1503103886858307879,world,0.49964171648,0.458873718977,0.552524268627,0.0200525280088,0.0318513214588,-0.0126823820174,0.999210953712
1503103886868691569,59720,1503103886868545134,world,0.499537348747,0.459268599749,0.554163038731,0.0196411404759,0.032140981406,-0.0123842526227,0.999213635921
1503103886888114976,59721,1503103886887966186,world,0.49940520525,0.45961818099,0.555449724197,0.0196372419596,0.0321017503738,-0.0127653181553,0.999210119247
1503103886898289294,59722,1503103886898187539,world,0.499283790588,0.459887176752,0.556849062443,0.0198379904032,0.0325353816152,-0.0127206556499,0.999192655087
1503103886898299120,59723,1503103886898210129,world,0.499158233404,0.460131883621,0.558548569679,0.0202204007655,0.0330847874284,-0.0123728774488,0.999171376228
1503103886917875177,59724,1503103886917665039,world,0.499089390039,0.460331559181,0.55971211195,0.0208650119603,0.0333661586046,-0.0118294479325,0.999155402184
1503103886928038773,59725,1503103886927899753,world,0.4989387393,0.460720926523,0.561425149441,0.0201559662819,0.033818513155,-0.01182787586,0.999154746532
1503103886938373825,59726,1503103886938176145,world,0.498848259449,0.460870891809,0.562911689281,0.0202882140875,0.033782966435,-0.0118141137064,0.999153375626
1503103886938379636,59727,1503103886938217345,world,0.498750299215,0.4610221982,0.564396739006,0.0201184917241,0.0340425819159,-0.0113266706467,0.999153673649
1503103886948807159,59728,1503103886948638365,world,0.498609989882,0.461253345013,0.566269397736,0.0203347187489,0.0343176014721,-0.0116690611467,0.999135971069
1503103886968375227,59729,1503103886968193274,world,0.49852001667,0.461428493261,0.567601203918,0.0205166973174,0.0343623198569,-0.0116993933916,0.999130368233
1503103886968380118,59730,1503103886968220011,world,0.498404234648,0.461590349674,0.569471657276,0.0206996500492,0.0347596406937,-0.0111540099606,0.999119102955
1503103886987739985,59731,1503103886987618013,world,0.498263657093,0.461652040482,0.571099579334,0.0212862100452,0.0349292419851,-0.0118597839028,0.999092757702
1503103886998043792,59732,1503103886997888574,world,0.498167276382,0.461830079556,0.572770893574,0.0204657856375,0.0351728387177,-0.0115145295858,0.999105393887
1503103887008396603,59733,1503103887008202958,world,0.498002618551,0.461918920279,0.574762284756,0.0207439288497,0.0352024994791,-0.0117565207183,0.999095737934
1503103887018633829,59734,1503103887018517331,world,0.497894018888,0.461883366108,0.576201736927,0.0213362444192,0.0350038520992,-0.0119984420016,0.999087333679
1503103887018645353,59735,1503103887018539980,world,0.49772515893,0.461949259043,0.578238427639,0.021509392187,0.0353300757706,-0.0118000227958,0.999074578285
1503103887038061992,59736,1503103887037942997,world,0.497602403164,0.461840361357,0.580016374588,0.0218816678971,0.0354482978582,-0.0123137859628,0.999056041241
1503103887048339499,59737,1503103887048184986,world,0.497539788485,0.461869269609,0.581787824631,0.0217901449651,0.0358182750642,-0.0116953067482,0.999052286148
1503103887048359181,59738,1503103887048208820,world,0.497298955917,0.461820274591,0.583861649036,0.0221558474004,0.0364089272916,-0.0121346917003,0.999017655849
1503103887058564243,59739,1503103887058424370,world,0.497170597315,0.461737185717,0.585462033749,0.0215587560087,0.0359721928835,-0.0117128770798,0.999051630497
1503103887078097944,59740,1503103887077989572,world,0.496963977814,0.461763560772,0.587696313858,0.0204426981509,0.036322645843,-0.0119509547949,0.999059557915
1503103887088395956,59741,1503103887088253540,world,0.496832549572,0.461578339338,0.589358627796,0.019941424951,0.0368197113276,-0.0118689993396,0.999052464962
1503103887088407114,59742,1503103887088277502,world,0.49667814374,0.461513966322,0.591294288635,0.0182416979223,0.036892876029,-0.0118294507265,0.999082684517
1503103887098596028,59743,1503103887098485690,world,0.496469944715,0.461272805929,0.59337502718,0.0169057026505,0.0368928648531,-0.0112233394757,0.999113202095
1503103887118542966,59744,1503103887118337803,world,0.496296525002,0.461158514023,0.595025002956,0.0155707364902,0.0369438678026,-0.0110063739121,0.999135375023
1503103887118549135,59745,1503103887118371957,world,0.49608027935,0.461013227701,0.597270905972,0.013914748095,0.0373553447425,-0.011005022563,0.999144554138
1503103887137845044,59746,1503103887137772601,world,0.495878666639,0.460775852203,0.598988294601,0.0123492591083,0.0375372432172,-0.010894623585,0.999159514904
1503103887148130313,59747,1503103887148008052,world,0.495671749115,0.460523724556,0.601029932499,0.0103088673204,0.038065161556,-0.0102608716115,0.999169409275
1503103887158316361,59748,1503103887158241804,world,0.49541258812,0.460270941257,0.603069126606,0.00846058968455,0.0378307029605,-0.0103942891583,0.999194324017
1503103887168690837,59749,1503103887168504120,world,0.495219379663,0.460115015507,0.604747951031,0.00566686037928,0.0378373488784,-0.00998618267477,0.999217987061
1503103887168695870,59750,1503103887168531427,world,0.494787424803,0.459457367659,0.606981039047,0.00445654662326,0.0385014563799,-0.0132476687431,0.999160826206
1503103887188066891,59751,1503103887187965676,world,0.494598865509,0.459068179131,0.608646631241,0.00277878437191,0.0381399132311,-0.0130206756294,0.99918371439
1503103887198378646,59752,1503103887198273065,world,0.4943395257,0.45875108242,0.610696434975,0.000447839702247,0.0382130667567,-0.0129545833915,0.999185502529
1503103887198444542,59753,1503103887198350787,world,0.493942111731,0.458135813475,0.612860321999,-0.00151199125685,0.0386326350272,-0.012296276167,0.999176740646
1503103887217906573,59754,1503103887217771076,world,0.493723958731,0.457875579596,0.61455565691,-0.00399149302393,0.0384607948363,-0.012299333699,0.999176442623
1503103887228099048,59755,1503103887227989238,world,0.493435680866,0.457473784685,0.616628706455,-0.00617559393868,0.0386187210679,-0.0122738666832,0.999159514904
1503103887238452673,59756,1503103887238296422,world,0.493130207062,0.457014203072,0.618286013603,-0.00850560236722,0.0386616326869,-0.0125285433605,0.999137639999
1503103887248702020,59757,1503103887248584865,world,0.492597937584,0.456666380167,0.620043337345,-0.0110740642995,0.0383380353451,-0.012314401567,0.999127566814
1503103887248710272,59758,1503103887248611438,world,0.492028743029,0.455782532692,0.621566057205,-0.00905653927475,0.0367243476212,-0.0126289753243,0.999204576015
1503103887268107611,59759,1503103887268019596,world,0.491686999798,0.455115735531,0.623145401478,-0.0130526982248,0.0371977612376,-0.0103065324947,0.999169528484
1503103887278485790,59760,1503103887278318446,world,0.491424828768,0.454616546631,0.624919295311,-0.0121080474928,0.0369203872979,-0.0124195571989,0.999167621136
1503103887278493897,59761,1503103887278344009,world,0.491098076105,0.454103887081,0.626420736313,-0.0138380900025,0.0366778001189,-0.0126786502078,0.999150872231
1503103887297957027,59762,1503103887297779490,world,0.490743339062,0.453643262386,0.627883255482,-0.0155489314348,0.0369054712355,-0.0128397354856,0.999115288258
1503103887308287190,59763,1503103887308121304,world,0.490243077278,0.452958077192,0.629728972912,-0.0167816001922,0.0370056256652,-0.0130912903696,0.999088346958
1503103887318522916,59764,1503103887318386309,world,0.489924043417,0.452434808016,0.630819141865,-0.0186686441302,0.0366859287024,-0.0133665837348,0.999063014984
1503103887318538801,59765,1503103887318410912,world,0.489496856928,0.451541095972,0.632612168789,-0.0212436169386,0.0363699868321,-0.0119171086699,0.999041497707
1503103887337968252,59766,1503103887337876409,world,0.489116042852,0.45083591342,0.633862257004,-0.0222349390388,0.0360840596259,-0.012648015283,0.999021351337
1503103887348340014,59767,1503103887348147933,world,0.48877504468,0.450186282396,0.635005652905,-0.0235288161784,0.0361851677299,-0.0133274840191,0.998979210854
1503103887358530043,59768,1503103887358434050,world,0.488297730684,0.449471980333,0.636632561684,-0.0241301432252,0.0365681089461,-0.0138322133571,0.998944044113
1503103887367890081,59769,1503103887367783384,world,0.487955719233,0.448860526085,0.637269616127,-0.0254858862609,0.036723267287,-0.0142605360597,0.998898684978
1503103887378225258,59770,1503103887378115261,world,0.487512022257,0.448130726814,0.638785243034,-0.0264232959598,0.0366174839437,-0.0146977407858,0.998871862888
1503103887388563854,59771,1503103887388371016,world,0.487019270658,0.447431266308,0.639742195606,-0.0269224792719,0.0363445729017,-0.0150065319613,0.998863875866
1503103887388573549,59772,1503103887388398146,world,0.486654222012,0.446700066328,0.640519559383,-0.0278311111033,0.0360194258392,-0.0154014537111,0.99884480238
1503103887408319959,59773,1503103887408156471,world,0.4862164855,0.446010410786,0.641798734665,-0.0283784959465,0.0362151823938,-0.0155179537833,0.998820483685
1503103887418454689,59774,1503103887418377859,world,0.485803872347,0.445193707943,0.642143845558,-0.0288907010108,0.0362852439284,-0.0158354453743,0.998798251152
1503103887418503160,59775,1503103887418428943,world,0.485319674015,0.444480478764,0.643205761909,-0.029508702457,0.0362862721086,-0.0160218253732,0.998777151108
1503103887438186397,59776,1503103887437989595,world,0.484893709421,0.443793535233,0.643848240376,-0.030298512429,0.0364186726511,-0.0164095256478,0.998742341995
1503103887448426562,59777,1503103887448320968,world,0.484443992376,0.443011075258,0.644174337387,-0.0309468153864,0.0363037399948,-0.0163565613329,0.998727560043
1503103887448437018,59778,1503103887448347445,world,0.483987182379,0.442296922207,0.645092010498,-0.0313275679946,0.0360297597945,-0.0164703335613,0.998723685741
1503103887467878873,59779,1503103887467763845,world,0.483514219522,0.441459745169,0.645295321941,-0.0313053950667,0.0355917997658,-0.0167095027864,0.998736262321
1503103887478177853,59780,1503103887478066654,world,0.483047544956,0.440807878971,0.645774781704,-0.0321291871369,0.0357528552413,-0.0168082062155,0.998702645302
1503103887488556054,59781,1503103887488436761,world,0.482604503632,0.440015465021,0.646145224571,-0.0324781835079,0.0359851643443,-0.0172822531313,0.998674869537
1503103887488582958,59782,1503103887488463976,world,0.482148051262,0.439263701439,0.646136164665,-0.0324736051261,0.0360583364964,-0.0176168810576,0.998666584492
1503103887508178014,59783,1503103887508026021,world,0.4817070961,0.438564985991,0.646479904652,-0.0329388156533,0.0363993048668,-0.0182015821338,0.998628497124
1503103887518545095,59784,1503103887518308863,world,0.481237858534,0.437833398581,0.646458625793,-0.0333197824657,0.0362024568021,-0.0187848769128,0.998612225056
1503103887519093526,59785,1503103887518340943,world,0.480729699135,0.437221288681,0.646461427212,-0.033606801182,0.0363208539784,-0.018940731883,0.998595297337
1503103887538603263,59786,1503103887538466426,world,0.480398565531,0.436512380838,0.646489799023,-0.0336246266961,0.0359051078558,-0.0188036933541,0.998612344265
1503103887538611619,59787,1503103887538507068,world,0.479886710644,0.435850471258,0.64625197649,-0.0333847850561,0.0358222164214,-0.0185690801591,0.998627841473
1503103887558176328,59788,1503103887558087492,world,0.479455471039,0.435262769461,0.64611107111,-0.0329795926809,0.0359716787934,-0.0185598675162,0.998636007309
1503103887568598390,59789,1503103887568458949,world,0.478976726532,0.434615284204,0.645743608475,-0.0327689386904,0.0361780785024,-0.0191041510552,0.998625218868
1503103887568602800,59790,1503103887568498111,world,0.478469192982,0.433984786272,0.645354092121,-0.032592561096,0.0363439917564,-0.0194096136838,0.998619139194
1503103887588169029,59791,1503103887587983912,world,0.478076845407,0.433446526527,0.645045638084,-0.0327768921852,0.0363645069301,-0.0193915478885,0.998612701893
1503103887598543537,59792,1503103887598276675,world,0.477554053068,0.43289104104,0.644360899925,-0.0326425880194,0.0362373478711,-0.0198024585843,0.998613655567
1503103887608004039,59793,1503103887607601722,world,0.477181971073,0.432308912277,0.643784761429,-0.0323523506522,0.0362385138869,-0.0196279250085,0.998626470566
1503103887617907982,59794,1503103887617818173,world,0.476773202419,0.431744962931,0.643193185329,-0.0320165194571,0.0363949798048,-0.0192886311561,0.998638212681
1503103887628371438,59795,1503103887628174795,world,0.476292341948,0.431164383888,0.642385184765,-0.0317381992936,0.0365772768855,-0.0194565318525,0.998637199402
1503103887638654959,59796,1503103887638501473,world,0.475926011801,0.430626869202,0.641605854034,-0.0316291898489,0.0365381911397,-0.0197247900069,0.998636841774
1503103887647997536,59797,1503103887647800457,world,0.475438892841,0.430134057999,0.640599608421,-0.0316678248346,0.0368444360793,-0.0203393213451,0.998611986637
1503103887658303002,59798,1503103887658125324,world,0.475049287081,0.42958176136,0.639669954777,-0.0317523740232,0.0371099077165,-0.0203324463218,0.998599588871
1503103887668588221,59799,1503103887668425918,world,0.474491387606,0.429239243269,0.638865411282,-0.0325927473605,0.0365172885358,-0.019138738513,0.998618006706
1503103887677830086,59800,1503103887677688626,world,0.47409683466,0.428692281246,0.637815475464,-0.0326472520828,0.0364397615194,-0.0192368049175,0.998617172241
1503103887688216006,59801,1503103887688088202,world,0.473884761333,0.427966862917,0.636443912983,-0.0308453198522,0.0372430197895,-0.020001264289,0.998629808426
1503103887698467551,59802,1503103887698381547,world,0.47346380353,0.427523076534,0.63526904583,-0.0295106060803,0.037627261132,-0.0201322678477,0.998653113842
1503103887707764906,59803,1503103887707582863,world,0.473049283028,0.427055299282,0.634061634541,-0.0279556550086,0.0375047624111,-0.0195772275329,0.998713493347
1503103887717921341,59804,1503103887717804767,world,0.472719401121,0.426594674587,0.632704675198,-0.0266536604613,0.0378335379064,-0.0184447113425,0.998758196831
1503103887728229657,59805,1503103887728063578,world,0.472284585238,0.426042556763,0.631541311741,-0.0252916887403,0.0382660366595,-0.0185526963323,0.998775184155
1503103887738504449,59806,1503103887738316875,world,0.471955835819,0.425557404757,0.630032002926,-0.0238666106015,0.038158159703,-0.018439039588,0.998816430569
1503103887748775385,59807,1503103887748596128,world,0.471608042717,0.42514398694,0.628678023815,-0.0225615445524,0.0384958051145,-0.018405104056,0.998834490776
1503103887757953000,59808,1503103887757811531,world,0.471224725246,0.424616605043,0.627314686775,-0.0203950256109,0.0387171655893,-0.0179084669799,0.998881578445
1503103887768218335,59809,1503103887768086524,world,0.470891475677,0.424174457788,0.625608146191,-0.0186611171812,0.0388928614557,-0.0172958634794,0.99891936779
1503103887778446456,59810,1503103887778319103,world,0.470503777266,0.423683315516,0.624333500862,-0.0164185669273,0.0393666774035,-0.0167637467384,0.998949289322
1503103887787697207,59811,1503103887787535018,world,0.470153361559,0.423114985228,0.622703671455,-0.0142608759925,0.0393408685923,-0.0164266135544,0.99898904562
1503103887798015335,59812,1503103887797833362,world,0.469913423061,0.4228926301,0.621112585068,-0.011779550463,0.0393420569599,-0.017808098346,0.998997688293
1503103887808280491,59813,1503103887808164273,world,0.469512104988,0.422403156757,0.619503080845,-0.00976299028844,0.0395477078855,-0.0181233473122,0.999005615711
1503103887818635185,59814,1503103887818469716,world,0.469080775976,0.42169675231,0.617750942707,-0.00978084653616,0.0399042516947,-0.0158868283033,0.99902933836
1503103887827873696,59815,1503103887827723878,world,0.469024062157,0.421396911144,0.616277515888,-0.0074900360778,0.0405589714646,-0.0166113972664,0.999010980129
1503103887838102672,59816,1503103887837947619,world,0.468658089638,0.420839160681,0.614264011383,-0.00593913998455,0.0406864322722,-0.0155280055478,0.999033629894
1503103887848390133,59817,1503103887848197845,world,0.468016445637,0.420351982117,0.612822175026,-0.00493741547689,0.0404151789844,-0.0151895685121,0.99905538559
1503103887858578120,59818,1503103887858467131,world,0.467706292868,0.41972899437,0.611208677292,-0.00375140295364,0.0408042930067,-0.0145595893264,0.999054014683
1503103887867752979,59819,1503103887867670463,world,0.466988623142,0.419849157333,0.608774960041,0.00547486310825,0.0391407348216,-0.0185363609344,0.999046742916
1503103887878049805,59820,1503103887877919465,world,0.466543108225,0.419241786003,0.607366323471,0.00587348453701,0.0400229878724,-0.0173595491797,0.999030649662
1503103887888315707,59821,1503103887888141630,world,0.466130197048,0.418653219938,0.605109453201,0.00789599958807,0.0393395759165,-0.0172565262765,0.999045670033
1503103887898553888,59822,1503103887898372304,world,0.465872198343,0.418102920055,0.603655815125,0.00696501880884,0.0401865281165,-0.0157285556197,0.999044120312
1503103887907690329,59823,1503103887907545921,world,0.465613424778,0.417525291443,0.601643919945,0.00763492099941,0.0401668027043,-0.0153107764199,0.999046504498
1503103887917877934,59824,1503103887917798690,world,0.465134292841,0.416995078325,0.599747419357,0.00738753378391,0.040453247726,-0.0147642949596,0.999045073986
1503103887928361186,59825,1503103887928181330,world,0.464654117823,0.416493356228,0.598254561424,0.00787048600614,0.0414740368724,-0.0142853073776,0.999006509781
1503103887938632494,59826,1503103887938432726,world,0.464740484953,0.415951311588,0.596811294556,-0.0051290714182,0.044856954366,-0.0082427393645,0.99894630909
1503103887947878721,59827,1503103887947709753,world,0.464360445738,0.415816366673,0.594996750355,-0.00388799072243,0.0448761209846,-0.00852718576789,0.998948633671
1503103887958124064,59828,1503103887958000104,world,0.463873356581,0.41491869092,0.593387722969,-0.00441667763516,0.0458428971469,-0.00658274395391,0.998917162418
1503103887968416631,59829,1503103887968243513,world,0.46344345808,0.414580702782,0.591169774532,-0.00309647549875,0.0454158224165,-0.00690241064876,0.99893951416
1503103887978651569,59830,1503103887978467896,world,0.462953478098,0.41414731741,0.589522778988,-0.0022934298031,0.0456190742552,-0.00662555266172,0.998934328556
1503103887987906694,59831,1503103887987734376,world,0.462336152792,0.41358268261,0.587392449379,-0.00122600607574,0.0460368879139,-0.00650334171951,0.998917818069
1503103887998140206,59832,1503103887997989015,world,0.46181166172,0.413166075945,0.585905969143,-0.000907377398107,0.0470029562712,-0.00615904433653,0.998875379562
1503103888008397125,59833,1503103888008234161,world,0.461333274841,0.412663429976,0.584065139294,0.000556827988476,0.0473990030587,-0.00602650968358,0.998857676983
1503103888018642440,59834,1503103888018481242,world,0.460683524609,0.412241965532,0.58215457201,0.00165395019576,0.0476837456226,-0.00593618443236,0.998843371868
1503103888027884345,59835,1503103888027741317,world,0.460098326206,0.411804050207,0.580649256706,0.00311075104401,0.0481042414904,-0.00637047272176,0.99881708622
1503103888038148133,59836,1503103888038001272,world,0.459486156702,0.411326527596,0.578735768795,0.00445093726739,0.0480065830052,-0.00691883359104,0.998813092709
1503103888048337504,59837,1503103888048249936,world,0.458881348372,0.410952925682,0.577198922634,0.00557613419369,0.0486628226936,-0.00634748721495,0.998779475689
1503103888058588026,59838,1503103888058481270,world,0.458245635033,0.410486102104,0.575455129147,0.00708356080577,0.0490298643708,-0.00702436640859,0.998747527599
1503103888067923781,59839,1503103888067734909,world,0.457556933165,0.41022092104,0.573601901531,0.00769702345133,0.0494267120957,-0.00745960883796,0.998720288277
1503103888078133474,59840,1503103888077963352,world,0.456918537617,0.409803181887,0.572274386883,0.00913686305285,0.0501505099237,-0.0076197264716,0.998670876026
1503103888088329940,59841,1503103888088188665,world,0.456274300814,0.409308433533,0.570398628712,0.0107822418213,0.0503201261163,-0.00809052120894,0.998642146587
1503103888098546094,59842,1503103888098435981,world,0.455573409796,0.409006536007,0.568966805935,0.0121388081461,0.0510184429586,-0.00886414200068,0.998584568501
1503103888107792042,59843,1503103888107652689,world,0.454892635345,0.408645063639,0.567494928837,0.0136836878955,0.0511083528399,-0.00945699866861,0.998554646969
1503103888118252272,59844,1503103888118116787,world,0.454192042351,0.408344984055,0.565806090832,0.0154054816812,0.0511178262532,-0.00976434908807,0.998525977135
1503103888128564337,59845,1503103888128361361,world,0.45347225666,0.40803655982,0.564653038979,0.0168328601867,0.0517918989062,-0.0107561731711,0.998458147049
1503103888137702368,59846,1503103888137552008,world,0.452785611153,0.407681673765,0.562846064568,0.018277451396,0.0517740026116,-0.0117555689067,0.998422324657
1503103888147933028,59847,1503103888147766876,world,0.452027976513,0.407474309206,0.561700761318,0.0192028544843,0.0522972270846,-0.0123573252931,0.998370468616
1503103888158108488,59848,1503103888157993138,world,0.451294839382,0.407231688499,0.560364127159,0.0202200561762,0.0524238534272,-0.0134334173054,0.998329818249
1503103888168393892,59849,1503103888168214636,world,0.450582236052,0.407035708427,0.558882415295,0.0207894705236,0.0526193790138,-0.0143491486087,0.998295068741
1503103888178577451,59850,1503103888178446940,world,0.449845165014,0.406827002764,0.55791759491,0.0218208450824,0.0532489903271,-0.0153608564287,0.998224616051
1503103888187886096,59851,1503103888187711118,world,0.449166476727,0.406567633152,0.556216180325,0.0231873113662,0.0530766174197,-0.0164428390563,0.998185873032
1503103888198085552,59852,1503103888197976765,world,0.448384672403,0.406424045563,0.555369853973,0.0235989652574,0.0534482598305,-0.0171576384455,0.99814426899
1503103888208426566,59853,1503103888208256857,world,0.447628200054,0.406315505505,0.554150700569,0.0239796992391,0.0535265430808,-0.018055928871,0.998115122318
1503103888218662169,59854,1503103888218506925,world,0.446934252977,0.406254678965,0.552972733974,0.0238803941756,0.0537745505571,-0.0187224354595,0.998091995716
1503103888227913720,59855,1503103888227761208,world,0.44613173604,0.406138688326,0.552232801914,0.0246730577201,0.0543808564544,-0.019535548985,0.998024225235
1503103888238141486,59856,1503103888237988498,world,0.445423334837,0.406071394682,0.550720632076,0.0253693573177,0.0541812665761,-0.0202839393169,0.998002648354
1503103888248435682,59857,1503103888248251381,world,0.444694489241,0.406012177467,0.550314247608,0.0257568396628,0.0546506941319,-0.0205337777734,0.997961997986
1503103888258631241,59858,1503103888258510674,world,0.44391849637,0.405921965837,0.549316704273,0.0270776338875,0.0550086423755,-0.0213153976947,0.997891008854
1503103888267914811,59859,1503103888267739807,world,0.443250745535,0.405912846327,0.548362910748,0.0274743977934,0.0555145181715,-0.0214045513421,0.997850298882
1503103888278200387,59860,1503103888278054569,world,0.442473828793,0.405916005373,0.547943472862,0.0282665286213,0.0559833161533,-0.0216602478176,0.997796416283
1503103888288424018,59861,1503103888288293654,world,0.441769003868,0.406036257744,0.54678529501,0.0287726838142,0.0561036430299,-0.0219261571765,0.997769355774
1503103888298769691,59862,1503103888298609580,world,0.441175609827,0.40633353591,0.546640574932,0.0283453948796,0.0561975091696,-0.0192115828395,0.997832357883
1503103888308010989,59863,1503103888307899931,world,0.44042673707,0.406336396933,0.545873403549,0.0291736219078,0.0564353652298,-0.0192732438445,0.997793793678
1503103888318209733,59864,1503103888318109299,world,0.439811110497,0.406353324652,0.545260429382,0.0299655273557,0.0565543100238,-0.0194225739688,0.99776083231
1503103888328512356,59865,1503103888328365504,world,0.439099878073,0.406364917755,0.545226037502,0.0307709015906,0.0567866303027,-0.0194298066199,0.997722923756
1503103888337776538,59866,1503103888337671618,world,0.438381552696,0.406450539827,0.544356048107,0.0320879332721,0.0574460402131,-0.0193065982312,0.997646033764
1503103888348268650,59867,1503103888347955088,world,0.437704026699,0.406510919333,0.544487893581,0.0323973223567,0.0579259805381,-0.0189760141075,0.997614622116
1503103888358339242,59868,1503103888358177199,world,0.437001377344,0.406501084566,0.544121682644,0.0335799567401,0.0580730997026,-0.0187209900469,0.997571706772
1503103888368581977,59869,1503103888368394292,world,0.436391830444,0.406560689211,0.543892085552,0.034111648798,0.0582024417818,-0.0181823503226,0.99755614996
1503103888377786658,59870,1503103888377607489,world,0.435754179955,0.406583309174,0.544154644012,0.0345940217376,0.0582398697734,-0.0180455949157,0.997539877892
1503103888388012511,59871,1503103888387830292,world,0.435097694397,0.406699150801,0.54369366169,0.0356311872602,0.0583098232746,-0.0179819632322,0.997500419617
1503103888398248396,59872,1503103888398071956,world,0.434483855963,0.406666040421,0.544130802155,0.0354807153344,0.0587503612041,-0.017145883292,0.997494578362
1503103888408408585,59873,1503103888408294874,world,0.433777302504,0.406682342291,0.544085085392,0.0365242771804,0.0588702298701,-0.0164924766868,0.997460842133
1503103888417649272,59874,1503103888417515409,world,0.433212310076,0.406839430332,0.544242203236,0.0367156341672,0.0592647753656,-0.0160089302808,0.997438371181
1503103888427884292,59875,1503103888427769617,world,0.432577043772,0.4068377316,0.544784605503,0.0374490134418,0.0594229921699,-0.0157145932317,0.997406423092
1503103888438146454,59876,1503103888438005474,world,0.431941777468,0.406920075417,0.544734656811,0.0380969643593,0.0595325641334,-0.0147531246766,0.99738997221
1503103888448412179,59877,1503103888448280682,world,0.431346297264,0.406874209642,0.545570373535,0.0381062440574,0.0596812963486,-0.0141254821792,0.997389853001
1503103888458630071,59878,1503103888458526016,world,0.430711686611,0.406994909048,0.545853316784,0.038411449641,0.0596356019378,-0.0135726621374,0.997388601303
1503103888467915776,59879,1503103888467766442,world,0.430109500885,0.407148271799,0.546464860439,0.037858940661,0.0597787871957,-0.0129815442488,0.997408926487
1503103888478144103,59880,1503103888477998237,world,0.429507315159,0.407056301832,0.547285914421,0.0383718311787,0.0600492209196,-0.0124181974679,0.997380256653
1503103888488404943,59881,1503103888488233494,world,0.428928762674,0.407141387463,0.547561883926,0.0387439876795,0.0605713054538,-0.0116831026971,0.997343242168
1503103888498652715,59882,1503103888498489152,world,0.428306847811,0.407023489475,0.548929691315,0.0391795560718,0.0609698817134,-0.0115363029763,0.99730360508
1503103888507893286,59883,1503103888507761255,world,0.427773296833,0.407130122185,0.549468874931,0.0398272052407,0.0608609803021,-0.0109627097845,0.997291088104
1503103888518137176,59884,1503103888517989417,world,0.427141875029,0.407191485167,0.550530552864,0.039441306144,0.0612911321223,-0.0109068378806,0.997280716896
1503103888528443171,59885,1503103888528224136,world,0.426525086164,0.407083004713,0.551732182503,0.0401306152344,0.061082623899,-0.0105808172375,0.997269511223
1503103888538637010,59886,1503103888538455031,world,0.426006495953,0.407178461552,0.55238109827,0.0396776050329,0.0611329264939,-0.00982229784131,0.997292339802
1503103888547941419,59887,1503103888547766341,world,0.42531517148,0.40706962347,0.554069817066,0.0397649742663,0.0615101866424,-0.0100345024839,0.997263491154
1503103888558047180,59888,1503103888557977301,world,0.424779742956,0.407197505236,0.555014193058,0.0397398844361,0.061547383666,-0.00958058144897,0.997266709805
1503103888568459606,59889,1503103888568329869,world,0.42416164279,0.407138615847,0.556324720383,0.0397383458912,0.061861846596,-0.00934604648501,0.997249484062
1503103888577758517,59890,1503103888577568670,world,0.423556387424,0.406962960958,0.557961881161,0.0404218584299,0.0618736185133,-0.00946924462914,0.997220098972
1503103888588030892,59891,1503103888587820703,world,0.423029869795,0.407123714685,0.559145450592,0.0403873361647,0.0622908659279,-0.00930701289326,0.997197091579
1503103888598281947,59892,1503103888598108450,world,0.422312498093,0.407076716423,0.560946822166,0.0402806438506,0.0625105574727,-0.00971846096218,0.997183680534
1503103888608532633,59893,1503103888608373957,world,0.421771913767,0.407060056925,0.562523603439,0.0399676561356,0.0624040365219,-0.00922282692045,0.997207760811
1503103888617721845,59894,1503103888617551830,world,0.421113908291,0.407065570354,0.564240157604,0.0397700183094,0.0627869367599,-0.00939907412976,0.997189939022
1503103888627948951,59895,1503103888627797005,world,0.420483380556,0.407004535198,0.566082179546,0.0400865972042,0.0631028264761,-0.00977504719049,0.997153639793
1503103888638112746,59896,1503103888638029260,world,0.419918656349,0.407002270222,0.567847251892,0.0397785454988,0.0629721209407,-0.0100822756067,0.997171282768
1503103888648414746,59897,1503103888648259587,world,0.419253140688,0.406859070063,0.569846689701,0.0400743708014,0.0630510300398,-0.0099678253755,0.997155666351
1503103888658692774,59898,1503103888658503168,world,0.418683350086,0.406800180674,0.57189053297,0.0398325808346,0.0631596297026,-0.00998823903501,0.997158229351
1503103888667881560,59899,1503103888667742999,world,0.418006628752,0.406858563423,0.573901474476,0.0391817390919,0.0635411590338,-0.0104133849964,0.997155487537
1503103888678131605,59900,1503103888677968407,world,0.417358905077,0.406642645597,0.576090991497,0.0398605540395,0.0635944753885,-0.0106157204136,0.997122943401
1503103888688341210,59901,1503103888688232699,world,0.416773885489,0.406627804041,0.57827937603,0.0394048839808,0.0639869943261,-0.0105978902429,0.997116208076
1503103888698677772,59902,1503103888698510429,world,0.41606631875,0.40643748641,0.580594718456,0.0390791147947,0.0642112866044,-0.010663705878,0.997113883495
1503103888707938691,59903,1503103888707761587,world,0.415410578251,0.406503111124,0.582969486713,0.0379164330661,0.0642591491342,-0.0106368474662,0.997155964375
1503103888718190450,59904,1503103888718000321,world,0.41474366188,0.406365871429,0.585318088531,0.0373290739954,0.0645114779472,-0.0110637592152,0.997157156467
1503103888728411060,59905,1503103888728235866,world,0.4140381217,0.406248182058,0.587763369083,0.0363581776619,0.0643819570541,-0.0113270450383,0.997198402882
1503103888738614879,59906,1503103888738456296,world,0.412999361753,0.405805110931,0.589868366718,0.0427028723061,0.0624328404665,-0.0132791316137,0.997046768665
1503103888747837757,59907,1503103888747668831,world,0.412273108959,0.405612170696,0.59246212244,0.0433229953051,0.0625110268593,-0.0138670438901,0.997007071972
1503103888757969300,59908,1503103888757864681,world,0.411648333073,0.405383497477,0.595072329044,0.0417838208377,0.0627397298813,-0.013593589887,0.997062206268
1503103888768275989,59909,1503103888768099668,world,0.410906404257,0.405354917049,0.597800433636,0.0408668555319,0.0629330649972,-0.0136950304732,0.997086644173
1503103888778479134,59910,1503103888778325839,world,0.410201013088,0.405128717422,0.600537180901,0.0415686033666,0.0631212070584,-0.0143263963982,0.997036874294
1503103888788734492,59911,1503103888788556739,world,0.409562826157,0.404915213585,0.603363513947,0.0392067246139,0.0634796097875,-0.0137597415596,0.997117757797
1503103888797947612,59912,1503103888797778048,world,0.408836364746,0.404819965363,0.606199860573,0.0385423526168,0.0635141208768,-0.0142281819135,0.997134923935
1503103888808130823,59913,1503103888808021417,world,0.408153384924,0.404576182365,0.60910987854,0.0362601242959,0.0634320154786,-0.0147369774058,0.997218310833
1503103888818385645,59914,1503103888818292604,world,0.407429754734,0.404399871826,0.612061977386,0.0342843569815,0.0636994987726,-0.0148720247671,0.997269153595
1503103888828719825,59915,1503103888828552540,world,0.406771868467,0.40425080061,0.614929080009,0.033631619066,0.0641160383821,-0.0155115555972,0.997254908085
1503103888837943723,59916,1503103888837794697,world,0.406061142683,0.403946429491,0.618013978004,0.0307201445103,0.0640838816762,-0.0152826951817,0.997354507446
1503103888848155760,59917,1503103888848032366,world,0.40536943078,0.403677046299,0.621060013771,0.0294755771756,0.0644450336695,-0.0155077120289,0.997365295887
1503103888858394495,59918,1503103888858338689,world,0.404288291931,0.403333961964,0.624166488647,0.033520322293,0.0639786571264,-0.0220465138555,0.997144460678
1503103888867644415,59919,1503103888867511322,world,0.403527766466,0.403083920479,0.627266585827,0.0313856750727,0.0637973621488,-0.0218932814896,0.997228980064
1503103888877995143,59920,1503103888877831022,world,0.40293982625,0.402824014425,0.6302947402,0.0303931683302,0.0642739757895,-0.022478427738,0.997216045856
1503103888888122195,59921,1503103888888042367,world,0.402254611254,0.402482926846,0.633499622345,0.0273300576955,0.0645999908447,-0.022418493405,0.997284948826
1503103888898449626,59922,1503103888898317927,world,0.401561588049,0.402117878199,0.636630833149,0.0252271145582,0.0650758445263,-0.0220779515803,0.997317075729
1503103888907632238,59923,1503103888907521945,world,0.400903880596,0.401954144239,0.639835357666,0.0222008898854,0.0652660802007,-0.0222717095166,0.997372210026
1503103888917859164,59924,1503103888917767476,world,0.400087803602,0.401729822159,0.643022596836,0.021159209311,0.0652339830995,-0.0224715583026,0.99739253521
1503103888928185432,59925,1503103888928024642,world,0.399514764547,0.401340156794,0.646156668663,0.020184578374,0.0655480697751,-0.0225424375385,0.997390508652
1503103888938430665,59926,1503103888938262152,world,0.39883300662,0.401023745537,0.649334430695,0.0164107065648,0.0659060850739,-0.0216035339981,0.997456908226
1503103888948678556,59927,1503103888948505754,world,0.398056358099,0.40066999197,0.652490437031,0.0158438757062,0.0658271089196,-0.0223597660661,0.997454702854
1503103888957914135,59928,1503103888957737618,world,0.3974840343,0.400337338448,0.655642867088,0.0130720064044,0.0667429938912,-0.0217019766569,0.997448444366
1503103888968094654,59929,1503103888967987334,world,0.396630913019,0.400080829859,0.658817887306,0.0118042100221,0.0667915567756,-0.0219059810042,0.997456610203
1503103888978827816,59930,1503103888978233377,world,0.395985633135,0.399702936411,0.661910712719,0.0113537060097,0.0668203309178,-0.0222696140409,0.997451782227
1503103888988656834,59931,1503103888988474278,world,0.395273476839,0.399335682392,0.665084481239,0.00880188960582,0.0672111734748,-0.0215382296592,0.997467458248
1503103888997861010,59932,1503103888997705989,world,0.394530504942,0.398893147707,0.668266236782,0.00846261996776,0.0672396942973,-0.0213650446385,0.99747222662
1503103889008096230,59933,1503103889007951739,world,0.393916219473,0.398558825254,0.671387791634,0.00754707539454,0.0679610818624,-0.0211990587413,0.997434198856
1503103889018379778,59934,1503103889018186215,world,0.393048733473,0.3982655406,0.674466371536,0.00636102445424,0.0679841563106,-0.0206950716674,0.997451484203
1503103889028623928,59935,1503103889028435577,world,0.392364621162,0.397822588682,0.67748105526,0.00615087384358,0.0682027712464,-0.0202683862299,0.997446596622
1503103889037839035,59936,1503103889037659743,world,0.391657590866,0.397405773401,0.680534303188,0.00442604580894,0.0688304677606,-0.0193111896515,0.997431635857
