%time,field.header.seq,field.header.stamp,field.header.frame_id,field.vector.x,field.vector.y,field.vector.z
1503174255016019106,3030,1503174255015823939,ardrone_base_link,0.229383811355,0.187677651644,0.955070734024
1503174255018417853,3031,1503174255018285507,ardrone_base_link,0.229383811355,0.187677651644,0.955070734024
1503174255023489874,3032,1503174255023349896,ardrone_base_link,0.213820040226,0.180279642344,0.960093855858
1503174255029786996,3033,1503174255029652434,ardrone_base_link,0.213820040226,0.180279642344,0.960093855858
1503174255041661277,3034,1503174255041473396,ardrone_base_link,0.228243276477,0.170144990087,0.958621799946
1503174255045779055,3035,1503174255045480943,ardrone_base_link,0.228243276477,0.170144990087,0.958621799946
1503174255047274150,3036,1503174255047144049,ardrone_base_link,0.207456380129,0.174263358116,0.962597608566
1503174255048545813,3037,1503174255048372652,ardrone_base_link,0.207456380129,0.174263358116,0.962597608566
1503174255053528238,3038,1503174255053418438,ardrone_base_link,0.230073168874,0.171509087086,0.957940995693
1503174255064411177,3039,1503174255064207013,ardrone_base_link,0.230073168874,0.171509087086,0.957940995693
1503174255065498960,3040,1503174255065336679,ardrone_base_link,0.199649631977,0.174162447453,0.964265286922
1503174255068506216,3041,1503174255068306887,ardrone_base_link,0.199649631977,0.174162447453,0.964265286922
1503174255076658882,3042,1503174255076419348,ardrone_base_link,0.215878948569,0.173549741507,0.96087294817
1503174255083646500,3043,1503174255083477069,ardrone_base_link,0.215878948569,0.173549741507,0.96087294817
1503174255089360581,3044,1503174255089191155,ardrone_base_link,0.196223169565,0.179160282016,0.964052975178
1503174255093149920,3045,1503174255092994097,ardrone_base_link,0.196223169565,0.179160282016,0.964052975178
1503174255096596554,3046,1503174255096185526,ardrone_base_link,0.208839893341,0.19179174304,0.958958685398
1503174255098541843,3047,1503174255098346165,ardrone_base_link,0.208839893341,0.19179174304,0.958958685398
1503174255107168348,3048,1503174255106956084,ardrone_base_link,0.224288001657,0.181155696511,0.957537233829
1503174255109285265,3049,1503174255109155767,ardrone_base_link,0.224288001657,0.181155696511,0.957537233829
1503174255113878869,3050,1503174255113682941,ardrone_base_link,0.194621950388,0.177698299289,0.964647889137
1503174255118856329,3051,1503174255118675170,ardrone_base_link,0.194621950388,0.177698299289,0.964647889137
1503174255123859337,3052,1503174255123646048,ardrone_base_link,0.216441333294,0.19146732986,0.9573366642
1503174255129960194,3053,1503174255129799252,ardrone_base_link,0.216441333294,0.19146732986,0.9573366642
1503174255135395391,3054,1503174255135168758,ardrone_base_link,0.220034480095,0.178518548608,0.959018230438
1503174255139219640,3055,1503174255139049652,ardrone_base_link,0.220034480095,0.178518548608,0.959018230438
1503174255146271809,3056,1503174255146086271,ardrone_base_link,0.2088124156,0.183754920959,0.960537075996
1503174255148974474,3057,1503174255148819298,ardrone_base_link,0.2088124156,0.183754920959,0.960537075996
1503174255154027098,3058,1503174255153855732,ardrone_base_link,0.201106339693,0.175968036056,0.963634490967
1503174255159049896,3059,1503174255158834703,ardrone_base_link,0.201106339693,0.175968036056,0.963634490967
1503174255171550067,3060,1503174255171327402,ardrone_base_link,0.216609820724,0.199620828032,0.955631613731
1503174255180440894,3061,1503174255180258192,ardrone_base_link,0.216609820724,0.199620828032,0.955631613731
1503174255181100556,3062,1503174255180948023,ardrone_base_link,0.194908261299,0.169485449791,0.966067016125
1503174255184662240,3063,1503174255184405867,ardrone_base_link,0.194908261299,0.169485449791,0.966067016125
1503174255195302010,3064,1503174255195005330,ardrone_base_link,0.218179479241,0.193004921079,0.956633090973
1503174255196173813,3065,1503174255196005064,ardrone_base_link,0.218179479241,0.193004921079,0.956633090973
1503174255199239679,3066,1503174255199060404,ardrone_base_link,0.233818262815,0.174300894141,0.956529259682
1503174255200345683,3067,1503174255200096603,ardrone_base_link,0.233818262815,0.174300894141,0.956529259682
1503174255205539371,3068,1503174255205326592,ardrone_base_link,0.210165679455,0.193352416158,0.958355486393
1503174255211656181,3069,1503174255211469883,ardrone_base_link,0.210165679455,0.193352416158,0.958355486393
1503174255214806946,3070,1503174255214627948,ardrone_base_link,0.237681344151,0.17718064785,0.955046892166
1503174255219210400,3071,1503174255219034294,ardrone_base_link,0.237681344151,0.17718064785,0.955046892166
1503174255225570318,3072,1503174255225378153,ardrone_base_link,0.198026880622,0.17274685204,0.964854359627
1503174255238088324,3073,1503174255237776230,ardrone_base_link,0.198026880622,0.17274685204,0.964854359627
1503174255239474567,3074,1503174255239234055,ardrone_base_link,0.206102594733,0.172453194857,0.963214218616
1503174255240472734,3075,1503174255240241376,ardrone_base_link,0.206102594733,0.172453194857,0.963214218616
1503174255244462689,3076,1503174255244142823,ardrone_base_link,0.222127065063,0.171834141016,0.959756553173
1503174255251594676,3077,1503174255251397337,ardrone_base_link,0.222127065063,0.171834141016,0.959756553173
1503174255255519822,3078,1503174255255286303,ardrone_base_link,0.225413575768,0.182882711291,0.956944465637
1503174255259265372,3079,1503174255259101303,ardrone_base_link,0.225413575768,0.182882711291,0.956944465637
1503174255267344356,3080,1503174255267140265,ardrone_base_link,0.200988724828,0.183883294463,0.96218007803
1503174255273833925,3081,1503174255273655766,ardrone_base_link,0.200988724828,0.183883294463,0.96218007803
1503174255281353010,3082,1503174255281126755,ardrone_base_link,0.212111860514,0.178839400411,0.96074193716
1503174255282857249,3083,1503174255282726320,ardrone_base_link,0.212111860514,0.178839400411,0.96074193716
1503174255288353289,3084,1503174255288186988,ardrone_base_link,0.216970205307,0.191444307566,0.957221508026
1503174255289192714,3085,1503174255289069085,ardrone_base_link,0.216970205307,0.191444307566,0.957221508026
1503174255294778794,3086,1503174255294041667,ardrone_base_link,0.212860405445,0.170288324356,0.962129056454
1503174255305192906,3087,1503174255304963899,ardrone_base_link,0.212860405445,0.170288324356,0.962129056454
1503174255306730795,3088,1503174255306586977,ardrone_base_link,0.219771504402,0.152149498463,0.963613510132
1503174255309503969,3089,1503174255309354470,ardrone_base_link,0.219771504402,0.152149498463,0.963613510132
1503174255314991131,3090,1503174255314783658,ardrone_base_link,0.222879990935,0.197648301721,0.954599201679
1503174255319601365,3091,1503174255319443734,ardrone_base_link,0.222879990935,0.197648301721,0.954599201679
1503174255324533582,3092,1503174255324357412,ardrone_base_link,0.214585453272,0.182195201516,0.959561347961
1503174255335508120,3093,1503174255335244891,ardrone_base_link,0.214585453272,0.182195201516,0.959561347961
1503174255345033373,3094,1503174255344808069,ardrone_base_link,0.234797239304,0.176097929478,0.955960154533
1503174255346036876,3095,1503174255345865236,ardrone_base_link,0.234797239304,0.176097929478,0.955960154533
1503174255347387251,3096,1503174255346839828,ardrone_base_link,0.217316612601,0.183227732778,0.958749771118
1503174255355800304,3097,1503174255355597589,ardrone_base_link,0.217316612601,0.183227732778,0.958749771118
1503174255356729835,3098,1503174255356551727,ardrone_base_link,0.203324124217,0.160964936018,0.965789616108
1503174255360724476,3099,1503174255360567151,ardrone_base_link,0.203324124217,0.160964936018,0.965789616108
1503174255377581654,3100,1503174255377351116,ardrone_base_link,0.217966631055,0.166680365801,0.961617469788
1503174255378569212,3101,1503174255378398144,ardrone_base_link,0.217966631055,0.166680365801,0.961617469788
1503174255380088833,3102,1503174255379898708,ardrone_base_link,0.213956728578,0.188281923532,0.958526134491
1503174255381827802,3103,1503174255381548505,ardrone_base_link,0.213956728578,0.188281923532,0.958526134491
1503174255386155656,3104,1503174255386026003,ardrone_base_link,0.222100570798,0.187931254506,0.956740915775
1503174255391042776,3105,1503174255390856382,ardrone_base_link,0.222100570798,0.187931254506,0.956740915775
1503174255394836682,3106,1503174255394595050,ardrone_base_link,0.202742904425,0.177400052547,0.963028848171
1503174255400060964,3107,1503174255399877723,ardrone_base_link,0.202742904425,0.177400052547,0.963028848171
1503174255407634866,3108,1503174255407484132,ardrone_base_link,0.212111860514,0.178839400411,0.96074193716
1503174255409753231,3109,1503174255409609604,ardrone_base_link,0.212111860514,0.178839400411,0.96074193716
1503174255417048513,3110,1503174255416767309,ardrone_base_link,0.227614611387,0.17607922852,0.957699179649
1503174255421068684,3111,1503174255420908255,ardrone_base_link,0.227614611387,0.17607922852,0.957699179649
1503174255431857348,3112,1503174255431656404,ardrone_base_link,0.191472023726,0.174452289939,0.965870022774
1503174255433976135,3113,1503174255433041751,ardrone_base_link,0.191472023726,0.174452289939,0.965870022774
1503174255435990825,3114,1503174255435407269,ardrone_base_link,0.238248258829,0.187195062637,0.952993035316
1503174255441819246,3115,1503174255441591245,ardrone_base_link,0.238248258829,0.187195062637,0.952993035316
1503174255444825352,3116,1503174255444701466,ardrone_base_link,0.201396435499,0.167830362916,0.965024590492
1503174255450926042,3117,1503174255450617251,ardrone_base_link,0.201396435499,0.167830362916,0.965024590492
1503174255455560560,3118,1503174255455305555,ardrone_base_link,0.23193128407,0.172894224524,0.957243680954
1503174255459858799,3119,1503174255459687047,ardrone_base_link,0.23193128407,0.172894224524,0.957243680954
1503174255465820613,3120,1503174255465645246,ardrone_base_link,0.221278592944,0.161703586578,0.961710810661
1503174255491115031,3121,1503174255490877428,ardrone_base_link,0.221278592944,0.161703586578,0.961710810661
1503174255492102332,3122,1503174255491914134,ardrone_base_link,0.227179706097,0.168281272054,0.959203243256
1503174255493296167,3123,1503174255493076761,ardrone_base_link,0.227179706097,0.168281272054,0.959203243256
1503174255498815234,3124,1503174255498619403,ardrone_base_link,0.22685071826,0.176439449191,0.957814157009
1503174255499708809,3125,1503174255499559836,ardrone_base_link,0.22685071826,0.176439449191,0.957814157009
1503174255500797754,3126,1503174255500658910,ardrone_base_link,0.195597752929,0.195597752929,0.96098023653
1503174255501793473,3127,1503174255501667911,ardrone_base_link,0.195597752929,0.195597752929,0.96098023653
1503174255506375589,3128,1503174255506177757,ardrone_base_link,0.194621950388,0.177698299289,0.964647889137
1503174255510230206,3129,1503174255510026808,ardrone_base_link,0.194621950388,0.177698299289,0.964647889137
1503174255515308103,3130,1503174255515076421,ardrone_base_link,0.222449839115,0.179671034217,0.958245456219
1503174255522581805,3131,1503174255522401235,ardrone_base_link,0.222449839115,0.179671034217,0.958245456219
1503174255525105613,3132,1503174255524926172,ardrone_base_link,0.204730808735,0.16294901073,0.965159535408
1503174255530430730,3133,1503174255530254003,ardrone_base_link,0.204730808735,0.16294901073,0.965159535408
1503174255535472660,3134,1503174255535223950,ardrone_base_link,0.210165679455,0.193352416158,0.958355486393
1503174255545748563,3135,1503174255545576953,ardrone_base_link,0.210165679455,0.193352416158,0.958355486393
1503174255556169063,3136,1503174255555969544,ardrone_base_link,0.197424963117,0.189023911953,0.96192163229
1503174255558029595,3137,1503174255557853813,ardrone_base_link,0.197424963117,0.189023911953,0.96192163229
1503174255562341274,3138,1503174255562078213,ardrone_base_link,0.219701498747,0.186539009213,0.957566916943
1503174255580080691,3139,1503174255579798033,ardrone_base_link,0.219701498747,0.186539009213,0.957566916943
1503174255581375977,3140,1503174255581202237,ardrone_base_link,0.226507201791,0.184561431408,0.956363737583
1503174255582792716,3141,1503174255582629544,ardrone_base_link,0.226507201791,0.184561431408,0.956363737583
1503174255584781339,3142,1503174255584554101,ardrone_base_link,0.22096671164,0.169974401593,0.960355341434
1503174255585737548,3143,1503174255585599023,ardrone_base_link,0.22096671164,0.169974401593,0.960355341434
1503174255587385767,3144,1503174255587297944,ardrone_base_link,0.21360501647,0.196516618133,0.956950426102
1503174255590243184,3145,1503174255590079564,ardrone_base_link,0.21360501647,0.196516618133,0.956950426102
1503174255595904869,3146,1503174255595668860,ardrone_base_link,0.21009542048,0.158643484116,0.964723885059
1503174255602789963,3147,1503174255602633913,ardrone_base_link,0.21009542048,0.158643484116,0.964723885059
1503174255605725710,3148,1503174255605472776,ardrone_base_link,0.223568469286,0.165606275201,0.960516393185
1503174255610540797,3149,1503174255610392906,ardrone_base_link,0.223568469286,0.165606275201,0.960516393185
1503174255617063353,3150,1503174255616811419,ardrone_base_link,0.201396435499,0.167830362916,0.965024590492
1503174255625580360,3151,1503174255625393570,ardrone_base_link,0.201396435499,0.167830362916,0.965024590492
1503174255627252475,3152,1503174255627062378,ardrone_base_link,0.205478280783,0.188704535365,0.960296452045
1503174255632203959,3153,1503174255631800708,ardrone_base_link,0.205478280783,0.188704535365,0.960296452045
1503174255637465164,3154,1503174255637238787,ardrone_base_link,0.233260452747,0.166614606977,0.958034038544
1503174255640752601,3155,1503174255640619337,ardrone_base_link,0.233260452747,0.166614606977,0.958034038544
1503174255647395993,3156,1503174255647164892,ardrone_base_link,0.221800044179,0.179950982332,0.958343565464
1503174255653469472,3157,1503174255653301649,ardrone_base_link,0.221800044179,0.179950982332,0.958343565464
1503174255656304594,3158,1503174255656094267,ardrone_base_link,0.206673800945,0.156059801579,0.965883672237
1503174255665537122,3159,1503174255665354605,ardrone_base_link,0.206673800945,0.156059801579,0.965883672237
1503174255686608989,3160,1503174255686398215,ardrone_base_link,0.218179479241,0.193004921079,0.956633090973
1503174255687545650,3161,1503174255687392699,ardrone_base_link,0.218179479241,0.193004921079,0.956633090973
1503174255689418050,3162,1503174255689284569,ardrone_base_link,0.193325102329,0.168108791113,0.966625511646
1503174255692031976,3163,1503174255691877911,ardrone_base_link,0.193325102329,0.168108791113,0.966625511646
1503174255695242282,3164,1503174255695025278,ardrone_base_link,0.220640257001,0.17820943892,0.95893651247
1503174255697122185,3165,1503174255696968941,ardrone_base_link,0.220640257001,0.17820943892,0.95893651247
1503174255698168748,3166,1503174255698030199,ardrone_base_link,0.22869040072,0.177870318294,0.95711171627
1503174255700869216,3167,1503174255700701630,ardrone_base_link,0.22869040072,0.177870318294,0.95711171627
1503174255710778763,3168,1503174255710627921,ardrone_base_link,0.210500657558,0.185240581632,0.959883034229
1503174255712584463,3169,1503174255712439590,ardrone_base_link,0.210500657558,0.185240581632,0.959883034229
1503174255715942501,3170,1503174255715709942,ardrone_base_link,0.207146033645,0.190236151218,0.959635734558
1503174255727197938,3171,1503174255727021259,ardrone_base_link,0.207146033645,0.190236151218,0.959635734558
1503174255736999672,3172,1503174255736807518,ardrone_base_link,0.205796986818,0.180597350001,0.961785912514
1503174255739138601,3173,1503174255738947725,ardrone_base_link,0.205796986818,0.180597350001,0.961785912514
1503174255746764513,3174,1503174255746579778,ardrone_base_link,0.220299422741,0.186407208443,0.957455217838
1503174255750071528,3175,1503174255749882508,ardrone_base_link,0.220299422741,0.186407208443,0.957455217838
1503174255751148587,3176,1503174255751010679,ardrone_base_link,0.216970205307,0.191444307566,0.957221508026
1503174255753326744,3177,1503174255753187688,ardrone_base_link,0.216970205307,0.191444307566,0.957221508026
1503174255757895135,3178,1503174255757613705,ardrone_base_link,0.199347704649,0.182381942868,0.962806999683
1503174255761307434,3179,1503174255761169684,ardrone_base_link,0.199347704649,0.182381942868,0.962806999683
1503174255768520465,3180,1503174255768337803,ardrone_base_link,0.207146033645,0.190236151218,0.959635734558
1503174255786161545,3181,1503174255785947357,ardrone_base_link,0.207146033645,0.190236151218,0.959635734558
1503174255790426459,3182,1503174255790004342,ardrone_base_link,0.209174528718,0.183561325073,0.96049529314
1503174255792080278,3183,1503174255791846206,ardrone_base_link,0.209174528718,0.183561325073,0.96049529314
1503174255797475328,3184,1503174255797259426,ardrone_base_link,0.225413575768,0.182882711291,0.956944465637
1503174255799043551,3185,1503174255798913584,ardrone_base_link,0.225413575768,0.182882711291,0.956944465637
1503174255800636583,3186,1503174255800437670,ardrone_base_link,0.206806287169,0.198365211487,0.958061754704
1503174255802873652,3187,1503174255801872816,ardrone_base_link,0.206806287169,0.198365211487,0.958061754704
1503174255806253025,3188,1503174255806058981,ardrone_base_link,0.226119279861,0.176784172654,0.957923531532
1503174255812499574,3189,1503174255812332925,ardrone_base_link,0.226119279861,0.176784172654,0.957923531532
1503174255825043978,3190,1503174255824746484,ardrone_base_link,0.206830650568,0.190284192562,0.959694206715
1503174255826553675,3191,1503174255826426943,ardrone_base_link,0.206830650568,0.190284192562,0.959694206715
1503174255829690220,3192,1503174255829124854,ardrone_base_link,0.221800044179,0.179950982332,0.958343565464
1503174255832948156,3193,1503174255832744723,ardrone_base_link,0.221800044179,0.179950982332,0.958343565464
1503174255836395800,3194,1503174255836212811,ardrone_base_link,0.231585606933,0.181057840586,0.955816984177
1503174255844777639,3195,1503174255844577550,ardrone_base_link,0.231585606933,0.181057840586,0.955816984177
1503174255846352768,3196,1503174255846150615,ardrone_base_link,0.20383605361,0.18719637394,0.960941433907
1503174255852117167,3197,1503174255851960964,ardrone_base_link,0.20383605361,0.18719637394,0.960941433907
1503174255871548517,3198,1503174255871356308,ardrone_base_link,0.227179706097,0.168281272054,0.959203243256
1503174255889287507,3199,1503174255889068125,ardrone_base_link,0.227179706097,0.168281272054,0.959203243256
1503174255894883985,3200,1503174255894672979,ardrone_base_link,0.237041413784,0.169315293431,0.956631422043
1503174255896613392,3201,1503174255896461182,ardrone_base_link,0.237041413784,0.169315293431,0.956631422043
1503174255904214635,3202,1503174255904032835,ardrone_base_link,0.218269839883,0.15835262835,0.96295517683
1503174255913227339,3203,1503174255912998763,ardrone_base_link,0.218269839883,0.15835262835,0.96295517683
1503174255914177273,3204,1503174255913987105,ardrone_base_link,0.227179706097,0.168281272054,0.959203243256
1503174255916729093,3205,1503174255916549981,ardrone_base_link,0.227179706097,0.168281272054,0.959203243256
1503174255918345611,3206,1503174255918221046,ardrone_base_link,0.222127065063,0.171834141016,0.959756553173
1503174255922353864,3207,1503174255922243703,ardrone_base_link,0.222127065063,0.171834141016,0.959756553173
1503174255923251650,3208,1503174255923157141,ardrone_base_link,0.211872011423,0.194922253489,0.957661509514
1503174255926891189,3209,1503174255926771736,ardrone_base_link,0.211872011423,0.194922253489,0.957661509514
1503174255928467593,3210,1503174255928327082,ardrone_base_link,0.201396435499,0.167830362916,0.965024590492
1503174255957607836,3211,1503174255957367064,ardrone_base_link,0.201396435499,0.167830362916,0.965024590492
1503174255960376265,3212,1503174255960184339,ardrone_base_link,0.214136436582,0.172148898244,0.961514592171
1503174255964015435,3213,1503174255963784479,ardrone_base_link,0.214136436582,0.172148898244,0.961514592171
1503174255966404257,3214,1503174255966228230,ardrone_base_link,0.214136436582,0.172148898244,0.961514592171
1503174255973236121,3215,1503174255973038138,ardrone_base_link,0.214136436582,0.172148898244,0.961514592171
1503174255974789663,3216,1503174255974568280,ardrone_base_link,0.211019635201,0.161367952824,0.964070081711
1503174255976154084,3217,1503174255975976093,ardrone_base_link,0.211019635201,0.161367952824,0.964070081711
1503174255988293361,3218,1503174255988147811,ardrone_base_link,0.191493868828,0.174842223525,0.96579515934
1503174256015476483,3219,1503174256014628088,ardrone_base_link,0.217104330659,0.175353497267,0.960269153118
1503174256016044639,3220,1503174256015874551,ardrone_base_link,0.213490054011,0.188373580575,0.958612203598
1503174256018051052,3221,1503174256017949190,ardrone_base_link,0.213490054011,0.188373580575,0.958612203598
1503174256019273928,3222,1503174256019136435,ardrone_base_link,0.210822254419,0.17709068954,0.961349487305
1503174256021638112,3223,1503174256021491753,ardrone_base_link,0.210822254419,0.17709068954,0.961349487305
1503174256023059273,3224,1503174256022807157,ardrone_base_link,0.217970460653,0.18506924808,0.958247482777
1503174256024928775,3225,1503174256024702255,ardrone_base_link,0.217970460653,0.18506924808,0.958247482777
1503174256029605508,3226,1503174256029451305,ardrone_base_link,0.212544769049,0.178537607193,0.960702359676
1503174256031546937,3227,1503174256031400116,ardrone_base_link,0.212544769049,0.178537607193,0.960702359676
1503174256035237624,3228,1503174256034978098,ardrone_base_link,0.200803428888,0.184069812298,0.962183058262
1503174256038462261,3229,1503174256038304127,ardrone_base_link,0.200803428888,0.184069812298,0.962183058262
1503174256080767945,3230,1503174256080557507,ardrone_base_link,0.204087242484,0.187079966068,0.960910737514
1503174256088363832,3231,1503174256088128082,ardrone_base_link,0.204087242484,0.187079966068,0.960910737514
1503174256096431287,3232,1503174256096229389,ardrone_base_link,0.232583492994,0.182744160295,0.955253601074
1503174256100609127,3233,1503174256100406514,ardrone_base_link,0.232583492994,0.182744160295,0.955253601074
1503174256102333807,3234,1503174256102146238,ardrone_base_link,0.221800044179,0.179950982332,0.958343565464
1503174256107463057,3235,1503174256107284533,ardrone_base_link,0.221800044179,0.179950982332,0.958343565464
1503174256137835907,3236,1503174256137564947,ardrone_base_link,0.197424963117,0.189023911953,0.96192163229
1503174256139583609,3237,1503174256139381889,ardrone_base_link,0.223243489861,0.189546361566,0.956156075001
1503174256143268585,3238,1503174256143058800,ardrone_base_link,0.223243489861,0.189546361566,0.956156075001
1503174256149833764,3239,1503174256149630306,ardrone_base_link,0.232261940837,0.164694830775,0.958608388901
1503174256155455515,3240,1503174256155254060,ardrone_base_link,0.201298177242,0.175600528717,0.963661491871
1503174256160038255,3241,1503174256159869029,ardrone_base_link,0.201298177242,0.175600528717,0.963661491871
1503174256165971277,3242,1503174256165773207,ardrone_base_link,0.212544769049,0.178537607193,0.960702359676
1503174256207784244,3243,1503174256207561932,ardrone_base_link,0.212544769049,0.178537607193,0.960702359676
1503174256217439084,3244,1503174256217117143,ardrone_base_link,0.215059712529,0.181973606348,0.959497213364
1503174256228442548,3245,1503174256228231560,ardrone_base_link,0.215059712529,0.181973606348,0.959497213364
1503174256230521855,3246,1503174256230360567,ardrone_base_link,0.208485409617,0.191806569695,0.959032893181
1503174256249693036,3247,1503174256249459924,ardrone_base_link,0.208485409617,0.191806569695,0.959032893181
1503174256271263063,3248,1503174256271031144,ardrone_base_link,0.206704616547,0.163641154766,0.964621543884
1503174256278272392,3249,1503174256278078368,ardrone_base_link,0.206406280398,0.172005221248,0.963229298592
1503174256283779251,3250,1503174256283566539,ardrone_base_link,0.215878948569,0.173549741507,0.96087294817
1503174256304989290,3251,1503174256304718552,ardrone_base_link,0.207456380129,0.174263358116,0.962597608566
1503174256332606238,3252,1503174256332342190,ardrone_base_link,0.212997943163,0.154527917504,0.964755356312
1503174256364992524,3253,1503174256364703371,ardrone_base_link,0.212997943163,0.154527917504,0.964755356312
1503174256376059042,3254,1503174256374594718,ardrone_base_link,0.224703714252,0.183091923594,0.957071363926
1503174256381494564,3255,1503174256381248573,ardrone_base_link,0.219701498747,0.186539009213,0.957566916943
1503174256384649438,3256,1503174256384493374,ardrone_base_link,0.214136436582,0.172148898244,0.961514592171
1503174256387756235,3257,1503174256387536337,ardrone_base_link,0.208085298538,0.165618911386,0.963986992836
1503174256408005634,3258,1503174256407795158,ardrone_base_link,0.208085298538,0.165618911386,0.963986992836
1503174256409133726,3259,1503174256408970954,ardrone_base_link,0.212860405445,0.170288324356,0.962129056454
1503174256415225696,3260,1503174256414977185,ardrone_base_link,0.212860405445,0.170288324356,0.962129056454
1503174256426752059,3261,1503174256426529120,ardrone_base_link,0.210165679455,0.193352416158,0.958355486393
1503174256435750461,3262,1503174256435507176,ardrone_base_link,0.210165679455,0.193352416158,0.958355486393
1503174256449062338,3263,1503174256448846480,ardrone_base_link,0.199347704649,0.182381942868,0.962806999683
1503174256453853360,3264,1503174256453653823,ardrone_base_link,0.233094796538,0.19071392715,0.953569591045
1503174256465946283,3265,1503174256465724012,ardrone_base_link,0.233094796538,0.19071392715,0.953569591045
1503174256473932421,3266,1503174256473029123,ardrone_base_link,0.220034480095,0.178518548608,0.959018230438
1503174256478399524,3267,1503174256478116284,ardrone_base_link,0.220034480095,0.178518548608,0.959018230438
1503174256484744598,3268,1503174256484472779,ardrone_base_link,0.219177231193,0.168597877026,0.961007893085
1503174256500107249,3269,1503174256499855880,ardrone_base_link,0.219177231193,0.168597877026,0.961007893085
1503174256505830933,3270,1503174256505610554,ardrone_base_link,0.207785740495,0.173861533403,0.962599217892
1503174256516002023,3271,1503174256515709616,ardrone_base_link,0.214136436582,0.172148898244,0.961514592171
1503174256518565778,3272,1503174256518371131,ardrone_base_link,0.215216696262,0.189897090197,0.957925319672
1503174256528878978,3273,1503174256528672498,ardrone_base_link,0.215216696262,0.189897090197,0.957925319672
1503174256534288029,3274,1503174256534076140,ardrone_base_link,0.198026880622,0.17274685204,0.964854359627
1503174256537174194,3275,1503174256536884695,ardrone_base_link,0.198026880622,0.17274685204,0.964854359627
1503174256582147366,3276,1503174256581488871,ardrone_base_link,0.215059712529,0.181973606348,0.959497213364
1503174256584754914,3277,1503174256584513878,ardrone_base_link,0.22096671164,0.169974401593,0.960355341434
1503174256592113913,3278,1503174256591924189,ardrone_base_link,0.22096671164,0.169974401593,0.960355341434
1503174256599855487,3279,1503174256599574980,ardrone_base_link,0.220299422741,0.186407208443,0.957455217838
1503174256602562207,3280,1503174256602354340,ardrone_base_link,0.220299422741,0.186407208443,0.957455217838
1503174256606950793,3281,1503174256606783278,ardrone_base_link,0.224248364568,0.165012940764,0.960459947586
1503174256608489517,3282,1503174256608362045,ardrone_base_link,0.224248364568,0.165012940764,0.960459947586
1503174256611795947,3283,1503174256611563145,ardrone_base_link,0.22869040072,0.177870318294,0.95711171627
1503174256620651024,3284,1503174256620410059,ardrone_base_link,0.22869040072,0.177870318294,0.95711171627
1503174256645277029,3285,1503174256645056395,ardrone_base_link,0.22726278007,0.184383004904,0.956218898296
1503174256646452225,3286,1503174256646273008,ardrone_base_link,0.210500657558,0.185240581632,0.959883034229
1503174256648177300,3287,1503174256647963432,ardrone_base_link,0.210500657558,0.185240581632,0.959883034229
1503174256650250325,3288,1503174256649841060,ardrone_base_link,0.221278592944,0.161703586578,0.961710810661
1503174256657008526,3289,1503174256656794476,ardrone_base_link,0.221278592944,0.161703586578,0.961710810661
1503174256673640732,3290,1503174256673454990,ardrone_base_link,0.218179479241,0.193004921079,0.956633090973
1503174256674770154,3291,1503174256674599147,ardrone_base_link,0.199347704649,0.182381942868,0.962806999683
1503174256676012365,3292,1503174256675815290,ardrone_base_link,0.199347704649,0.182381942868,0.962806999683
1503174256676968583,3293,1503174256676790680,ardrone_base_link,0.197208881378,0.197208881378,0.960321485996
1503174256679830452,3294,1503174256679552551,ardrone_base_link,0.197208881378,0.197208881378,0.960321485996
1503174256684211773,3295,1503174256684070317,ardrone_base_link,0.201106339693,0.175968036056,0.963634490967
1503174256695779469,3296,1503174256695453044,ardrone_base_link,0.201106339693,0.175968036056,0.963634490967
1503174256696697106,3297,1503174256696514640,ardrone_base_link,0.211872011423,0.194922253489,0.957661509514
1503174256700240610,3298,1503174256700029331,ardrone_base_link,0.211872011423,0.194922253489,0.957661509514
1503174256703152801,3299,1503174256702972806,ardrone_base_link,0.214136436582,0.172148898244,0.961514592171
1503174256704947347,3300,1503174256704825396,ardrone_base_link,0.214136436582,0.172148898244,0.961514592171
1503174256710094925,3301,1503174256709898921,ardrone_base_link,0.22608526051,0.166364625096,0.959795892239
1503174256712195763,3302,1503174256712032171,ardrone_base_link,0.22608526051,0.166364625096,0.959795892239
1503174256720127564,3303,1503174256719924610,ardrone_base_link,0.222439840436,0.163682147861,0.961108028889
1503174256722436299,3304,1503174256722257375,ardrone_base_link,0.222439840436,0.163682147861,0.961108028889
1503174256744840742,3305,1503174256744648845,ardrone_base_link,0.237041413784,0.169315293431,0.956631422043
1503174256746639291,3306,1503174256746438822,ardrone_base_link,0.237041413784,0.169315293431,0.956631422043
1503174256750929771,3307,1503174256750419820,ardrone_base_link,0.218858629465,0.176770433784,0.959610939026
1503174256766069739,3308,1503174256765812518,ardrone_base_link,0.218858629465,0.176770433784,0.959610939026
1503174256767265968,3309,1503174256767028545,ardrone_base_link,0.209553048015,0.183358922601,0.960451483727
1503174256768195913,3310,1503174256767971242,ardrone_base_link,0.220659092069,0.162371784449,0.961740553379
1503174256772865204,3311,1503174256772697602,ardrone_base_link,0.220659092069,0.162371784449,0.961740553379
1503174256775906423,3312,1503174256775682674,ardrone_base_link,0.224248364568,0.165012940764,0.960459947586
1503174256776445326,3313,1503174256776323914,ardrone_base_link,0.224248364568,0.165012940764,0.960459947586
1503174256784844534,3314,1503174256784629789,ardrone_base_link,0.220640257001,0.17820943892,0.95893651247
1503174256796116193,3315,1503174256795896696,ardrone_base_link,0.220640257001,0.17820943892,0.95893651247
1503174256813244418,3316,1503174256813031256,ardrone_base_link,0.212860405445,0.170288324356,0.962129056454
1503174256816494765,3317,1503174256816200829,ardrone_base_link,0.212860405445,0.170288324356,0.962129056454
1503174256817582986,3318,1503174256817131065,ardrone_base_link,0.218607366085,0.169111356139,0.96104747057
1503174256818266723,3319,1503174256818138051,ardrone_base_link,0.218607366085,0.169111356139,0.96104747057
1503174256819996621,3320,1503174256819823709,ardrone_base_link,0.204709902406,0.170591592789,0.963842451572
1503174256821332467,3321,1503174256821225254,ardrone_base_link,0.204709902406,0.170591592789,0.963842451572
1503174256835527029,3322,1503174256835260029,ardrone_base_link,0.221800044179,0.179950982332,0.958343565464
1503174256837069234,3323,1503174256836852705,ardrone_base_link,0.212997183204,0.178222134709,0.960660755634
1503174256838099591,3324,1503174256837964948,ardrone_base_link,0.23193128407,0.172894224524,0.957243680954
1503174256839942111,3325,1503174256839811360,ardrone_base_link,0.23193128407,0.172894224524,0.957243680954
1503174256840990244,3326,1503174256840897042,ardrone_base_link,0.218858629465,0.176770433784,0.959610939026
1503174256845749102,3327,1503174256845485558,ardrone_base_link,0.218858629465,0.176770433784,0.959610939026
1503174256849717573,3328,1503174256849581755,ardrone_base_link,0.202742904425,0.177400052547,0.963028848171
1503174256859860668,3329,1503174256859665089,ardrone_base_link,0.202742904425,0.177400052547,0.963028848171
1503174256860867147,3330,1503174256860682446,ardrone_base_link,0.210822254419,0.17709068954,0.961349487305
1503174256867134658,3331,1503174256866941175,ardrone_base_link,0.210822254419,0.17709068954,0.961349487305
1503174256885649168,3332,1503174256885454434,ardrone_base_link,0.225413575768,0.182882711291,0.956944465637
1503174256888670499,3333,1503174256888497663,ardrone_base_link,0.225413575768,0.182882711291,0.956944465637
1503174256890615535,3334,1503174256890473112,ardrone_base_link,0.224248364568,0.165012940764,0.960459947586
1503174256891949657,3335,1503174256891794733,ardrone_base_link,0.224248364568,0.165012940764,0.960459947586
1503174256893326284,3336,1503174256893198427,ardrone_base_link,0.210165679455,0.193352416158,0.958355486393
1503174256896896809,3337,1503174256896707345,ardrone_base_link,0.210165679455,0.193352416158,0.958355486393
1503174256915746474,3338,1503174256915453419,ardrone_base_link,0.216071948409,0.181500434875,0.95935946703
1503174256918122622,3339,1503174256917880400,ardrone_base_link,0.216071948409,0.181500434875,0.95935946703
1503174256928631554,3340,1503174256928427333,ardrone_base_link,0.205768048763,0.188620716333,0.960250914097
1503174256963862718,3341,1503174256963651772,ardrone_base_link,0.205768048763,0.188620716333,0.960250914097
1503174256965637382,3342,1503174256965494569,ardrone_base_link,0.236088111997,0.169817760587,0.956778109074
1503174256967350698,3343,1503174256967089050,ardrone_base_link,0.236088111997,0.169817760587,0.956778109074
1503174256971692753,3344,1503174256971568536,ardrone_base_link,0.206406280398,0.172005221248,0.963229298592
1503174256973901328,3345,1503174256973412820,ardrone_base_link,0.206406280398,0.172005221248,0.963229298592
1503174256975645243,3346,1503174256975471708,ardrone_base_link,0.193343281746,0.167564183474,0.96671640873
1503174256978583652,3347,1503174256978446987,ardrone_base_link,0.193343281746,0.167564183474,0.96671640873
1503174256980382531,3348,1503174256980268603,ardrone_base_link,0.205796986818,0.180597350001,0.961785912514
1503174256981548054,3349,1503174256981403109,ardrone_base_link,0.223592862487,0.18140552938,0.957652449608
1503174256982453898,3350,1503174256982328490,ardrone_base_link,0.223592862487,0.18140552938,0.957652449608
1503174256986997385,3351,1503174256986868056,ardrone_base_link,0.214136436582,0.172148898244,0.961514592171
1503174256988319351,3352,1503174256988164764,ardrone_base_link,0.214136436582,0.172148898244,0.961514592171
1503174256989750854,3353,1503174256989596298,ardrone_base_link,0.216779604554,0.183428898454,0.958832859993
1503174256991463827,3354,1503174256991326168,ardrone_base_link,0.216779604554,0.183428898454,0.958832859993
1503174257023220534,3355,1503174257023009029,ardrone_base_link,0.204405277967,0.178854614496,0.962408185005
1503174257025688904,3356,1503174257025467039,ardrone_base_link,0.204405277967,0.178854614496,0.962408185005
1503174257027397619,3357,1503174257026484741,ardrone_base_link,0.193569779396,0.160621732473,0.96784889698
1503174257027525055,3358,1503174257027106108,ardrone_base_link,0.193569779396,0.160621732473,0.96784889698
1503174257030981113,3359,1503174257030854597,ardrone_base_link,0.217966631055,0.166680365801,0.961617469788
1503174257033028923,3360,1503174257032904904,ardrone_base_link,0.217966631055,0.166680365801,0.961617469788
1503174257035869625,3361,1503174257035622837,ardrone_base_link,0.18991060555,0.17302967608,0.966434001923
1503174257036385975,3362,1503174257036271586,ardrone_base_link,0.18991060555,0.17302967608,0.966434001923
1503174257042560837,3363,1503174257042354032,ardrone_base_link,0.186460763216,0.177985280752,0.966205775738
1503174257063157883,3364,1503174257062904455,ardrone_base_link,0.186460763216,0.177985280752,0.966205775738
1503174257067227934,3365,1503174257066902601,ardrone_base_link,0.225360229611,0.166933506727,0.959867656231
1503174257068611487,3366,1503174257068419882,ardrone_base_link,0.225360229611,0.166933506727,0.959867656231
1503174257070898806,3367,1503174257070722242,ardrone_base_link,0.215216696262,0.189897090197,0.957925319672
1503174257073836391,3368,1503174257073585173,ardrone_base_link,0.215216696262,0.189897090197,0.957925319672
1503174257081006965,3369,1503174257080797892,ardrone_base_link,0.222449839115,0.179671034217,0.958245456219
1503174257095305038,3370,1503174257095002543,ardrone_base_link,0.222449839115,0.179671034217,0.958245456219
1503174257096781322,3371,1503174257096610062,ardrone_base_link,0.209495469928,0.175292119384,0.961968958378
1503174257103183428,3372,1503174257102991804,ardrone_base_link,0.209495469928,0.175292119384,0.961968958378
1503174257115605720,3373,1503174257115386613,ardrone_base_link,0.192760586739,0.184193447232,0.963802933693
1503174257117573366,3374,1503174257117361724,ardrone_base_link,0.192760586739,0.184193447232,0.963802933693
1503174257143023219,3375,1503174257142791466,ardrone_base_link,0.222127065063,0.171834141016,0.959756553173
1503174257184209779,3376,1503174257183945862,ardrone_base_link,0.222127065063,0.171834141016,0.959756553173
1503174257192629942,3377,1503174257192443475,ardrone_base_link,0.200988724828,0.183883294463,0.96218007803
1503174257200746513,3378,1503174257200405314,ardrone_base_link,0.212716162205,0.162665292621,0.963479042053
1503174257203176850,3379,1503174257203036168,ardrone_base_link,0.212716162205,0.162665292621,0.963479042053
1503174257204283846,3380,1503174257204133785,ardrone_base_link,0.21009542048,0.158643484116,0.964723885059
1503174257205862474,3381,1503174257205693798,ardrone_base_link,0.228338479996,0.186053588986,0.955638825893
1503174257213951932,3382,1503174257213738632,ardrone_base_link,0.204802319407,0.204802319407,0.957137405872
1503174257219032699,3383,1503174257218837572,ardrone_base_link,0.221278592944,0.161703586578,0.961710810661
1503174257262529796,3384,1503174257262272803,ardrone_base_link,0.221278592944,0.161703586578,0.961710810661
1503174257274779256,3385,1503174257274570188,ardrone_base_link,0.204709902406,0.170591592789,0.963842451572
1503174257278583340,3386,1503174257278410945,ardrone_base_link,0.222100570798,0.187931254506,0.956740915775
1503174257288510420,3387,1503174257288316766,ardrone_base_link,0.222100570798,0.187931254506,0.956740915775
1503174257294516336,3388,1503174257294184877,ardrone_base_link,0.234157070518,0.166038647294,0.957915306091
1503174257299280078,3389,1503174257299056070,ardrone_base_link,0.231702044606,0.197375819087,0.952552855015
1503174257304568927,3390,1503174257304347898,ardrone_base_link,0.231702044606,0.197375819087,0.952552855015
1503174257322085574,3391,1503174257321825806,ardrone_base_link,0.219446703792,0.176417946815,0.959541499615
1503174257348237780,3392,1503174257348017079,ardrone_base_link,0.219446703792,0.176417946815,0.959541499615
1503174257349418926,3393,1503174257349220579,ardrone_base_link,0.195529744029,0.195529744029,0.961007893085
1503174257351068162,3394,1503174257350876155,ardrone_base_link,0.195529744029,0.195529744029,0.961007893085
1503174257352865245,3395,1503174257352632699,ardrone_base_link,0.218858629465,0.176770433784,0.959610939026
1503174257354630999,3396,1503174257354385674,ardrone_base_link,0.218858629465,0.176770433784,0.959610939026
1503174257358246490,3397,1503174257358073245,ardrone_base_link,0.208085298538,0.165618911386,0.963986992836
1503174257359176117,3398,1503174257359042423,ardrone_base_link,0.208085298538,0.165618911386,0.963986992836
1503174257361902760,3399,1503174257361731836,ardrone_base_link,0.218858629465,0.176770433784,0.959610939026
1503174257410313131,3400,1503174257410071913,ardrone_base_link,0.218858629465,0.176770433784,0.959610939026
1503174257411927590,3401,1503174257411669629,ardrone_base_link,0.206102594733,0.172453194857,0.963214218616
1503174257422471693,3402,1503174257422262788,ardrone_base_link,0.218858629465,0.176770433784,0.959610939026
1503174257423452534,3403,1503174257423312226,ardrone_base_link,0.218858629465,0.176770433784,0.959610939026
1503174257425152337,3404,1503174257424998739,ardrone_base_link,0.225667014718,0.158802717924,0.961174309254
1503174257428900445,3405,1503174257428729945,ardrone_base_link,0.225667014718,0.158802717924,0.961174309254
1503174257444332667,3406,1503174257444076560,ardrone_base_link,0.22869040072,0.177870318294,0.95711171627
1503174257446364869,3407,1503174257446127883,ardrone_base_link,0.22096671164,0.169974401593,0.960355341434
1503174257447313827,3408,1503174257447153686,ardrone_base_link,0.225959226489,0.150639489293,0.962418913841
1503174257448398175,3409,1503174257448224433,ardrone_base_link,0.221736818552,0.196151793003,0.955173969269
1503174257451823763,3410,1503174257451599936,ardrone_base_link,0.221736818552,0.196151793003,0.955173969269
1503174257463960195,3411,1503174257463698972,ardrone_base_link,0.219772472978,0.168061301112,0.960965931416
1503174257466797166,3412,1503174257466641597,ardrone_base_link,0.219772472978,0.168061301112,0.960965931416
1503174257472023910,3413,1503174257471818735,ardrone_base_link,0.217819318175,0.201063975692,0.955053925514
1503174257484296653,3414,1503174257484107357,ardrone_base_link,0.217819318175,0.201063975692,0.955053925514
1503174257492587612,3415,1503174257492337351,ardrone_base_link,0.210822254419,0.17709068954,0.961349487305
1503174257494944007,3416,1503174257494690125,ardrone_base_link,0.210822254419,0.17709068954,0.961349487305
1503174257499423808,3417,1503174257499306757,ardrone_base_link,0.199347704649,0.182381942868,0.962806999683
1503174257500404295,3418,1503174257500281541,ardrone_base_link,0.199347704649,0.182381942868,0.962806999683
1503174257510535529,3419,1503174257510386706,ardrone_base_link,0.215878948569,0.173549741507,0.96087294817
1503174257528024533,3420,1503174257527775068,ardrone_base_link,0.215878948569,0.173549741507,0.96087294817
1503174257528638332,3421,1503174257528452768,ardrone_base_link,0.204709902406,0.170591592789,0.963842451572
1503174257534013360,3422,1503174257533751643,ardrone_base_link,0.222127065063,0.171834141016,0.959756553173
1503174257542401978,3423,1503174257542210527,ardrone_base_link,0.222127065063,0.171834141016,0.959756553173
1503174257573346654,3424,1503174257573143072,ardrone_base_link,0.233464092016,0.182526484132,0.955080389977
1503174257581469491,3425,1503174257581265941,ardrone_base_link,0.203324124217,0.160964936018,0.965789616108
1503174257583823124,3426,1503174257583646986,ardrone_base_link,0.203324124217,0.160964936018,0.965789616108
1503174257584965697,3427,1503174257584861680,ardrone_base_link,0.207428514957,0.166756257415,0.963932454586
1503174257593644193,3428,1503174257593378335,ardrone_base_link,0.207428514957,0.166756257415,0.963932454586
1503174257601437426,3429,1503174257601230050,ardrone_base_link,0.209802493453,0.166985660791,0.963378787041
1503174257609236870,3430,1503174257609065513,ardrone_base_link,0.209802493453,0.166985660791,0.963378787041
1503174257651950187,3431,1503174257651663347,ardrone_base_link,0.204147174954,0.17914955318,0.962408065796
1503174257662359487,3432,1503174257661925810,ardrone_base_link,0.204147174954,0.17914955318,0.962408065796
1503174257666528737,3433,1503174257666335457,ardrone_base_link,0.211130276322,0.168904229999,0.962754070759
1503174257674109379,3434,1503174257673885974,ardrone_base_link,0.211130276322,0.168904229999,0.962754070759
1503174257679062199,3435,1503174257678852094,ardrone_base_link,0.215216696262,0.189897090197,0.957925319672
1503174257687802524,3436,1503174257687588997,ardrone_base_link,0.215216696262,0.189897090197,0.957925319672
1503174257717181683,3437,1503174257716726361,ardrone_base_link,0.198705300689,0.198705300689,0.9597042799
1503174257720442620,3438,1503174257720279501,ardrone_base_link,0.218858629465,0.176770433784,0.959610939026
1503174257724810286,3439,1503174257724673178,ardrone_base_link,0.211424529552,0.160682633519,0.964095830917
1503174257725831168,3440,1503174257725697872,ardrone_base_link,0.211424529552,0.160682633519,0.964095830917
1503174257729756617,3441,1503174257729592012,ardrone_base_link,0.220640257001,0.17820943892,0.95893651247
1503174257747160659,3442,1503174257746936999,ardrone_base_link,0.220640257001,0.17820943892,0.95893651247
1503174257748888053,3443,1503174257748708521,ardrone_base_link,0.213820040226,0.180279642344,0.960093855858
1503174257750115482,3444,1503174257749988182,ardrone_base_link,0.199649631977,0.174162447453,0.964265286922
1503174257753535063,3445,1503174257753171037,ardrone_base_link,0.218525975943,0.184906601906,0.958152353764
1503174257761032913,3446,1503174257760826123,ardrone_base_link,0.218525975943,0.184906601906,0.958152353764
1503174257773706215,3447,1503174257773409252,ardrone_base_link,0.20383605361,0.18719637394,0.960941433907
1503174257775612485,3448,1503174257774775648,ardrone_base_link,0.208030179143,0.158102929592,0.965260028839
1503174257776513104,3449,1503174257776319096,ardrone_base_link,0.208030179143,0.158102929592,0.965260028839
1503174257778234174,3450,1503174257777943416,ardrone_base_link,0.210822254419,0.17709068954,0.961349487305
1503174257781715282,3451,1503174257781591561,ardrone_base_link,0.210822254419,0.17709068954,0.961349487305
1503174257794095308,3452,1503174257793885234,ardrone_base_link,0.216235667467,0.207755848765,0.953980922699
1503174257797551534,3453,1503174257797309705,ardrone_base_link,0.216235667467,0.207755848765,0.953980922699
1503174257798474538,3454,1503174257798340788,ardrone_base_link,0.208085298538,0.165618911386,0.963986992836
1503174257799352348,3455,1503174257799221052,ardrone_base_link,0.208085298538,0.165618911386,0.963986992836
1503174257800375736,3456,1503174257800212980,ardrone_base_link,0.217316612601,0.183227732778,0.958749771118
1503174257801454351,3457,1503174257801291739,ardrone_base_link,0.217316612601,0.183227732778,0.958749771118
1503174257804803424,3458,1503174257804687571,ardrone_base_link,0.210822254419,0.17709068954,0.961349487305
1503174257808223999,3459,1503174257808052884,ardrone_base_link,0.210822254419,0.17709068954,0.961349487305
1503174257813242753,3460,1503174257813117105,ardrone_base_link,0.22869040072,0.177870318294,0.95711171627
1503174257833618620,3461,1503174257833459332,ardrone_base_link,0.22869040072,0.177870318294,0.95711171627
1503174257837246049,3462,1503174257836974473,ardrone_base_link,0.221800044179,0.179950982332,0.958343565464
1503174257839442887,3463,1503174257839129901,ardrone_base_link,0.221800044179,0.179950982332,0.958343565464
1503174257840986720,3464,1503174257840665024,ardrone_base_link,0.206806287169,0.198365211487,0.958061754704
1503174257841852635,3465,1503174257841626807,ardrone_base_link,0.206806287169,0.198365211487,0.958061754704
1503174257844694008,3466,1503174257844580798,ardrone_base_link,0.227212592959,0.194163501263,0.95429289341
1503174257855453696,3467,1503174257855174129,ardrone_base_link,0.227212592959,0.194163501263,0.95429289341
1503174257856574181,3468,1503174257856240162,ardrone_base_link,0.245007246733,0.168970510364,0.954683423042
1503174257858426474,3469,1503174257858276795,ardrone_base_link,0.245007246733,0.168970510364,0.954683423042
1503174257863231778,3470,1503174257863066985,ardrone_base_link,0.209802493453,0.166985660791,0.963378787041
1503174257869114517,3471,1503174257868981698,ardrone_base_link,0.209802493453,0.166985660791,0.963378787041
1503174257873436350,3472,1503174257873249790,ardrone_base_link,0.230558797717,0.179323509336,0.956392049789
1503174257878852374,3473,1503174257878701471,ardrone_base_link,0.230558797717,0.179323509336,0.956392049789
1503174257887145989,3474,1503174257886972304,ardrone_base_link,0.219177231193,0.168597877026,0.961007893085
1503174257892348836,3475,1503174257892165019,ardrone_base_link,0.219177231193,0.168597877026,0.961007893085
1503174257893619541,3476,1503174257893445181,ardrone_base_link,0.208085298538,0.165618911386,0.963986992836
1503174257900142949,3477,1503174257899965153,ardrone_base_link,0.208085298538,0.165618911386,0.963986992836
1503174257904146132,3478,1503174257903977202,ardrone_base_link,0.209126323462,0.175666108727,0.961981117725
1503174257913533232,3479,1503174257913239017,ardrone_base_link,0.209126323462,0.175666108727,0.961981117725
1503174257914987338,3480,1503174257914806673,ardrone_base_link,0.208085298538,0.165618911386,0.963986992836
1503174257918802989,3481,1503174257918610475,ardrone_base_link,0.208085298538,0.165618911386,0.963986992836
1503174257923878376,3482,1503174257923741301,ardrone_base_link,0.206394925714,0.164273515344,0.964580357075
1503174257929621787,3483,1503174257929484601,ardrone_base_link,0.206394925714,0.164273515344,0.964580357075
1503174257933598279,3484,1503174257933480070,ardrone_base_link,0.223592862487,0.18140552938,0.957652449608
1503174257938633543,3485,1503174257938467093,ardrone_base_link,0.223592862487,0.18140552938,0.957652449608
1503174257946071910,3486,1503174257945887807,ardrone_base_link,0.212544769049,0.178537607193,0.960702359676
1503174257950073239,3487,1503174257949891899,ardrone_base_link,0.212544769049,0.178537607193,0.960702359676
1503174257958484673,3488,1503174257958270007,ardrone_base_link,0.217966631055,0.166680365801,0.961617469788
1503174257959476422,3489,1503174257959348980,ardrone_base_link,0.217966631055,0.166680365801,0.961617469788
1503174257963955931,3490,1503174257963736985,ardrone_base_link,0.2088124156,0.183754920959,0.960537075996
1503174257968737444,3491,1503174257968627597,ardrone_base_link,0.2088124156,0.183754920959,0.960537075996
1503174257974280657,3492,1503174257974047686,ardrone_base_link,0.214136436582,0.172148898244,0.961514592171
1503174257979030288,3493,1503174257978849902,ardrone_base_link,0.214136436582,0.172148898244,0.961514592171
1503174257983986108,3494,1503174257983816878,ardrone_base_link,0.210822254419,0.17709068954,0.961349487305
1503174257988798735,3495,1503174257988597976,ardrone_base_link,0.210822254419,0.17709068954,0.961349487305
1503174257994292402,3496,1503174257994106171,ardrone_base_link,0.215878948569,0.173549741507,0.96087294817
1503174257998975638,3497,1503174257998772797,ardrone_base_link,0.215878948569,0.173549741507,0.96087294817
1503174258003995218,3498,1503174258003834528,ardrone_base_link,0.214136436582,0.172148898244,0.961514592171
1503174258009402877,3499,1503174258009221180,ardrone_base_link,0.214136436582,0.172148898244,0.961514592171
1503174258020206652,3500,1503174258019998814,ardrone_base_link,0.196773320436,0.20514665544,0.958746612072
1503174258021511632,3501,1503174258021366075,ardrone_base_link,0.196773320436,0.20514665544,0.958746612072
1503174258024180167,3502,1503174258023885306,ardrone_base_link,0.215554758906,0.181742250919,0.959429979324
1503174258034287341,3503,1503174258034080368,ardrone_base_link,0.215554758906,0.181742250919,0.959429979324
1503174258035309202,3504,1503174258035157553,ardrone_base_link,0.218525975943,0.184906601906,0.958152353764
1503174258040572815,3505,1503174258040397152,ardrone_base_link,0.218525975943,0.184906601906,0.958152353764
1503174258050284182,3506,1503174258050112849,ardrone_base_link,0.229846790433,0.16913254559,0.958417773247
1503174258052040787,3507,1503174258051766603,ardrone_base_link,0.229846790433,0.16913254559,0.958417773247
1503174258054276788,3508,1503174258054084909,ardrone_base_link,0.199494972825,0.174558103085,0.964225709438
1503174258059161952,3509,1503174258058999748,ardrone_base_link,0.199494972825,0.174558103085,0.964225709438
1503174258063762543,3510,1503174258063632458,ardrone_base_link,0.209987670183,0.151191115379,0.965943276882
1503174258069237828,3511,1503174258069092185,ardrone_base_link,0.209987670183,0.151191115379,0.965943276882
1503174258074612930,3512,1503174258074368390,ardrone_base_link,0.221278592944,0.161703586578,0.961710810661
1503174258079276695,3513,1503174258079092834,ardrone_base_link,0.221278592944,0.161703586578,0.961710810661
1503174258084630878,3514,1503174258084480627,ardrone_base_link,0.210500657558,0.185240581632,0.959883034229
1503174258089026994,3515,1503174258088854463,ardrone_base_link,0.210500657558,0.185240581632,0.959883034229
1503174258095027507,3516,1503174258094825837,ardrone_base_link,0.209802493453,0.166985660791,0.963378787041
1503174258104684009,3517,1503174258104422094,ardrone_base_link,0.209802493453,0.166985660791,0.963378787041
1503174258111813843,3518,1503174258111605588,ardrone_base_link,0.211872011423,0.194922253489,0.957661509514
1503174258113958208,3519,1503174258113783651,ardrone_base_link,0.211872011423,0.194922253489,0.957661509514
1503174258115371936,3520,1503174258115187223,ardrone_base_link,0.217104330659,0.175353497267,0.960269153118
1503174258119523444,3521,1503174258119309927,ardrone_base_link,0.217104330659,0.175353497267,0.960269153118
1503174258124542926,3522,1503174258124420920,ardrone_base_link,0.215059712529,0.181973606348,0.959497213364
1503174258129326644,3523,1503174258129162368,ardrone_base_link,0.215059712529,0.181973606348,0.959497213364
1503174258134560061,3524,1503174258134287903,ardrone_base_link,0.203040152788,0.169200137258,0.964440762997
1503174258141423921,3525,1503174258141251970,ardrone_base_link,0.203040152788,0.169200137258,0.964440762997
1503174258147841616,3526,1503174258147638110,ardrone_base_link,0.212716162205,0.162665292621,0.963479042053
1503174258158001496,3527,1503174258157801300,ardrone_base_link,0.212716162205,0.162665292621,0.963479042053
1503174258159078397,3528,1503174258158900459,ardrone_base_link,0.215554758906,0.181742250919,0.959429979324
1503174258160194441,3529,1503174258160038361,ardrone_base_link,0.215554758906,0.181742250919,0.959429979324
1503174258164261855,3530,1503174258164041794,ardrone_base_link,0.199199289083,0.18259935081,0.962796509266
1503174258169730545,3531,1503174258169612390,ardrone_base_link,0.199199289083,0.18259935081,0.962796509266
1503174258174898314,3532,1503174258174632049,ardrone_base_link,0.213490054011,0.188373580575,0.958612203598
1503174258179706377,3533,1503174258179549828,ardrone_base_link,0.213490054011,0.188373580575,0.958612203598
1503174258184776726,3534,1503174258184583786,ardrone_base_link,0.195506244898,0.152060419321,0.968842029572
1503174258191338421,3535,1503174258191157440,ardrone_base_link,0.195506244898,0.152060419321,0.968842029572
1503174258199458228,3536,1503174258199264675,ardrone_base_link,0.205541536212,0.145591929555,0.967758119106
1503174258202620825,3537,1503174258202442598,ardrone_base_link,0.205541536212,0.145591929555,0.967758119106
1503174258206777672,3538,1503174258206541892,ardrone_base_link,0.199502810836,0.182154729962,0.962817907333
1503174258212099187,3539,1503174258211917559,ardrone_base_link,0.199502810836,0.182154729962,0.962817907333
1503174258215922705,3540,1503174258215670048,ardrone_base_link,0.143686488271,0.185947224498,0.971996843815
1503174258219742553,3541,1503174258219579972,ardrone_base_link,0.143686488271,0.185947224498,0.971996843815
1503174258224836387,3542,1503174258224637279,ardrone_base_link,0.119566448033,0.145187824965,0.982152938843
1503174258229709914,3543,1503174258229527136,ardrone_base_link,0.119566448033,0.145187824965,0.982152938843
1503174258238629090,3544,1503174258238409312,ardrone_base_link,0.143686488271,0.185947224498,0.971996843815
1503174258249009733,3545,1503174258248763929,ardrone_base_link,0.143686488271,0.185947224498,0.971996843815
1503174258250406407,3546,1503174258250241432,ardrone_base_link,0.151453137398,0.201937526464,0.967617273331
1503174258253515766,3547,1503174258253210849,ardrone_base_link,0.151453137398,0.201937526464,0.967617273331
1503174258255092917,3548,1503174258254886876,ardrone_base_link,0.201205253601,0.1173697263,0.972492039204
1503174258259700426,3549,1503174258259579521,ardrone_base_link,0.201205253601,0.1173697263,0.972492039204
1503174258266514393,3550,1503174258266320606,ardrone_base_link,0.268099665642,0.106388762593,0.957498848438
1503174258270172580,3551,1503174258269997167,ardrone_base_link,0.268099665642,0.106388762593,0.957498848438
1503174258275058837,3552,1503174258274779561,ardrone_base_link,0.2659316957,0.105528451502,0.958198308945
1503174258280010342,3553,1503174258279814774,ardrone_base_link,0.2659316957,0.105528451502,0.958198308945
1503174258285257940,3554,1503174258285073210,ardrone_base_link,0.15706898272,0.174049422145,0.972129702568
1503174258289609519,3555,1503174258289443774,ardrone_base_link,0.15706898272,0.174049422145,0.972129702568
1503174258295793152,3556,1503174258295581242,ardrone_base_link,0.194659307599,0.121662065387,0.973296523094
1503174258313283311,3557,1503174258313071957,ardrone_base_link,0.194659307599,0.121662065387,0.973296523094
1503174258314217091,3558,1503174258314058930,ardrone_base_link,0.263556808233,0.112952910364,0.958008050919
1503174258315458258,3559,1503174258315253019,ardrone_base_link,0.263556808233,0.112952910364,0.958008050919
1503174258316327573,3560,1503174258316196335,ardrone_base_link,0.227793350816,0.151862233877,0.961794137955
1503174258320068610,3561,1503174258319906191,ardrone_base_link,0.227793350816,0.151862233877,0.961794137955
1503174258325181225,3562,1503174258324978582,ardrone_base_link,0.157114297152,0.114650972188,0.980902791023
1503174258330278025,3563,1503174258330118481,ardrone_base_link,0.157114297152,0.114650972188,0.980902791023
1503174258339670581,3564,1503174258339497630,ardrone_base_link,0.284830629826,0.150792688131,0.946642994881
1503174258342591441,3565,1503174258342388236,ardrone_base_link,0.284830629826,0.150792688131,0.946642994881
1503174258354088560,3566,1503174258353909765,ardrone_base_link,0.131182923913,0.165036588907,0.977524399757
1503174258357798293,3567,1503174258356980296,ardrone_base_link,0.131182923913,0.165036588907,0.977524399757
1503174258358094041,3568,1503174258357880492,ardrone_base_link,0.257820397615,0.114117220044,0.959429979324
1503174258360323513,3569,1503174258360149759,ardrone_base_link,0.257820397615,0.114117220044,0.959429979324
1503174258365142710,3570,1503174258365018434,ardrone_base_link,0.11842314899,0.152258336544,0.981220364571
1503174258370533757,3571,1503174258370384920,ardrone_base_link,0.11842314899,0.152258336544,0.981220364571
1503174258375452318,3572,1503174258375241134,ardrone_base_link,0.267287701368,0.131522521377,0.954598963261
1503174258380351578,3573,1503174258380172885,ardrone_base_link,0.267287701368,0.131522521377,0.954598963261
1503174258385659982,3574,1503174258385480990,ardrone_base_link,0.129978567362,0.155974283814,0.979171872139
1503174258392022567,3575,1503174258391821757,ardrone_base_link,0.129978567362,0.155974283814,0.979171872139
1503174258395464371,3576,1503174258395219994,ardrone_base_link,0.243958353996,0.148117572069,0.958407819271
1503174258403179809,3577,1503174258403022449,ardrone_base_link,0.243958353996,0.148117572069,0.958407819271
1503174258416367996,3578,1503174258416141920,ardrone_base_link,0.16103745997,0.128004133701,0.978612184525
1503174258417319198,3579,1503174258417143194,ardrone_base_link,0.16103745997,0.128004133701,0.978612184525
1503174258418783538,3580,1503174258418096897,ardrone_base_link,0.167837053537,0.185051113367,0.968290686607
1503174258421119656,3581,1503174258420872560,ardrone_base_link,0.167837053537,0.185051113367,0.968290686607
1503174258425556440,3582,1503174258425399194,ardrone_base_link,0.279681116343,0.144078150392,0.949220716953
1503174258430880594,3583,1503174258430689194,ardrone_base_link,0.279681116343,0.144078150392,0.949220716953
1503174258435911761,3584,1503174258435601491,ardrone_base_link,0.173672378063,0.132321819663,0.975873351097
1503174258442058294,3585,1503174258441903114,ardrone_base_link,0.173672378063,0.132321819663,0.975873351097
