%time,field.header.seq,field.header.stamp,field.header.frame_id,field.orientation.x,field.orientation.y,field.orientation.z,field.orientation.w,field.orientation_covariance0,field.orientation_covariance1,field.orientation_covariance2,field.orientation_covariance3,field.orientation_covariance4,field.orientation_covariance5,field.orientation_covariance6,field.orientation_covariance7,field.orientation_covariance8,field.angular_velocity.x,field.angular_velocity.y,field.angular_velocity.z,field.angular_velocity_covariance0,field.angular_velocity_covariance1,field.angular_velocity_covariance2,field.angular_velocity_covariance3,field.angular_velocity_covariance4,field.angular_velocity_covariance5,field.angular_velocity_covariance6,field.angular_velocity_covariance7,field.angular_velocity_covariance8,field.linear_acceleration.x,field.linear_acceleration.y,field.linear_acceleration.z,field.linear_acceleration_covariance0,field.linear_acceleration_covariance1,field.linear_acceleration_covariance2,field.linear_acceleration_covariance3,field.linear_acceleration_covariance4,field.linear_acceleration_covariance5,field.linear_acceleration_covariance6,field.linear_acceleration_covariance7,field.linear_acceleration_covariance8
1505356812449671580,11183,1505356812449490310,-0.0345587807127,-0.0474244420437,-0.394447053561,0.917043147791,1.0,0.0,0.0,0.0,1.0,0.0,0.0,0.0,100000.0,-0.000333048403263,0.00133533962071,0.00109939137474,1.0,0.0,0.0,0.0,1.0,0.0,0.0,0.0,1.0,0.812887106836,-0.116939099506,9.29004615545,0.1,0.0,0.0,0.0,0.1,0.0,0.0,0.0,0.1
1505356812454326803,11184,1505356812454129297,-0.0345591943408,-0.047424140625,-0.39445505187,0.917039707443,1.0,0.0,0.0,0.0,1.0,0.0,0.0,0.0,100000.0,-0.000635053962469,0.000822853296995,-0.000140838790685,1.0,0.0,0.0,0.0,1.0,0.0,0.0,0.0,1.0,0.814734914899,-0.114829758368,9.30502371788,0.1,0.0,0.0,0.0,0.1,0.0,0.0,0.0,0.1
1505356812464908424,11185,1505356812464692628,-0.0345641799485,-0.0474123898762,-0.394463556144,0.917036469081,1.0,0.0,0.0,0.0,1.0,0.0,0.0,0.0,100000.0,-0.00163926184177,0.0010033249855,5.81773965678e-05,1.0,0.0,0.0,0.0,1.0,0.0,0.0,0.0,1.0,0.814304487407,-0.115332927741,9.32340322733,0.1,0.0,0.0,0.0,0.1,0.0,0.0,0.0,0.1
1505356812464916243,11186,1505356812464717354,-0.0345725964756,-0.0474086458303,-0.394471968147,0.917032726907,1.0,0.0,0.0,0.0,1.0,0.0,0.0,0.0,100000.0,-0.00172246992588,0.0011563450098,0.000477286288515,1.0,0.0,0.0,0.0,1.0,0.0,0.0,0.0,1.0,0.815276180208,-0.114410748705,9.35745424032,0.1,0.0,0.0,0.0,0.1,0.0,0.0,0.0,0.1
1505356812469669260,11187,1505356812469315708,-0.0345725964756,-0.0474086458303,-0.394471968147,0.917032726907,1.0,0.0,0.0,0.0,1.0,0.0,0.0,0.0,100000.0,-0.00128959491849,0.000548101961613,0.000694355927408,1.0,0.0,0.0,0.0,1.0,0.0,0.0,0.0,1.0,0.813138061762,-0.098326889053,9.37349432707,0.1,0.0,0.0,0.0,0.1,0.0,0.0,0.0,0.1
1505356812474510103,11188,1505356812474335048,-0.0345725964756,-0.0474086458303,-0.394471968147,0.917032726907,1.0,0.0,0.0,0.0,1.0,0.0,0.0,0.0,100000.0,-0.000763412564993,4.30271029472e-07,0.00223477836698,1.0,0.0,0.0,0.0,1.0,0.0,0.0,0.0,1.0,0.813925535977,-0.0799812041223,9.37885835171,0.1,0.0,0.0,0.0,0.1,0.0,0.0,0.0,0.1
1505356812479615677,11189,1505356812479433359,-0.0345650069919,-0.047411786941,-0.394479552614,0.917029588029,1.0,0.0,0.0,0.0,1.0,0.0,0.0,0.0,100000.0,-0.000506546348333,-0.00107427686453,0.000434725545347,1.0,0.0,0.0,0.0,1.0,0.0,0.0,0.0,1.0,0.814262211323,-0.0449218216352,9.37202057838,0.1,0.0,0.0,0.0,0.1,0.0,0.0,0.0,0.1
1505356812485045320,11190,1505356812484909874,-0.034557418517,-0.0474149277736,-0.394487137076,0.917026448981,1.0,0.0,0.0,0.0,1.0,0.0,0.0,0.0,100000.0,-0.00136426091194,-0.000969044864178,0.000819931796286,1.0,0.0,0.0,0.0,1.0,0.0,0.0,0.0,1.0,0.813826599717,-0.0290266664699,9.35914353132,0.1,0.0,0.0,0.0,0.1,0.0,0.0,0.0,0.1
1505356812489699356,11191,1505356812489380969,-0.034549829143,-0.047418069149,-0.394494721434,0.917023309838,1.0,0.0,0.0,0.0,1.0,0.0,0.0,0.0,100000.0,-0.00186847895384,-0.000483365729451,-0.00103991804644,1.0,0.0,0.0,0.0,1.0,0.0,0.0,0.0,1.0,0.814060176909,-0.023402203992,9.36525874138,0.1,0.0,0.0,0.0,0.1,0.0,0.0,0.0,0.1
1505356812498246949,11192,1505356812498034226,-0.034550244294,-0.0474177666582,-0.394502750096,0.917019855941,1.0,0.0,0.0,0.0,1.0,0.0,0.0,0.0,100000.0,-0.00208691507578,0.000283654779196,-0.000553607125767,1.0,0.0,0.0,0.0,1.0,0.0,0.0,0.0,1.0,0.812923760712,-0.0300670921337,9.36320612431,0.1,0.0,0.0,0.0,0.1,0.0,0.0,0.0,0.1
1505356812499523928,11193,1505356812499382519,-0.034539225425,-0.0474129007694,-0.394510426816,0.917017220057,1.0,0.0,0.0,0.0,1.0,0.0,0.0,0.0,100000.0,-0.00159666314721,0.000672150403261,-0.000397695286665,1.0,0.0,0.0,0.0,1.0,0.0,0.0,0.0,1.0,0.812742097676,-0.0434863559902,9.35648283958,0.1,0.0,0.0,0.0,0.1,0.0,0.0,0.0,0.1
1505356812504439019,11194,1505356812504273942,-0.0345316361138,-0.0474160425068,-0.394518011111,0.917014080551,1.0,0.0,0.0,0.0,1.0,0.0,0.0,0.0,100000.0,-0.000553797930479,0.000478763162391,-0.00025904038921,1.0,0.0,0.0,0.0,1.0,0.0,0.0,0.0,1.0,0.812564523518,-0.0376548666507,9.33441866636,0.1,0.0,0.0,0.0,0.1,0.0,0.0,0.0,0.1
1505356812511943508,11195,1505356812511707426,-0.0345240468574,-0.0474191843765,-0.394525595351,0.917010940913,1.0,0.0,0.0,0.0,1.0,0.0,0.0,0.0,100000.0,-0.00037452208926,7.67949968576e-05,1.77030451596e-05,1.0,0.0,0.0,0.0,1.0,0.0,0.0,0.0,1.0,0.812455438077,-0.0405898874626,9.29808489084,0.1,0.0,0.0,0.0,0.1,0.0,0.0,0.0,0.1
1505356812516125647,11196,1505356812515952103,-0.0345164586098,-0.0474223259681,-0.394533179585,0.917007801107,1.0,0.0,0.0,0.0,1.0,0.0,0.0,0.0,100000.0,7.67409801483e-06,0.000113137066364,-0.000157334841788,1.0,0.0,0.0,0.0,1.0,0.0,0.0,0.0,1.0,0.812955449522,-0.032751399884,9.28318384886,0.1,0.0,0.0,0.0,0.1,0.0,0.0,0.0,0.1
1505356812519572863,11197,1505356812519382533,-0.0345168722195,-0.0474220249185,-0.394541177585,0.917004360008,1.0,0.0,0.0,0.0,1.0,0.0,0.0,0.0,100000.0,-0.000636782497168,-0.000150430947542,8.48571071401e-05,1.0,0.0,0.0,0.0,1.0,0.0,0.0,0.0,1.0,0.813188953698,-0.0516282032244,9.2762742281,0.1,0.0,0.0,0.0,0.1,0.0,0.0,0.0,0.1
1505356812524506051,11198,1505356812524371554,-0.034508869463,-0.0474254681026,-0.394540763715,0.917004661204,1.0,0.0,0.0,0.0,1.0,0.0,0.0,0.0,100000.0,-0.00085511431098,0.000135889276862,0.000208476616535,1.0,0.0,0.0,0.0,1.0,0.0,0.0,0.0,1.0,0.813735476136,-0.0725268315524,9.28566755056,0.1,0.0,0.0,0.0,0.1,0.0,0.0,0.0,0.1
1505356812536874816,11199,1505356812536658325,-0.0345172858265,-0.0474217238653,-0.394549175556,0.91700091884,1.0,0.0,0.0,0.0,1.0,0.0,0.0,0.0,100000.0,-0.00109130889177,0.000217044740566,0.000295380537864,1.0,0.0,0.0,0.0,1.0,0.0,0.0,0.0,1.0,0.814168970287,-0.105385717377,9.29788395166,0.1,0.0,0.0,0.0,0.1,0.0,0.0,0.0,0.1
1505356812536885833,11200,1505356812536696822,-0.0345257027493,-0.0474179787424,-0.394557617808,0.91699716323,1.0,0.0,0.0,0.0,1.0,0.0,0.0,0.0,100000.0,-0.00125446915627,0.000289861112833,-0.000304843124468,1.0,0.0,0.0,0.0,1.0,0.0,0.0,0.0,1.0,0.814338731766,-0.123484052531,9.29117059708,0.1,0.0,0.0,0.0,0.1,0.0,0.0,0.0,0.1
1505356812539699810,11201,1505356812539569168,-0.0345257027493,-0.0474179787424,-0.394557617808,0.91699716323,1.0,0.0,0.0,0.0,1.0,0.0,0.0,0.0,100000.0,-0.00105508044362,0.00122891378123,0.000497372762766,1.0,0.0,0.0,0.0,1.0,0.0,0.0,0.0,1.0,0.814487099648,-0.126328342222,9.29381201267,0.1,0.0,0.0,0.0,0.1,0.0,0.0,0.0,0.1
1505356812544897552,11202,1505356812544720523,-0.034534118982,-0.0474142342112,-0.394566029518,0.916993420571,1.0,0.0,0.0,0.0,1.0,0.0,0.0,0.0,100000.0,-0.00126802548766,0.000740991905332,0.00010851706611,1.0,0.0,0.0,0.0,1.0,0.0,0.0,0.0,1.0,0.814356766641,-0.120452778786,9.28476332426,0.1,0.0,0.0,0.0,0.1,0.0,0.0,0.0,0.1
1505356812550005549,11203,1505356812549697167,-0.0345386906175,-0.0474027839601,-0.394566535685,0.916993622574,1.0,0.0,0.0,0.0,1.0,0.0,0.0,0.0,100000.0,-0.00122444331646,0.00172319449484,0.00145566649735,1.0,0.0,0.0,0.0,1.0,0.0,0.0,0.0,1.0,0.814281487465,-0.107980658486,9.28925174475,0.1,0.0,0.0,0.0,0.1,0.0,0.0,0.0,0.1
1505356812554714096,11204,1505356812554589329,-0.0345391040567,-0.0474024827166,-0.394574533562,0.916990181184,1.0,0.0,0.0,0.0,1.0,0.0,0.0,0.0,100000.0,-0.00147690996528,0.000629086047411,0.00105267739855,1.0,0.0,0.0,0.0,1.0,0.0,0.0,0.0,1.0,0.81428207159,-0.113241119497,9.29133298397,0.1,0.0,0.0,0.0,0.1,0.0,0.0,0.0,0.1
1505356812563734067,11205,1505356812563497143,-0.0345471057328,-0.0473990396483,-0.394574947182,0.91698987976,1.0,0.0,0.0,0.0,1.0,0.0,0.0,0.0,100000.0,-0.00177820399404,0.00123181566596,0.000887254718691,1.0,0.0,0.0,0.0,1.0,0.0,0.0,0.0,1.0,0.814291344583,-0.111719226092,9.28992640972,0.1,0.0,0.0,0.0,0.1,0.0,0.0,0.0,0.1
1505356812564566716,11206,1505356812564354250,-0.0345520905804,-0.0473872879873,-0.394583450897,0.916986640171,1.0,0.0,0.0,0.0,1.0,0.0,0.0,0.0,100000.0,-0.00120149925351,0.000972170382738,0.000939406454563,1.0,0.0,0.0,0.0,1.0,0.0,0.0,0.0,1.0,0.814424817264,-0.118787610345,9.29173018932,0.1,0.0,0.0,0.0,0.1,0.0,0.0,0.0,0.1
1505356812571582873,11207,1505356812571166824,-0.0345520905804,-0.0473872879873,-0.394583450897,0.916986640171,1.0,0.0,0.0,0.0,1.0,0.0,0.0,0.0,100000.0,-0.00100409984589,0.001090740785,0.000217273365706,1.0,0.0,0.0,0.0,1.0,0.0,0.0,0.0,1.0,0.814459207654,-0.115207550675,9.28873479366,0.1,0.0,0.0,0.0,0.1,0.0,0.0,0.0,0.1
1505356812579148710,11208,1505356812578920300,-0.0345525038845,-0.0473869866269,-0.394591448713,0.916983198633,1.0,0.0,0.0,0.0,1.0,0.0,0.0,0.0,100000.0,0.000150721520185,0.0013863388449,0.00108153279871,1.0,0.0,0.0,0.0,1.0,0.0,0.0,0.0,1.0,0.814473737776,-0.113021460921,9.28978271484,0.1,0.0,0.0,0.0,0.1,0.0,0.0,0.0,0.1
1505356812579849241,11209,1505356812579634934,-0.0345609187711,-0.0473832419773,-0.394599859981,0.916979455482,1.0,0.0,0.0,0.0,1.0,0.0,0.0,0.0,100000.0,-0.00029082223773,0.000874325633049,0.000191948842257,1.0,0.0,0.0,0.0,1.0,0.0,0.0,0.0,1.0,0.814422334731,-0.113818390667,9.30532979965,0.1,0.0,0.0,0.0,0.1,0.0,0.0,0.0,0.1
1505356812585406486,11210,1505356812585146198,-0.0345574858405,-0.0473752314225,-0.394599952169,0.916979959088,1.0,0.0,0.0,0.0,1.0,0.0,0.0,0.0,100000.0,-0.000793151615653,0.00121226534247,-0.00019491976127,1.0,0.0,0.0,0.0,1.0,0.0,0.0,0.0,1.0,0.814269804955,-0.0975082280114,9.32303931713,0.1,0.0,0.0,0.0,0.1,0.0,0.0,0.0,0.1
1505356812590059677,11211,1505356812589809517,-0.0345578990394,-0.0473749300151,-0.394607949926,0.916976517407,1.0,0.0,0.0,0.0,1.0,0.0,0.0,0.0,100000.0,-0.00177361816168,0.00104478001595,-0.000904965912923,1.0,0.0,0.0,0.0,1.0,0.0,0.0,0.0,1.0,0.814121437073,-0.0814606389031,9.34295566082,0.1,0.0,0.0,0.0,0.1,0.0,0.0,0.0,0.1
1505356812597351884,11212,1505356812597128386,-0.0345587270064,-0.047374326039,-0.394623975877,0.916969620698,1.0,0.0,0.0,0.0,1.0,0.0,0.0,0.0,100000.0,-0.00214973837137,0.000893892720342,-0.00165801681578,1.0,0.0,0.0,0.0,1.0,0.0,0.0,0.0,1.0,0.813921812177,-0.0470437762327,9.33954378366,0.1,0.0,0.0,0.0,0.1,0.0,0.0,0.0,0.1
1505356812599791730,11213,1505356812599578682,-0.0345477071471,-0.0473694615671,-0.394631652343,0.916966983599,1.0,0.0,0.0,0.0,1.0,0.0,0.0,0.0,100000.0,-0.00172304734588,0.000527190044522,-0.000874829012901,1.0,0.0,0.0,0.0,1.0,0.0,0.0,0.0,1.0,0.813798269629,-0.0310245445929,9.31113892794,0.1,0.0,0.0,0.0,0.1,0.0,0.0,0.0,0.1
1505356812605006682,11214,1505356812604767470,-0.0345401178955,-0.0473726042884,-0.394639236579,0.91696384311,1.0,0.0,0.0,0.0,1.0,0.0,0.0,0.0,100000.0,-0.00150661915541,4.42937016487e-05,-0.00102040311322,1.0,0.0,0.0,0.0,1.0,0.0,0.0,0.0,1.0,0.813707949221,-0.0263868321199,9.28850523233,0.1,0.0,0.0,0.0,0.1,0.0,0.0,0.0,0.1
1505356812611607572,11215,1505356812611257377,-0.0345359613819,-0.0473837532896,-0.39464672846,0.916960199252,1.0,0.0,0.0,0.0,1.0,0.0,0.0,0.0,100000.0,-0.00175662711263,-0.000402439385653,0.000431623775512,1.0,0.0,0.0,0.0,1.0,0.0,0.0,0.0,1.0,0.813615511358,-0.0322096554097,9.28497360945,0.1,0.0,0.0,0.0,0.1,0.0,0.0,0.0,0.1
1505356812615048563,11216,1505356812614820908,-0.0345363746552,-0.0473834520699,-0.394654726045,0.916956757163,1.0,0.0,0.0,0.0,1.0,0.0,0.0,0.0,100000.0,-0.00201959162951,-0.000556686893106,0.000875234138221,1.0,0.0,0.0,0.0,1.0,0.0,0.0,0.0,1.0,0.813496349752,-0.0449548612349,9.31662269831,0.1,0.0,0.0,0.0,0.1,0.0,0.0,0.0,0.1
1505356812620091737,11217,1505356812619882998,-0.0345363746552,-0.0473834520699,-0.394654726045,0.916956757163,1.0,0.0,0.0,0.0,1.0,0.0,0.0,0.0,100000.0,-0.0024878308177,-0.0010784342885,0.00132432160899,1.0,0.0,0.0,0.0,1.0,0.0,0.0,0.0,1.0,0.813260436058,-0.0375322915614,9.36105303764,0.1,0.0,0.0,0.0,0.1,0.0,0.0,0.0,0.1
1505356812624957149,11218,1505356812624813092,-0.0345367879258,-0.0473831508466,-0.3946627236,0.916953315004,1.0,0.0,0.0,0.0,1.0,0.0,0.0,0.0,100000.0,-0.00197552144527,-0.00126369297504,0.00108653726056,1.0,0.0,0.0,0.0,1.0,0.0,0.0,0.0,1.0,0.813078188896,-0.0541594062001,9.36438781023,0.1,0.0,0.0,0.0,0.1,0.0,0.0,0.0,0.1
1505356812632223196,11219,1505356812631910932,-0.0345287856148,-0.0473865950914,-0.394662310069,0.916953616374,1.0,0.0,0.0,0.0,1.0,0.0,0.0,0.0,100000.0,-0.00135218352079,-0.000710939988494,-0.00017821835354,1.0,0.0,0.0,0.0,1.0,0.0,0.0,0.0,1.0,0.812870897353,-0.0646374360658,9.34999904633,0.1,0.0,0.0,0.0,0.1,0.0,0.0,0.0,0.1
1505356812639113868,11220,1505356812638837124,-0.0345372027711,-0.04738284847,-0.39467075165,0.916949859637,1.0,0.0,0.0,0.0,1.0,0.0,0.0,0.0,100000.0,-0.00134424865246,3.07131558657e-05,7.57840462029e-05,1.0,0.0,0.0,0.0,1.0,0.0,0.0,0.0,1.0,0.812762834132,-0.10264894329,9.31386620998,0.1,0.0,0.0,0.0,0.1,0.0,0.0,0.0,0.1
1505356812642168552,11221,1505356812641999090,-0.0345376160365,-0.0473825472395,-0.394678749145,0.916946417338,1.0,0.0,0.0,0.0,1.0,0.0,0.0,0.0,100000.0,-0.000437080889242,0.00160086341202,0.000142267439514,1.0,0.0,0.0,0.0,1.0,0.0,0.0,0.0,1.0,0.812682516873,-0.121753379889,9.29347205162,0.1,0.0,0.0,0.0,0.1,0.0,0.0,0.0,0.1
1505356812645162802,11222,1505356812644939002,-0.0345421853261,-0.0473710968228,-0.394679254888,0.916946619155,1.0,0.0,0.0,0.0,1.0,0.0,0.0,0.0,100000.0,-0.00102526322007,0.00174076668918,0.00195528776385,1.0,0.0,0.0,0.0,1.0,0.0,0.0,0.0,1.0,0.812699383497,-0.125805193931,9.31051216125,0.1,0.0,0.0,0.0,0.1,0.0,0.0,0.0,0.1
1505356812651795996,11223,1505356812651631090,-0.034550187576,-0.0473676524301,-0.394679668284,0.916946317668,1.0,0.0,0.0,0.0,1.0,0.0,0.0,0.0,100000.0,-0.000339459627867,0.00101418048143,0.00256267469376,1.0,0.0,0.0,0.0,1.0,0.0,0.0,0.0,1.0,0.812984801829,-0.121177523397,9.29855394363,0.1,0.0,0.0,0.0,0.1,0.0,0.0,0.0,0.1
1505356812655132746,11224,1505356812654980065,-0.034550187576,-0.0473676524301,-0.394679668284,0.916946317668,1.0,0.0,0.0,0.0,1.0,0.0,0.0,0.0,100000.0,-0.000946272164583,4.65605407953e-05,0.0028142137453,1.0,0.0,0.0,0.0,1.0,0.0,0.0,0.0,1.0,0.81349503547,-0.106016134843,9.30957405567,0.1,0.0,0.0,0.0,0.1,0.0,0.0,0.0,0.1
1505356812665306476,11225,1505356812665105731,-0.0345581888694,-0.0473642084444,-0.3946800816,0.916946016148,1.0,0.0,0.0,0.0,1.0,0.0,0.0,0.0,100000.0,-0.00123390555382,-0.00145874358714,0.00215026922524,1.0,0.0,0.0,0.0,1.0,0.0,0.0,0.0,1.0,0.814238408208,-0.113657025993,9.28438481092,0.1,0.0,0.0,0.0,0.1,0.0,0.0,0.0,0.1
1505356812665314588,11226,1505356812665133692,-0.0345620340379,-0.0473719134416,-0.3946879869,0.916942070481,1.0,0.0,0.0,0.0,1.0,0.0,0.0,0.0,100000.0,-0.000927347689867,-0.000528881326318,0.000754243694246,1.0,0.0,0.0,0.0,1.0,0.0,0.0,0.0,1.0,0.814851886034,-0.112678460591,9.27938469648,0.1,0.0,0.0,0.0,0.1,0.0,0.0,0.0,0.1
1505356812670681905,11227,1505356812670526950,-0.0345700362481,-0.0473684689727,-0.394688400302,0.916941768821,1.0,0.0,0.0,0.0,1.0,0.0,0.0,0.0,100000.0,-0.00124573707581,-0.00046711973846,0.000792177394032,1.0,0.0,0.0,0.0,1.0,0.0,0.0,0.0,1.0,0.815138472617,-0.120265968144,9.29123718739,0.1,0.0,0.0,0.0,0.1,0.0,0.0,0.0,0.1
1505356812677136199,11228,1505356812676926572,-0.034570449388,-0.0473681674558,-0.394696397727,0.916938326368,1.0,0.0,0.0,0.0,1.0,0.0,0.0,0.0,100000.0,-0.000576287508011,0.000848822295666,-0.000334982760251,1.0,0.0,0.0,0.0,1.0,0.0,0.0,0.0,1.0,0.814995069802,-0.117451149411,9.2854280591,0.1,0.0,0.0,0.0,0.1,0.0,0.0,0.0,0.1
1505356812682858471,11229,1505356812682690267,-0.0345750194389,-0.0473567165312,-0.394696903123,0.916938527981,1.0,0.0,0.0,0.0,1.0,0.0,0.0,0.0,100000.0,-0.00125535577536,0.00109837017953,0.000695457682014,1.0,0.0,0.0,0.0,1.0,0.0,0.0,0.0,1.0,0.814527769387,-0.113853620738,9.30123332739,0.1,0.0,0.0,0.0,0.1,0.0,0.0,0.0,0.1
1505356812685514007,11230,1505356812685399219,-0.0345834336717,-0.047352970765,-0.394705313737,0.916934783713,1.0,0.0,0.0,0.0,1.0,0.0,0.0,0.0,100000.0,-0.00146102905273,0.000878160819411,0.000154335066327,1.0,0.0,0.0,0.0,1.0,0.0,0.0,0.0,1.0,0.814028050005,-0.11523333434,9.2863229394,0.1,0.0,0.0,0.0,0.1,0.0,0.0,0.0,0.1
1505356812690349486,11231,1505356812690145830,-0.0345838466764,-0.0473526691313,-0.394713311101,0.916931341113,1.0,0.0,0.0,0.0,1.0,0.0,0.0,0.0,100000.0,-0.00126040354371,0.000973416492343,5.00800088048e-05,1.0,0.0,0.0,0.0,1.0,0.0,0.0,0.0,1.0,0.813665089011,-0.113549227454,9.28904087543,0.1,0.0,0.0,0.0,0.1,0.0,0.0,0.0,0.1
1505356812695390164,11232,1505356812695153509,-0.0345922617651,-0.0473489227343,-0.394721721666,0.916927596589,1.0,0.0,0.0,0.0,1.0,0.0,0.0,0.0,100000.0,-0.00102476403117,-0.000207412987947,0.000108996406198,1.0,0.0,0.0,0.0,1.0,0.0,0.0,0.0,1.0,0.82883168906,-0.115594095737,9.29044277668,0.1,0.0,0.0,0.0,0.1,0.0,0.0,0.0,0.1
1505356812700292736,11233,1505356812700081151,-0.0345961087082,-0.0473566261361,-0.394729657587,0.916923637303,1.0,0.0,0.0,0.0,1.0,0.0,0.0,0.0,100000.0,0.000260028988123,-0.000426942482591,-0.000813880702481,1.0,0.0,0.0,0.0,1.0,0.0,0.0,0.0,1.0,0.847672365606,-0.114916537516,9.28773009777,0.1,0.0,0.0,0.0,0.1,0.0,0.0,0.0,0.1
1505356812707668075,11234,1505356812707393377,-0.0345995427399,-0.0473646362145,-0.394729565609,0.91692313359,1.0,0.0,0.0,0.0,1.0,0.0,0.0,0.0,100000.0,-4.91850078106e-05,-0.000946713669691,0.000929516798351,1.0,0.0,0.0,0.0,1.0,0.0,0.0,0.0,1.0,0.882561087608,-0.11362552885,9.29397907257,0.1,0.0,0.0,0.0,0.1,0.0,0.0,0.0,0.1
1505356812711280712,11235,1505356812710672206,-0.0346068207679,-0.0473803468906,-0.394737378903,0.916918683625,1.0,0.0,0.0,0.0,1.0,0.0,0.0,0.0,100000.0,-0.000310156523483,-0.000943837687373,0.000547861971427,1.0,0.0,0.0,0.0,1.0,0.0,0.0,0.0,1.0,0.899139373004,-0.114220232517,9.28958177567,0.1,0.0,0.0,0.0,0.1,0.0,0.0,0.0,0.1
1505356812715506431,11236,1505356812715293611,-0.0346216867223,-0.0473929148389,-0.394737608382,0.916917374119,1.0,0.0,0.0,0.0,1.0,0.0,0.0,0.0,100000.0,-0.0014366991818,-6.40787184238e-05,0.00187060097232,1.0,0.0,0.0,0.0,1.0,0.0,0.0,0.0,1.0,0.904646581411,-0.113611272536,9.29056719542,0.1,0.0,0.0,0.0,0.1,0.0,0.0,0.0,0.1
1505356812720615066,11237,1505356812720507060,-0.0346331211597,-0.0473974761511,-0.394737930019,0.916916568057,1.0,0.0,0.0,0.0,1.0,0.0,0.0,0.0,100000.0,-0.00254818797112,-0.000626532360911,0.0012083920883,1.0,0.0,0.0,0.0,1.0,0.0,0.0,0.0,1.0,0.897672487795,-0.114684092067,9.29100762606,0.1,0.0,0.0,0.0,0.1,0.0,0.0,0.0,0.1
1505356812725462729,11238,1505356812725219265,-0.0346449690157,-0.0474017352908,-0.394746248933,0.916912318909,1.0,0.0,0.0,0.0,1.0,0.0,0.0,0.0,100000.0,-0.00193243846297,0.000133154913783,0.000623774249107,1.0,0.0,0.0,0.0,1.0,0.0,0.0,0.0,1.0,0.869095169008,-0.115029520169,9.28927043676,0.1,0.0,0.0,0.0,0.1,0.0,0.0,0.0,0.1
1505356812730878555,11239,1505356812730694734,-0.0346564041478,-0.0474063007207,-0.394746570628,0.916911512241,1.0,0.0,0.0,0.0,1.0,0.0,0.0,0.0,100000.0,-0.00191441550851,-0.000546649098396,0.000378711614758,1.0,0.0,0.0,0.0,1.0,0.0,0.0,0.0,1.0,0.856427969038,-0.114838346839,9.29147667885,0.1,0.0,0.0,0.0,0.1,0.0,0.0,0.0,0.1
1505356812741229145,11240,1505356812741010673,-0.0346568176177,-0.0474059984505,-0.394754567789,0.916908069281,1.0,0.0,0.0,0.0,1.0,0.0,0.0,0.0,100000.0,-0.000300034880638,0.000360632315278,-0.000459475442767,1.0,0.0,0.0,0.0,1.0,0.0,0.0,0.0,1.0,0.819521166384,-0.115101860464,9.2897108674,0.1,0.0,0.0,0.0,0.1,0.0,0.0,0.0,0.1
1505356812741347697,11241,1505356812741042070,-0.0346572310849,-0.0474056961767,-0.394762564919,0.916904626252,1.0,0.0,0.0,0.0,1.0,0.0,0.0,0.0,100000.0,-0.000481519848108,0.000315867364407,0.000488530145958,1.0,0.0,0.0,0.0,1.0,0.0,0.0,0.0,1.0,0.811476005614,-0.114455169626,9.29004089832,0.1,0.0,0.0,0.0,0.1,0.0,0.0,0.0,0.1
1505356812745526854,11242,1505356812745423110,-0.0346542102046,-0.0473973839927,-0.394770653951,0.91690168747,1.0,0.0,0.0,0.0,1.0,0.0,0.0,0.0,100000.0,-0.00105776637793,0.000246426090598,3.79394041374e-05,1.0,0.0,0.0,0.0,1.0,0.0,0.0,0.0,1.0,0.802341815829,-0.099152258411,9.30511425734,0.1,0.0,0.0,0.0,0.1,0.0,0.0,0.0,0.1
1505356812751007702,11243,1505356812750738673,-0.0346542102046,-0.0473973839927,-0.394770653951,0.91690168747,1.0,0.0,0.0,0.0,1.0,0.0,0.0,0.0,100000.0,-0.00107258930802,0.000157691552886,0.000884616398253,1.0,0.0,0.0,0.0,1.0,0.0,0.0,0.0,1.0,0.8069921121,-0.0802907450125,9.3226999402,0.1,0.0,0.0,0.0,0.1,0.0,0.0,0.0,0.1
1505356812755769117,11244,1505356812755542601,-0.0346546235967,-0.0473970817417,-0.394778651026,0.9168982443,1.0,0.0,0.0,0.0,1.0,0.0,0.0,0.0,100000.0,-0.00214198604226,6.4043328166e-05,8.87654096005e-05,1.0,0.0,0.0,0.0,1.0,0.0,0.0,0.0,1.0,0.8215195328,-0.0455339349806,9.35756931305,0.1,0.0,0.0,0.0,0.1,0.0,0.0,0.0,0.1
1505356812764235279,11245,1505356812764048132,-0.0346470377176,-0.0474002232492,-0.394786264993,0.916895090284,1.0,0.0,0.0,0.0,1.0,0.0,0.0,0.0,100000.0,-0.000744882971048,0.00110334530473,2.89791496471e-05,1.0,0.0,0.0,0.0,1.0,0.0,0.0,0.0,1.0,0.813906770945,-0.0444942828268,9.37308251858,0.1,0.0,0.0,0.0,0.1,0.0,0.0,0.0,0.1
1505356812771175561,11246,1505356812770691533,-0.0346440182098,-0.0473919150591,-0.394794353951,0.916892150952,1.0,0.0,0.0,0.0,1.0,0.0,0.0,0.0,100000.0,-0.00147987157106,0.00117237505037,8.04896699265e-05,1.0,0.0,0.0,0.0,1.0,0.0,0.0,0.0,1.0,0.818923313916,-0.0574282638729,9.37878183126,0.1,0.0,0.0,0.0,0.1,0.0,0.0,0.0,0.1
1505356812771184867,11247,1505356812770727579,-0.0346444315542,-0.047391612897,-0.394802350942,0.916888707576,1.0,0.0,0.0,0.0,1.0,0.0,0.0,0.0,100000.0,-0.000896822661161,0.00153516978025,-0.000123775564134,1.0,0.0,0.0,0.0,1.0,0.0,0.0,0.0,1.0,0.809952606261,-0.0835707832128,9.37229803801,0.1,0.0,0.0,0.0,0.1,0.0,0.0,0.0,0.1
1505356812775639081,11248,1505356812775467052,-0.034640998557,-0.0473836069216,-0.394802442857,0.91688921148,1.0,0.0,0.0,0.0,1.0,0.0,0.0,0.0,100000.0,-0.000631298869848,0.000418247655034,0.000336611585226,1.0,0.0,0.0,0.0,1.0,0.0,0.0,0.0,1.0,0.813145436347,-0.109427756444,9.35932052135,0.1,0.0,0.0,0.0,0.1,0.0,0.0,0.0,0.1
1505356812780575781,11249,1505356812780445052,-0.0346414118289,-0.0473833047858,-0.394810439823,0.916885768033,1.0,0.0,0.0,0.0,1.0,0.0,0.0,0.0,100000.0,-0.000679962395225,0.000599984079599,-0.000648947083391,1.0,0.0,0.0,0.0,1.0,0.0,0.0,0.0,1.0,0.816045765579,-0.0931099453941,9.35079345703,0.1,0.0,0.0,0.0,0.1,0.0,0.0,0.0,0.1
1505356812789739243,11250,1505356812789517512,-0.0346418250983,-0.0473830026464,-0.394818436759,0.916882324516,1.0,0.0,0.0,0.0,1.0,0.0,0.0,0.0,100000.0,0.000336896628141,-0.000207034885534,-0.000999952433631,1.0,0.0,0.0,0.0,1.0,0.0,0.0,0.0,1.0,0.813992345333,-0.10689569097,9.33014578819,0.1,0.0,0.0,0.0,0.1,0.0,0.0,0.0,0.1
1505356812790805609,11251,1505356812790558896,-0.0346422383649,-0.0473827005034,-0.394826433665,0.916878880929,1.0,0.0,0.0,0.0,1.0,0.0,0.0,0.0,100000.0,-0.0009003020823,0.000398689880967,-0.00109405396506,1.0,0.0,0.0,0.0,1.0,0.0,0.0,0.0,1.0,0.816403907537,-0.0969867773354,9.30432977676,0.1,0.0,0.0,0.0,0.1,0.0,0.0,0.0,0.1
1505356812798388825,11252,1505356812798175854,-0.0346506523039,-0.0473789530206,-0.394834843986,0.916875134945,1.0,0.0,0.0,0.0,1.0,0.0,0.0,0.0,100000.0,-0.00136865314562,-0.000412007793784,-0.000895643373951,1.0,0.0,0.0,0.0,1.0,0.0,0.0,0.0,1.0,0.813392813504,-0.119387680665,9.28467220068,0.1,0.0,0.0,0.0,0.1,0.0,0.0,0.0,0.1
1505356812804653467,11253,1505356812804385275,-0.0346590687084,-0.0473752038266,-0.394843284813,0.916871375634,1.0,0.0,0.0,0.0,1.0,0.0,0.0,0.0,100000.0,-0.00241231545806,-0.000179458409548,0.000637899152935,1.0,0.0,0.0,0.0,1.0,0.0,0.0,0.0,1.0,0.813726714253,-0.12600522954,9.27685776949,0.1,0.0,0.0,0.0,0.1,0.0,0.0,0.0,0.1
1505356812806108801,11254,1505356812805816315,-0.0346670693478,-0.0473717584132,-0.394843698195,0.916871073163,1.0,0.0,0.0,0.0,1.0,0.0,0.0,0.0,100000.0,-0.00257940590382,-3.20188701153e-05,0.00103576574475,1.0,0.0,0.0,0.0,1.0,0.0,0.0,0.0,1.0,0.814214240015,-0.0988359909505,9.28478201628,0.1,0.0,0.0,0.0,0.1,0.0,0.0,0.0,0.1
1505356812811200050,11255,1505356812811002779,-0.0346670693478,-0.0473717584132,-0.394843698195,0.916871073163,1.0,0.0,0.0,0.0,1.0,0.0,0.0,0.0,100000.0,-0.00163327157497,-0.000102171674371,0.00247557880357,1.0,0.0,0.0,0.0,1.0,0.0,0.0,0.0,1.0,0.812946906686,-0.0863115457818,9.29587397575,0.1,0.0,0.0,0.0,0.1,0.0,0.0,0.0,0.1
1505356812815741816,11256,1505356812815619207,-0.034659481907,-0.0473749015332,-0.394851281623,0.916867931831,1.0,0.0,0.0,0.0,1.0,0.0,0.0,0.0,100000.0,-0.00115763023496,0.000318478792906,0.00200465600938,1.0,0.0,0.0,0.0,1.0,0.0,0.0,0.0,1.0,0.813711965084,-0.0366991209332,9.29216594696,0.1,0.0,0.0,0.0,0.1,0.0,0.0,0.0,0.1
1505356812820899175,11257,1505356812820750489,-0.0346549137532,-0.0473863532198,-0.394850776293,0.916867730342,1.0,0.0,0.0,0.0,1.0,0.0,0.0,0.0,100000.0,-0.000457998365164,-0.00093443877995,0.00204563979059,1.0,0.0,0.0,0.0,1.0,0.0,0.0,0.0,1.0,0.812640751898,-0.0340089240111,9.29348665476,0.1,0.0,0.0,0.0,0.1,0.0,0.0,0.0,0.1
1505356812825676162,11258,1505356812825519530,-0.0346473264689,-0.0473894965076,-0.394858359565,0.916864588841,1.0,0.0,0.0,0.0,1.0,0.0,0.0,0.0,100000.0,-0.000590465962887,-0.000544961541891,0.000565470196307,1.0,0.0,0.0,0.0,1.0,0.0,0.0,0.0,1.0,0.812789265811,-0.0260764150415,9.28456705809,0.1,0.0,0.0,0.0,0.1,0.0,0.0,0.0,0.1
1505356812830971404,11259,1505356812830614636,-0.0346397382856,-0.0473926403385,-0.394865942733,0.916861447244,1.0,0.0,0.0,0.0,1.0,0.0,0.0,0.0,100000.0,-0.000706471502781,-0.000807080417871,-0.000271086581051,1.0,0.0,0.0,0.0,1.0,0.0,0.0,0.0,1.0,0.813211807609,-0.0310927640647,9.28884986639,0.1,0.0,0.0,0.0,0.1,0.0,0.0,0.0,0.1
1505356812836676139,11260,1505356812836462499,-0.0346401516364,-0.0473923382137,-0.394873939457,0.916858003243,1.0,0.0,0.0,0.0,1.0,0.0,0.0,0.0,100000.0,-0.00112329050899,0.000252969563007,-0.000483261886984,1.0,0.0,0.0,0.0,1.0,0.0,0.0,0.0,1.0,0.812996776402,-0.0469376889989,9.29035691023,0.1,0.0,0.0,0.0,0.1,0.0,0.0,0.0,0.1
1505356812842855625,11261,1505356812842665662,-0.0346325635353,-0.0473954822431,-0.394881522542,0.916854861448,1.0,0.0,0.0,0.0,1.0,0.0,0.0,0.0,100000.0,-0.00129283219576,0.000570444448385,-0.000564812682569,1.0,0.0,0.0,0.0,1.0,0.0,0.0,0.0,1.0,0.813537822664,-0.0354150989559,9.28991180658,0.1,0.0,0.0,0.0,0.1,0.0,0.0,0.0,0.1
1505356812845888030,11262,1505356812845739380,-0.0346245630374,-0.0473989279866,-0.394881108953,0.916855163618,1.0,0.0,0.0,0.0,1.0,0.0,0.0,0.0,100000.0,-0.00176892802119,0.000544732436538,0.00112809706479,1.0,0.0,0.0,0.0,1.0,0.0,0.0,0.0,1.0,0.8133495152,-0.042050917726,9.29130903482,0.1,0.0,0.0,0.0,0.1,0.0,0.0,0.0,0.1
1505356812851627580,11263,1505356812850791947,-0.0346249764429,-0.0473986259942,-0.394889105622,0.916851719484,1.0,0.0,0.0,0.0,1.0,0.0,0.0,0.0,100000.0,-0.00120704621077,0.000389436259866,0.000516747648362,1.0,0.0,0.0,0.0,1.0,0.0,0.0,0.0,1.0,0.813515990973,-0.0334453318734,9.28842345476,0.1,0.0,0.0,0.0,0.1,0.0,0.0,0.0,0.1
1505356812857567588,11264,1505356812857443411,-0.0346173900296,-0.0474017691359,-0.394896719119,0.916848564278,1.0,0.0,0.0,0.0,1.0,0.0,0.0,0.0,100000.0,-0.00125423073769,-0.000322049483657,0.00135092169512,1.0,0.0,0.0,0.0,1.0,0.0,0.0,0.0,1.0,0.813888736069,-0.0516791316681,9.28955315351,0.1,0.0,0.0,0.0,0.1,0.0,0.0,0.0,0.1
1505356812864650124,11265,1505356812864378722,-0.0346173900296,-0.0474017691359,-0.394896719119,0.916848564278,1.0,0.0,0.0,0.0,1.0,0.0,0.0,0.0,100000.0,-0.000505488365889,-2.4726614356e-05,-2.21764203161e-05,1.0,0.0,0.0,0.0,1.0,0.0,0.0,0.0,1.0,0.81402220875,-0.073839274887,9.28992640972,0.1,0.0,0.0,0.0,0.1,0.0,0.0,0.0,0.1
1505356812868004154,11266,1505356812867770877,-0.0346178034599,-0.047401467206,-0.394904715731,0.916845120009,1.0,0.0,0.0,0.0,1.0,0.0,0.0,0.0,100000.0,-0.000677928328514,-0.000375071540475,5.06008509547e-05,1.0,0.0,0.0,0.0,1.0,0.0,0.0,0.0,1.0,0.814458039403,-0.104368024692,9.28983061314,0.1,0.0,0.0,0.0,0.1,0.0,0.0,0.0,0.1
1505356812871386835,11267,1505356812871204322,-0.0346262182217,-0.0473977188425,-0.39491312597,0.916841373519,1.0,0.0,0.0,0.0,1.0,0.0,0.0,0.0,100000.0,-0.00091528147459,0.000609772279859,0.000414788722992,1.0,0.0,0.0,0.0,1.0,0.0,0.0,0.0,1.0,0.814464464784,-0.123271175288,9.29070154428,0.1,0.0,0.0,0.0,0.1,0.0,0.0,0.0,0.1
1505356812876169106,11268,1505356812875953762,-0.0346307846153,-0.0473862672654,-0.394913631665,0.916841575168,1.0,0.0,0.0,0.0,1.0,0.0,0.0,0.0,100000.0,-0.00104760378599,0.000873161479831,0.000478222034872,1.0,0.0,0.0,0.0,1.0,0.0,0.0,0.0,1.0,0.814404153824,-0.125676686317,9.2897634387,0.1,0.0,0.0,0.0,0.1,0.0,0.0,0.0,0.1
1505356812881116189,11269,1505356812880952540,-0.0346311979105,-0.0473859652187,-0.394921628215,0.916838130751,1.0,0.0,0.0,0.0,1.0,0.0,0.0,0.0,100000.0,-0.00199857726693,0.00104738213122,0.00145173713099,1.0,0.0,0.0,0.0,1.0,0.0,0.0,0.0,1.0,0.81428360492,-0.119502287917,9.29006484747,0.1,0.0,0.0,0.0,0.1,0.0,0.0,0.0,0.1
1505356812886702660,11270,1505356812886263023,-0.0346391992136,-0.0473825187108,-0.394922041741,0.916837828488,1.0,0.0,0.0,0.0,1.0,0.0,0.0,0.0,100000.0,-0.00216387584805,0.00119955278933,0.000440401956439,1.0,0.0,0.0,0.0,1.0,0.0,0.0,0.0,1.0,0.8140471071,-0.107752813026,9.30500911474,0.1,0.0,0.0,0.0,0.1,0.0,0.0,0.0,0.1
1505356812892399563,11271,1505356812892189249,-0.0346476137465,-0.0473787700094,-0.394930451751,0.91683408166,1.0,0.0,0.0,0.0,1.0,0.0,0.0,0.0,100000.0,-0.00296386703849,3.11583280563e-05,-1.32478307933e-05,1.0,0.0,0.0,0.0,1.0,0.0,0.0,0.0,1.0,0.814068865776,-0.112279539369,9.32326420546,0.1,0.0,0.0,0.0,0.1,0.0,0.0,0.0,0.1
1505356812897548696,11272,1505356812897362745,-0.0346560272602,-0.0473750215721,-0.394938861647,0.916830334722,1.0,0.0,0.0,0.0,1.0,0.0,0.0,0.0,100000.0,-0.00274413079023,0.000293804332614,-0.000604634173214,1.0,0.0,0.0,0.0,1.0,0.0,0.0,0.0,1.0,0.8140708372,-0.110807305761,9.35764116049,0.1,0.0,0.0,0.0,0.1,0.0,0.0,0.0,0.1
1505356812902701911,11273,1505356812902495857,-0.0346644416623,-0.0473712725772,-0.394947271526,0.916826587601,1.0,0.0,0.0,0.0,1.0,0.0,0.0,0.0,100000.0,-0.00197498872876,-0.000360192731023,-0.00101245415863,1.0,0.0,0.0,0.0,1.0,0.0,0.0,0.0,1.0,0.814172329009,-0.117536057532,9.37349900007,0.1,0.0,0.0,0.0,0.1,0.0,0.0,0.0,0.1
1505356812906018139,11274,1505356812905895551,-0.0346614220851,-0.0473629636717,-0.394955390295,0.916823633622,1.0,0.0,0.0,0.0,1.0,0.0,0.0,0.0,100000.0,-0.00126859173179,0.000109035529022,0.000219431589358,1.0,0.0,0.0,0.0,1.0,0.0,0.0,0.0,1.0,0.814180652797,-0.0985461734235,9.37894947529,0.1,0.0,0.0,0.0,0.1,0.0,0.0,0.0,0.1
1505356812911634345,11275,1505356812911413334,-0.0346614220851,-0.0473629636717,-0.394955390295,0.916823633622,1.0,0.0,0.0,0.0,1.0,0.0,0.0,0.0,100000.0,-0.000701371580362,0.000750603154302,0.000355064170435,1.0,0.0,0.0,0.0,1.0,0.0,0.0,0.0,1.0,0.8140322119,-0.0781391916797,9.37222151756,0.1,0.0,0.0,0.0,0.1,0.0,0.0,0.0,0.1
1505356812916470224,11276,1505356812916277671,-0.0346538340278,-0.0473661082265,-0.394962973337,0.916820491302,1.0,0.0,0.0,0.0,1.0,0.0,0.0,0.0,100000.0,-0.0010783188045,0.0010047275573,0.00126008293591,1.0,0.0,0.0,0.0,1.0,0.0,0.0,0.0,1.0,0.813809148967,-0.044861848373,9.35914353132,0.1,0.0,0.0,0.0,0.1,0.0,0.0,0.0,0.1
1505356812921244272,11277,1505356812921119171,-0.03464239943,-0.0473615492975,-0.394962651947,0.916821297406,1.0,0.0,0.0,0.0,1.0,0.0,0.0,0.0,100000.0,-0.00172071158886,0.00153497990686,0.00119082571473,1.0,0.0,0.0,0.0,1.0,0.0,0.0,0.0,1.0,0.813555857539,-0.0277044116519,9.36534986496,0.1,0.0,0.0,0.0,0.1,0.0,0.0,0.0,0.1
1505356812928788163,11278,1505356812928582442,-0.0346428125096,-0.0473612471495,-0.394970648321,0.916817852561,1.0,0.0,0.0,0.0,1.0,0.0,0.0,0.0,100000.0,-0.00171541795135,0.00127919390798,0.000775382155553,1.0,0.0,0.0,0.0,1.0,0.0,0.0,0.0,1.0,0.813442026079,-0.024998714868,9.36315822601,0.1,0.0,0.0,0.0,0.1,0.0,0.0,0.0,0.1
1505356812935357078,11279,1505356812935071164,-0.0346317899413,-0.0473563866736,-0.394978323318,0.916815213593,1.0,0.0,0.0,0.0,1.0,0.0,0.0,0.0,100000.0,-0.00215449556708,0.000717611983418,0.000556240789592,1.0,0.0,0.0,0.0,1.0,0.0,0.0,0.0,1.0,0.813514530659,-0.0314800598193,9.35641624928,0.1,0.0,0.0,0.0,0.1,0.0,0.0,0.0,0.1
1505356812936720958,11280,1505356812936593093,-0.0346322029759,-0.0473560846181,-0.394986319639,0.916811768612,1.0,0.0,0.0,0.0,1.0,0.0,0.0,0.0,100000.0,-0.00157356634736,0.000870753079653,-0.000191180035472,1.0,0.0,0.0,0.0,1.0,0.0,0.0,0.0,1.0,0.813769063354,-0.0596157865599,9.33452848196,0.1,0.0,0.0,0.0,0.1,0.0,0.0,0.0,0.1
1505356812945662791,11281,1505356812945451945,-0.0346326160078,-0.047355782559,-0.394994315929,0.916808323561,1.0,0.0,0.0,0.0,1.0,0.0,0.0,0.0,100000.0,-0.00202523171902,0.000421633943915,-0.000861060107127,1.0,0.0,0.0,0.0,1.0,0.0,0.0,0.0,1.0,0.814071421325,-0.0729844802059,9.29822391272,0.1,0.0,0.0,0.0,0.1,0.0,0.0,0.0,0.1
1505356812946562286,11282,1505356812946381814,-0.03464103005,-0.0473520332843,-0.395002725449,0.91680457616,1.0,0.0,0.0,0.0,1.0,0.0,0.0,0.0,100000.0,-0.00193580996711,0.000459853559732,-0.000957632088102,1.0,0.0,0.0,0.0,1.0,0.0,0.0,0.0,1.0,0.81434340477,-0.108804859594,9.2835670352,0.1,0.0,0.0,0.0,0.1,0.0,0.0,0.0,0.1
1505356812951772295,11283,1505356812951400265,-0.0346414446229,-0.047351729995,-0.395010752197,0.916801117817,1.0,0.0,0.0,0.0,1.0,0.0,0.0,0.0,100000.0,-0.00152919441462,-0.000342762097716,-0.00141039141454,1.0,0.0,0.0,0.0,1.0,0.0,0.0,0.0,1.0,0.814422407746,-0.117494821921,9.27658030987,0.1,0.0,0.0,0.0,0.1,0.0,0.0,0.0,0.1
1505356812956317225,11284,1505356812956199086,-0.0346498576131,-0.0473479809108,-0.395019161569,0.916797370232,1.0,0.0,0.0,0.0,1.0,0.0,0.0,0.0,100000.0,-0.00155397877097,-0.00100690498948,-0.000154037508764,1.0,0.0,0.0,0.0,1.0,0.0,0.0,0.0,1.0,0.814314198494,-0.111007596925,9.28586848974,0.1,0.0,0.0,0.0,0.1,0.0,0.0,0.0,0.1
1505356812964856684,11285,1505356812964490331,-0.0346532925002,-0.0473559860886,-0.395019069696,0.916796866529,1.0,0.0,0.0,0.0,1.0,0.0,0.0,0.0,100000.0,-0.000413063913584,-0.000949844717979,0.000532541191205,1.0,0.0,0.0,0.0,1.0,0.0,0.0,0.0,1.0,0.814053824544,-0.102697443962,9.29786934853,0.1,0.0,0.0,0.0,0.1,0.0,0.0,0.0,0.1
1505356812967628930,11286,1505356812967333231,-0.0346537055312,-0.0473556838456,-0.395027065856,0.916793421192,1.0,0.0,0.0,0.0,1.0,0.0,0.0,0.0,100000.0,-0.0012481212616,8.19563865662e-07,0.000725138001144,1.0,0.0,0.0,0.0,1.0,0.0,0.0,0.0,1.0,0.81365442872,-0.07301011784,9.29092175961,0.1,0.0,0.0,0.0,0.1,0.0,0.0,0.0,0.1
1505356812971746574,11287,1505356812971537617,-0.034650683533,-0.0473473764811,-0.395035153869,0.916790479487,1.0,0.0,0.0,0.0,1.0,0.0,0.0,0.0,100000.0,-0.00108019635081,0.000806279480457,0.00107443099841,1.0,0.0,0.0,0.0,1.0,0.0,0.0,0.0,1.0,0.813254667819,-0.0830932240933,9.30857870579,0.1,0.0,0.0,0.0,0.1,0.0,0.0,0.0,0.1
1505356812976392666,11288,1505356812976281443,-0.034650683533,-0.0473473764811,-0.395035153869,0.916790479487,1.0,0.0,0.0,0.0,1.0,0.0,0.0,0.0,100000.0,-0.00193730741739,0.00158856809139,-0.000204209238291,1.0,0.0,0.0,0.0,1.0,0.0,0.0,0.0,1.0,0.8128673926,-0.0708801817149,9.31789083481,0.1,0.0,0.0,0.0,0.1,0.0,0.0,0.0,0.1
1505356812981626896,11289,1505356812981449702,-0.0346476613898,-0.0473390691693,-0.39504324183,0.916787537641,1.0,0.0,0.0,0.0,1.0,0.0,0.0,0.0,100000.0,-0.00192375481129,0.000841548666358,0.000809660938103,1.0,0.0,0.0,0.0,1.0,0.0,0.0,0.0,1.0,0.812657545507,-0.0573432690464,9.35639230013,0.1,0.0,0.0,0.0,0.1,0.0,0.0,0.0,0.1
1505356812986790831,11290,1505356812986575737,-0.0346400743929,-0.0473422141997,-0.395050824815,0.916784394399,1.0,0.0,0.0,0.0,1.0,0.0,0.0,0.0,100000.0,-0.00146257504821,0.000473514199257,0.00015544751659,1.0,0.0,0.0,0.0,1.0,0.0,0.0,0.0,1.0,0.812765243649,-0.0441508809105,9.37454692125,0.1,0.0,0.0,0.0,0.1,0.0,0.0,0.0,0.1
1505356812997435331,11291,1505356812997242550,-0.0346324864971,-0.0473453597736,-0.395058407696,0.91678125106,1.0,0.0,0.0,0.0,1.0,0.0,0.0,0.0,100000.0,-0.00164797902107,-0.000225683674216,0.000638712197542,1.0,0.0,0.0,0.0,1.0,0.0,0.0,0.0,1.0,0.813124845922,-0.0169230449479,9.37841324806,0.1,0.0,0.0,0.0,0.1,0.0,0.0,0.0,0.1
1505356812998305642,11292,1505356812998150014,-0.0346249002323,-0.0473485043271,-0.395066021041,0.916778094438,1.0,0.0,0.0,0.0,1.0,0.0,0.0,0.0,100000.0,-0.00165591016412,-0.000111274421215,-0.000169480917975,1.0,0.0,0.0,0.0,1.0,0.0,0.0,0.0,1.0,0.813693857193,-0.0338236466981,9.37364269495,0.1,0.0,0.0,0.0,0.1,0.0,0.0,0.0,0.1
1505356813001914720,11293,1505356813001685198,-0.0346253131981,-0.0473482023317,-0.395074017038,0.916774648691,1.0,0.0,0.0,0.0,1.0,0.0,0.0,0.0,100000.0,-0.00223969295621,0.000285444781184,-0.000635116128251,1.0,0.0,0.0,0.0,1.0,0.0,0.0,0.0,1.0,0.814133995771,-0.0341414862778,9.35782749653,0.1,0.0,0.0,0.0,0.1,0.0,0.0,0.0,0.1
1505356813006687234,11294,1505356813006481076,-0.0346142892863,-0.0473433390663,-0.395081692003,0.916772008663,1.0,0.0,0.0,0.0,1.0,0.0,0.0,0.0,100000.0,-0.00216503813863,0.000954415707383,9.45795763982e-05,1.0,0.0,0.0,0.0,1.0,0.0,0.0,0.0,1.0,0.814345668256,-0.0423798807897,9.36509168148,0.1,0.0,0.0,0.0,0.1,0.0,0.0,0.0,0.1
1505356813012037000,11295,1505356813011731862,-0.0346142892863,-0.0473433390663,-0.395081692003,0.916772008663,1.0,0.0,0.0,0.0,1.0,0.0,0.0,0.0,100000.0,-0.00147172063589,0.00182782683987,0.000224831252126,1.0,0.0,0.0,0.0,1.0,0.0,0.0,0.0,1.0,0.814315220714,-0.0423799766228,9.36357470751,0.1,0.0,0.0,0.0,0.1,0.0,0.0,0.0,0.1
1505356813017755532,11296,1505356813017597074,-0.0346032659629,-0.0473384802195,-0.395089366937,0.916769368166,1.0,0.0,0.0,0.0,1.0,0.0,0.0,0.0,100000.0,-0.000222243368626,0.00164365221281,0.00121127651073,1.0,0.0,0.0,0.0,1.0,0.0,0.0,0.0,1.0,0.814126986265,-0.0295225913171,9.37110642195,0.1,0.0,0.0,0.0,0.1,0.0,0.0,0.0,0.1
1505356813021467553,11297,1505356813021337432,-0.0345956791194,-0.0473416260397,-0.395096949769,0.916766224134,1.0,0.0,0.0,0.0,1.0,0.0,0.0,0.0,100000.0,-0.000494886189699,0.00143913552165,0.00012751086615,1.0,0.0,0.0,0.0,1.0,0.0,0.0,0.0,1.0,0.814018923044,-0.0368236606009,9.36840776205,0.1,0.0,0.0,0.0,0.1,0.0,0.0,0.0,0.1
1505356813030802432,11298,1505356813030558380,-0.0345876784411,-0.047345074074,-0.395096536601,0.916766526018,1.0,0.0,0.0,0.0,1.0,0.0,0.0,0.0,100000.0,-0.00040515139699,-0.00029344111681,0.000832412857562,1.0,0.0,0.0,0.0,1.0,0.0,0.0,0.0,1.0,0.814002202451,-0.0339498520363,9.36510570049,0.1,0.0,0.0,0.0,0.1,0.0,0.0,0.0,0.1
1505356813032115527,11299,1505356813031908013,-0.0345800907262,-0.0473482205037,-0.395104119301,0.916763381823,1.0,0.0,0.0,0.0,1.0,0.0,0.0,0.0,100000.0,-0.00226125866175,-0.00025094486773,0.000805770047009,1.0,0.0,0.0,0.0,1.0,0.0,0.0,0.0,1.0,0.814092741907,-0.0372258926276,9.36667524576,0.1,0.0,0.0,0.0,0.1,0.0,0.0,0.0,0.1
1505356813037194300,11300,1505356813036975056,-0.0345800907262,-0.0473482205037,-0.395104119301,0.916763381823,1.0,0.0,0.0,0.0,1.0,0.0,0.0,0.0,100000.0,-0.00207544490695,-0.000916181132197,0.00195038900711,1.0,0.0,0.0,0.0,1.0,0.0,0.0,0.0,1.0,0.814157652855,-0.0388729874045,9.36528794765,0.1,0.0,0.0,0.0,0.1,0.0,0.0,0.0,0.1
1505356813041873139,11301,1505356813041700123,-0.0345725040199,-0.0473513666548,-0.395111701995,0.91676023746,1.0,0.0,0.0,0.0,1.0,0.0,0.0,0.0,100000.0,-0.00157808884978,0.000352876260877,0.00223766360432,1.0,0.0,0.0,0.0,1.0,0.0,0.0,0.0,1.0,0.814052948356,-0.0350440834183,9.36763262749,0.1,0.0,0.0,0.0,0.1,0.0,0.0,0.0,0.1
1505356813047743384,11302,1505356813047571852,-0.0345690682447,-0.0473433618295,-0.39511179443,0.916760740605,1.0,0.0,0.0,0.0,1.0,0.0,0.0,0.0,100000.0,-0.00123707205057,0.000456336885691,0.000589933246374,1.0,0.0,0.0,0.0,1.0,0.0,0.0,0.0,1.0,0.813768406212,-0.0376617711969,9.36728332043,0.1,0.0,0.0,0.0,0.1,0.0,0.0,0.0,0.1
1505356813052004474,11303,1505356813051612903,-0.0345614821415,-0.0473465074041,-0.395119407613,0.916757582961,1.0,0.0,0.0,0.0,1.0,0.0,0.0,0.0,100000.0,-0.000285767018795,0.000730460567866,0.000289599876851,1.0,0.0,0.0,0.0,1.0,0.0,0.0,0.0,1.0,0.813383540511,-0.0363216959871,9.35131508112,0.1,0.0,0.0,0.0,0.1,0.0,0.0,0.0,0.1
1505356813056746368,11304,1505356813056482908,-0.0345543084466,-0.0473493524748,-0.395134986062,0.916750992024,1.0,0.0,0.0,0.0,1.0,0.0,0.0,0.0,100000.0,-0.00220117717981,0.000570898875594,-0.00157888466492,1.0,0.0,0.0,0.0,1.0,0.0,0.0,0.0,1.0,0.81306270957,-0.0372039331589,9.3335909605,0.1,0.0,0.0,0.0,0.1,0.0,0.0,0.0,0.1
1505356813064186556,11305,1505356813063938498,-0.0345543084466,-0.0473493524748,-0.395134986062,0.916750992024,1.0,0.0,0.0,0.0,1.0,0.0,0.0,0.0,100000.0,-0.00205929577351,-4.33791428804e-05,0.000527584576048,1.0,0.0,0.0,0.0,1.0,0.0,0.0,0.0,1.0,0.812943840027,-0.0383175205439,9.29875020981,0.1,0.0,0.0,0.0,0.1,0.0,0.0,0.0,0.1
1505356813068377681,11306,1505356813068103611,-0.0345547214198,-0.0473490510951,-0.395142981822,0.916747545677,1.0,0.0,0.0,0.0,1.0,0.0,0.0,0.0,100000.0,-0.00280173122883,0.000113908208732,0.000836330000311,1.0,0.0,0.0,0.0,1.0,0.0,0.0,0.0,1.0,0.813017001748,-0.0370239449199,9.28338478804,0.1,0.0,0.0,0.0,0.1,0.0,0.0,0.0,0.1
1505356813071987319,11307,1505356813071743572,-0.0345467209046,-0.0473524995311,-0.395142568589,0.916747847203,1.0,0.0,0.0,0.0,1.0,0.0,0.0,0.0,100000.0,-0.00180701166391,-0.000551030039787,0.0026730725076,1.0,0.0,0.0,0.0,1.0,0.0,0.0,0.0,1.0,0.813229258358,-0.0379501649179,9.27790101767,0.1,0.0,0.0,0.0,0.1,0.0,0.0,0.0,0.1
1505356813078811137,11308,1505356813078589494,-0.0345391334175,-0.0473556467198,-0.395150151062,0.91674470225,1.0,0.0,0.0,0.0,1.0,0.0,0.0,0.0,100000.0,-0.000702179968357,-0.000228075310588,0.00114095397294,1.0,0.0,0.0,0.0,1.0,0.0,0.0,0.0,1.0,0.813460206985,-0.03708808464,9.28424637318,0.1,0.0,0.0,0.0,0.1,0.0,0.0,0.0,0.1
1505356813082054343,11309,1505356813081869327,-0.0345311338808,-0.0473590948073,-0.39514973782,0.916745003604,1.0,0.0,0.0,0.0,1.0,0.0,0.0,0.0,100000.0,-0.000950742512941,-0.000556660816073,-0.000282459426671,1.0,0.0,0.0,0.0,1.0,0.0,0.0,0.0,1.0,0.813621644676,-0.0369197195861,9.29735298157,0.1,0.0,0.0,0.0,0.1,0.0,0.0,0.0,0.1
1505356813087064017,11310,1505356813086835373,-0.0345319599945,-0.0473584924485,-0.395165729206,0.916738110582,1.0,0.0,0.0,0.0,1.0,0.0,0.0,0.0,100000.0,-0.0010168030858,-4.10340726376e-06,-0.00165207486134,1.0,0.0,0.0,0.0,1.0,0.0,0.0,0.0,1.0,0.813695171475,-0.0373043320142,9.29085458517,0.1,0.0,0.0,0.0,0.1,0.0,0.0,0.0,0.1
1505356813091925254,11311,1505356813091721676,-0.0345243742212,-0.0473616388188,-0.395173342059,0.916734952142,1.0,0.0,0.0,0.0,1.0,0.0,0.0,0.0,100000.0,-0.0020207837224,0.000219946727157,-0.0017006326234,1.0,0.0,0.0,0.0,1.0,0.0,0.0,0.0,1.0,0.81365917474,-0.0368714197073,9.29318991899,0.1,0.0,0.0,0.0,0.1,0.0,0.0,0.0,0.1
1505356813099046565,11312,1505356813098870774,-0.034528223732,-0.0473693422507,-0.395181244787,0.916731002503,1.0,0.0,0.0,0.0,1.0,0.0,0.0,0.0,100000.0,-0.001932810992,0.00041333961417,0.000323368934914,1.0,0.0,0.0,0.0,1.0,0.0,0.0,0.0,1.0,0.828880390525,-0.0525578891858,9.28517922163,0.1,0.0,0.0,0.0,0.1,0.0,0.0,0.0,0.1
1505356813102098099,11313,1505356813101856414,-0.0345286368796,-0.0473690410985,-0.395189240373,0.916727555751,1.0,0.0,0.0,0.0,1.0,0.0,0.0,0.0,100000.0,-0.00158132240176,0.000394409551518,0.00086352112703,1.0,0.0,0.0,0.0,1.0,0.0,0.0,0.0,1.0,0.847577445209,-0.0708669019863,9.28895500898,0.1,0.0,0.0,0.0,0.1,0.0,0.0,0.0,0.1
1505356813107125958,11314,1505356813106818138,-0.0345320733772,-0.0473770456154,-0.395189147446,0.916727052725,1.0,0.0,0.0,0.0,1.0,0.0,0.0,0.0,100000.0,-0.00120606273413,-0.000286860391498,0.00236870907247,1.0,0.0,0.0,0.0,1.0,0.0,0.0,0.0,1.0,0.882315900922,-0.089752410166,9.3066744566,0.1,0.0,0.0,0.0,0.1,0.0,0.0,0.0,0.1
1505356813112183186,11315,1505356813111991562,-0.0345389480032,-0.0473930584556,-0.395188961456,0.916726046223,1.0,0.0,0.0,0.0,1.0,0.0,0.0,0.0,100000.0,-0.00128856673837,-0.000147229060531,0.00139458104968,1.0,0.0,0.0,0.0,1.0,0.0,0.0,0.0,1.0,0.898831830919,-0.0873493725434,9.3237618804,0.1,0.0,0.0,0.0,0.1,0.0,0.0,0.0,0.1
1505356813117099225,11316,1505356813116938098,-0.0345423844929,-0.0474010629618,-0.395188868439,0.916725542988,1.0,0.0,0.0,0.0,1.0,0.0,0.0,0.0,100000.0,-0.00146609172225,-0.000309212162392,0.00166731514037,1.0,0.0,0.0,0.0,1.0,0.0,0.0,0.0,1.0,0.889148271084,-0.0579209965654,9.3592346549,0.1,0.0,0.0,0.0,0.1,0.0,0.0,0.0,0.1
1505356813121964547,11317,1505356813121767566,-0.034546234474,-0.0474087661586,-0.395196770925,0.916721592865,1.0,0.0,0.0,0.0,1.0,0.0,0.0,0.0,100000.0,-0.00189419463277,0.000762004463468,0.000660892575979,1.0,0.0,0.0,0.0,1.0,0.0,0.0,0.0,1.0,0.878943014145,-0.0349899240304,9.37254687548,0.1,0.0,0.0,0.0,0.1,0.0,0.0,0.0,0.1
1505356813129907045,11318,1505356813129667546,-0.0345386486604,-0.0474119134134,-0.395204352727,0.916718447399,1.0,0.0,0.0,0.0,1.0,0.0,0.0,0.0,100000.0,-0.00149942934513,0.00104924291372,-0.000354288611561,1.0,0.0,0.0,0.0,1.0,0.0,0.0,0.0,1.0,0.849890290201,-0.0165926466696,9.37841792107,0.1,0.0,0.0,0.0,0.1,0.0,0.0,0.0,0.1
1505356813132417545,11319,1505356813132217985,-0.0345310619481,-0.0474150612117,-0.395211934424,0.916715301836,1.0,0.0,0.0,0.0,1.0,0.0,0.0,0.0,100000.0,-0.00126006826758,0.000942831858993,-0.000683487858623,1.0,0.0,0.0,0.0,1.0,0.0,0.0,0.0,1.0,0.859208917618,-0.0444143260829,9.37266136408,0.1,0.0,0.0,0.0,0.1,0.0,0.0,0.0,0.1
1505356813137147379,11320,1505356813136939373,-0.0345314754944,-0.0474147600347,-0.395219929873,0.916711854817,1.0,0.0,0.0,0.0,1.0,0.0,0.0,0.0,100000.0,-0.000457771122456,0.000314990058541,-0.000745238736272,1.0,0.0,0.0,0.0,1.0,0.0,0.0,0.0,1.0,0.849359174073,-0.0738117662258,9.35933045149,0.1,0.0,0.0,0.0,0.1,0.0,0.0,0.0,0.1
1505356813143509154,11321,1505356813143258156,-0.034535327459,-0.0474224620519,-0.39522786257,0.91670789126,1.0,0.0,0.0,0.0,1.0,0.0,0.0,0.0,100000.0,8.99471342564e-05,-0.000878671184182,0.000988353043795,1.0,0.0,0.0,0.0,1.0,0.0,0.0,0.0,1.0,0.835454577208,-0.0947806265205,9.36634988785,0.1,0.0,0.0,0.0,0.1,0.0,0.0,0.0,0.1
1505356813151434648,11322,1505356813151209234,-0.034535327459,-0.0474224620519,-0.39522786257,0.91670789126,1.0,0.0,0.0,0.0,1.0,0.0,0.0,0.0,100000.0,0.000228594988585,-0.00100657716393,0.00235151243396,1.0,0.0,0.0,0.0,1.0,0.0,0.0,0.0,1.0,0.821708205342,-0.106162586063,9.36333521605,0.1,0.0,0.0,0.0,0.1,0.0,0.0,0.0,0.1
1505356813152051323,11323,1505356813151912714,-0.0345273272899,-0.0474259112287,-0.395227448696,0.916708192617,1.0,0.0,0.0,0.0,1.0,0.0,0.0,0.0,100000.0,-6.85080885887e-06,-0.00113232247531,0.00172060041223,1.0,0.0,0.0,0.0,1.0,0.0,0.0,0.0,1.0,0.79449094981,-0.0857651602477,9.35646414757,0.1,0.0,0.0,0.0,0.1,0.0,0.0,0.0,0.1
1505356813157082443,11324,1505356813156915032,-0.034535327459,-0.0474224620519,-0.39522786257,0.91670789126,1.0,0.0,0.0,0.0,1.0,0.0,0.0,0.0,100000.0,-0.000902384519577,-0.000682778656483,0.00152895553038,1.0,0.0,0.0,0.0,1.0,0.0,0.0,0.0,1.0,0.810837702453,-0.102267116867,9.34978350401,0.1,0.0,0.0,0.0,0.1,0.0,0.0,0.0,0.1
1505356813164166548,11325,1505356813163917481,-0.0345357410699,-0.0474221608378,-0.395235857954,0.916704444103,1.0,0.0,0.0,0.0,1.0,0.0,0.0,0.0,100000.0,-0.00113734602928,-0.000525733456016,-0.000582653097808,1.0,0.0,0.0,0.0,1.0,0.0,0.0,0.0,1.0,0.81153909117,-0.101509606466,9.33156170845,0.1,0.0,0.0,0.0,0.1,0.0,0.0,0.0,0.1
1505356813167193488,11326,1505356813166991730,-0.0345441547845,-0.0474184103,-0.395244267147,0.916700695441,1.0,0.0,0.0,0.0,1.0,0.0,0.0,0.0,100000.0,-0.00128792971373,-0.000535152852535,0.000826334580779,1.0,0.0,0.0,0.0,1.0,0.0,0.0,0.0,1.0,0.819619226456,-0.106008678116,9.35119066238,0.1,0.0,0.0,0.0,0.1,0.0,0.0,0.0,0.1
1505356813173747603,11327,1505356813173552389,-0.0345441547845,-0.0474184103,-0.395244267147,0.916700695441,1.0,0.0,0.0,0.0,1.0,0.0,0.0,0.0,100000.0,-0.000461984425783,-0.00047830119729,0.00110593810678,1.0,0.0,0.0,0.0,1.0,0.0,0.0,0.0,1.0,0.819217640162,-0.0923809750006,9.35995721817,0.1,0.0,0.0,0.0,0.1,0.0,0.0,0.0,0.1
1505356813177307518,11328,1505356813177071120,-0.0345365682837,-0.0474215583986,-0.395251848633,0.916697549578,1.0,0.0,0.0,0.0,1.0,0.0,0.0,0.0,100000.0,-0.000481434166431,-5.6941062212e-06,0.00230386294425,1.0,0.0,0.0,0.0,1.0,0.0,0.0,0.0,1.0,0.806335043907,-0.043804809358,9.37445112467,0.1,0.0,0.0,0.0,0.1,0.0,0.0,0.0,0.1
1505356813182382299,11329,1505356813182153351,-0.0345285682048,-0.0474250077847,-0.395251434767,0.916697850946,1.0,0.0,0.0,0.0,1.0,0.0,0.0,0.0,100000.0,-2.79434025288e-05,0.000180730610737,0.00198707357049,1.0,0.0,0.0,0.0,1.0,0.0,0.0,0.0,1.0,0.813497006893,-0.0333344050683,9.36490008831,0.1,0.0,0.0,0.0,0.1,0.0,0.0,0.0,0.1
1505356813187840220,11330,1505356813187603406,-0.0345125689927,-0.047431906135,-0.395250606994,0.916698453436,1.0,0.0,0.0,0.0,1.0,0.0,0.0,0.0,100000.0,-0.000266879796982,0.000778680667281,0.00103845447302,1.0,0.0,0.0,0.0,1.0,0.0,0.0,0.0,1.0,0.810908673704,-0.0151752341539,9.34169219732,0.1,0.0,0.0,0.0,0.1,0.0,0.0,0.0,0.1
1505356813192730107,11331,1505356813192543842,-0.0345015454899,-0.0474270503402,-0.395258281879,0.91669581043,1.0,0.0,0.0,0.0,1.0,0.0,0.0,0.0,100000.0,-0.000136565417051,0.000313704833388,0.00057942327112,1.0,0.0,0.0,0.0,1.0,0.0,0.0,0.0,1.0,0.814369033277,-0.0351448998321,9.33505010605,0.1,0.0,0.0,0.0,0.1,0.0,0.0,0.0,0.1
1505356813198026171,11332,1505356813197852153,-0.0345019591407,-0.0474267494207,-0.395266277158,0.916692363007,1.0,0.0,0.0,0.0,1.0,0.0,0.0,0.0,100000.0,-1.40517950058e-05,0.000140618532896,0.00032626837492,1.0,0.0,0.0,0.0,1.0,0.0,0.0,0.0,1.0,0.816044670343,-0.0454886606894,9.34183063507,0.1,0.0,0.0,0.0,0.1,0.0,0.0,0.0,0.1
1505356813203778802,11333,1505356813203549661,-0.034494375318,-0.0474298965199,-0.395273889064,0.91668920339,1.0,0.0,0.0,0.0,1.0,0.0,0.0,0.0,100000.0,-0.000675201474223,-0.000326124951243,0.00025374814868,1.0,0.0,0.0,0.0,1.0,0.0,0.0,0.0,1.0,0.812357085943,-0.0372936922591,9.35022393465,0.1,0.0,0.0,0.0,0.1,0.0,0.0,0.0,0.1
1505356813207590293,11334,1505356813207263717,-0.0344867890177,-0.0474330453111,-0.39528147035,0.916686056834,1.0,0.0,0.0,0.0,1.0,0.0,0.0,0.0,100000.0,-0.000521022826433,-0.000488890334964,0.000261422013864,1.0,0.0,0.0,0.0,1.0,0.0,0.0,0.0,1.0,0.815103425086,-0.0421341008507,9.34241008759,0.1,0.0,0.0,0.0,0.1,0.0,0.0,0.0,0.1
1505356813212426024,11335,1505356813212237997,-0.0344787899927,-0.0474364945446,-0.395281056433,0.916686357732,1.0,0.0,0.0,0.0,1.0,0.0,0.0,0.0,100000.0,-0.001400295645,-4.48878854513e-05,0.000319020124152,1.0,0.0,0.0,0.0,1.0,0.0,0.0,0.0,1.0,0.813800679147,-0.0296090031043,9.31070842743,0.1,0.0,0.0,0.0,0.1,0.0,0.0,0.0,0.1
1505356813217317301,11336,1505356813217110521,-0.0344746412113,-0.0474476476351,-0.395288543803,0.916682707912,1.0,0.0,0.0,0.0,1.0,0.0,0.0,0.0,100000.0,-0.00119698047638,-0.000356268137693,0.000453294604085,1.0,0.0,0.0,0.0,1.0,0.0,0.0,0.0,1.0,0.814593118429,-0.0378682070877,9.27872872353,0.1,0.0,0.0,0.0,0.1,0.0,0.0,0.0,0.1
1505356813222517802,11337,1505356813222315679,-0.0344750550418,-0.0474473469503,-0.395296538967,0.916679260226,1.0,0.0,0.0,0.0,1.0,0.0,0.0,0.0,100000.0,-0.00126179307699,0.000258693471551,0.00103599368595,1.0,0.0,0.0,0.0,1.0,0.0,0.0,0.0,1.0,0.815090501308,-0.0392525822856,9.29195975065,0.1,0.0,0.0,0.0,0.1,0.0,0.0,0.0,0.1
1505356813231069262,11338,1505356813230907782,-0.0344670551225,-0.0474507967264,-0.395296124876,0.916679561057,1.0,0.0,0.0,0.0,1.0,0.0,0.0,0.0,100000.0,-0.00115507468581,-0.000396411895053,0.000898459285963,1.0,0.0,0.0,0.0,1.0,0.0,0.0,0.0,1.0,0.81338237226,-0.0371396519709,9.2954148531,0.1,0.0,0.0,0.0,0.1,0.0,0.0,0.0,0.1
1505356813232581861,11339,1505356813232383041,-0.0344560324574,-0.0474459414995,-0.395303799927,0.916676917036,1.0,0.0,0.0,0.0,1.0,0.0,0.0,0.0,100000.0,-0.000451888889074,0.000474758446217,0.000865255482495,1.0,0.0,0.0,0.0,1.0,0.0,0.0,0.0,1.0,0.813976062834,-0.0391335073858,9.33558633327,0.1,0.0,0.0,0.0,0.1,0.0,0.0,0.0,0.1
1505356813237626006,11340,1505356813237408960,-0.0344564462731,-0.047445640977,-0.395311795041,0.916673469216,1.0,0.0,0.0,0.0,1.0,0.0,0.0,0.0,100000.0,-0.000452399253845,0.000438127666712,0.000146656762809,1.0,0.0,0.0,0.0,1.0,0.0,0.0,0.0,1.0,0.813221007586,-0.0497663898394,9.30894728899,0.1,0.0,0.0,0.0,0.1,0.0,0.0,0.0,0.1
1505356813242640068,11341,1505356813242493033,-0.0344488602474,-0.0474487904298,-0.395319376052,0.916670321998,1.0,0.0,0.0,0.0,1.0,0.0,0.0,0.0,100000.0,-0.000121470540762,0.000843064859509,-3.8088997826e-05,1.0,0.0,0.0,0.0,1.0,0.0,0.0,0.0,1.0,0.813391937315,-0.0702769625932,9.2983722806,0.1,0.0,0.0,0.0,0.1,0.0,0.0,0.0,0.1
1505356813253797243,11342,1505356813253571584,-0.0344488602474,-0.0474487904298,-0.395319376052,0.916670321998,1.0,0.0,0.0,0.0,1.0,0.0,0.0,0.0,100000.0,-9.82880592346e-05,0.00121917203069,-0.000456334353657,1.0,0.0,0.0,0.0,1.0,0.0,0.0,0.0,1.0,0.81388194561,-0.10510725379,9.2792363286,0.1,0.0,0.0,0.0,0.1,0.0,0.0,0.0,0.1
1505356813253829449,11343,1505356813253605333,-0.0344572754759,-0.047445038774,-0.395327815695,0.916666560206,1.0,0.0,0.0,0.0,1.0,0.0,0.0,0.0,100000.0,-0.000726111233234,0.000460790499346,-0.000106122693978,1.0,0.0,0.0,0.0,1.0,0.0,0.0,0.0,1.0,0.813612882793,-0.120734245144,9.27380045652,0.1,0.0,0.0,0.0,0.1,0.0,0.0,0.0,0.1
1505356813257813807,11344,1505356813257594421,-0.0344542514167,-0.0474367343178,-0.395335904689,0.916663615107,1.0,0.0,0.0,0.0,1.0,0.0,0.0,0.0,100000.0,-0.000813607126474,0.00102267228067,-0.000599122722633,1.0,0.0,0.0,0.0,1.0,0.0,0.0,0.0,1.0,0.814191970229,-0.112474865466,9.29836702347,0.1,0.0,0.0,0.0,0.1,0.0,0.0,0.0,0.1
1505356813267295967,11345,1505356813267044143,-0.0344626639484,-0.0474329840289,-0.395344313603,0.91665986632,1.0,0.0,0.0,0.0,1.0,0.0,0.0,0.0,100000.0,-0.00174773123581,-0.00024919398129,-0.000123453210108,1.0,0.0,0.0,0.0,1.0,0.0,0.0,0.0,1.0,0.814192189276,-0.0862769819796,9.28816994429,0.1,0.0,0.0,0.0,0.1,0.0,0.0,0.0,0.1
1505356813268620819,11346,1505356813268391706,-0.0344550788847,-0.0474361333001,-0.395351894655,0.916656718837,1.0,0.0,0.0,0.0,1.0,0.0,0.0,0.0,100000.0,-0.00181317701936,0.000120418153529,-0.000431644497439,1.0,0.0,0.0,0.0,1.0,0.0,0.0,0.0,1.0,0.814320039749,-0.0399806856178,9.2992192626,0.1,0.0,0.0,0.0,0.1,0.0,0.0,0.0,0.1
1505356813272933849,11347,1505356813272662284,-0.0344589306912,-0.0474438366187,-0.395359795611,0.91665276767,1.0,0.0,0.0,0.0,1.0,0.0,0.0,0.0,100000.0,-0.00152314454317,-0.000382777303457,0.000263297348283,1.0,0.0,0.0,0.0,1.0,0.0,0.0,0.0,1.0,0.814515940845,-0.0303291728254,9.28538541794,0.1,0.0,0.0,0.0,0.1,0.0,0.0,0.0,0.1
1505356813277978236,11348,1505356813277729997,-0.0344513448305,-0.0474469864688,-0.395367376457,0.916649620056,1.0,0.0,0.0,0.0,1.0,0.0,0.0,0.0,100000.0,-0.00152418762445,-0.000131895765662,0.000213779683691,1.0,0.0,0.0,0.0,1.0,0.0,0.0,0.0,1.0,0.814209201932,-0.0222372135613,9.28615062237,0.1,0.0,0.0,0.0,0.1,0.0,0.0,0.0,0.1
1505356813282883348,11349,1505356813282665948,-0.0344433461235,-0.0474504364518,-0.395366962418,0.916649920644,1.0,0.0,0.0,0.0,1.0,0.0,0.0,0.0,100000.0,-0.000895906239748,0.000181682407856,-5.57171006221e-05,1.0,0.0,0.0,0.0,1.0,0.0,0.0,0.0,1.0,0.814116252959,-0.0373020069208,9.29148135185,0.1,0.0,0.0,0.0,0.1,0.0,0.0,0.0,0.1
1505356813287865223,11350,1505356813287689660,-0.0344437599783,-0.0474501360399,-0.395374957297,0.916646472273,1.0,0.0,0.0,0.0,1.0,0.0,0.0,0.0,100000.0,-0.00131057947874,-0.000131512060761,-0.000369848508853,1.0,0.0,0.0,0.0,1.0,0.0,0.0,0.0,1.0,0.813713790476,-0.0456499295309,9.28798360825,0.1,0.0,0.0,0.0,0.1,0.0,0.0,0.0,0.1
1505356813297578291,11351,1505356813297348299,-0.0344365896869,-0.0474529846589,-0.395390563369,0.916639862725,1.0,0.0,0.0,0.0,1.0,0.0,0.0,0.0,100000.0,-0.000850703567266,-0.00012869015336,-0.00091154652182,1.0,0.0,0.0,0.0,1.0,0.0,0.0,0.0,1.0,0.813406759501,-0.0520811469294,9.29286923409,0.1,0.0,0.0,0.0,0.1,0.0,0.0,0.0,0.1
1505356813299929827,11352,1505356813299753235,-0.0344365896869,-0.0474529846589,-0.395390563369,0.916639862725,1.0,0.0,0.0,0.0,1.0,0.0,0.0,0.0,100000.0,-0.000787734985352,-0.00020469725132,7.69085017964e-05,1.0,0.0,0.0,0.0,1.0,0.0,0.0,0.0,1.0,0.813291832805,-0.0738593907095,9.28904087543,0.1,0.0,0.0,0.0,0.1,0.0,0.0,0.0,0.1
1505356813304897589,11353,1505356813304557464,-0.0344370035639,-0.0474526843059,-0.395398558161,0.916636414148,1.0,0.0,0.0,0.0,1.0,0.0,0.0,0.0,100000.0,-8.22991132736e-05,-7.13877379894e-05,0.000532140722498,1.0,0.0,0.0,0.0,1.0,0.0,0.0,0.0,1.0,0.813188734651,-0.0981468414888,9.28898363113,0.1,0.0,0.0,0.0,0.1,0.0,0.0,0.0,0.1
1505356813307975072,11354,1505356813307771607,-0.0344370035639,-0.0474526843059,-0.395398558161,0.916636414148,1.0,0.0,0.0,0.0,1.0,0.0,0.0,0.0,100000.0,-1.33365392685e-06,0.000517914071679,0.000919962534681,1.0,0.0,0.0,0.0,1.0,0.0,0.0,0.0,1.0,0.813312277198,-0.121051699109,9.29079734087,0.1,0.0,0.0,0.0,0.1,0.0,0.0,0.0,0.1
1505356813313079737,11355,1505356813312891616,-0.034445416951,-0.0474489332095,-0.395406967027,0.916632664929,1.0,0.0,0.0,0.0,1.0,0.0,0.0,0.0,100000.0,0.000433597713709,0.000720959156752,0.000652758812066,1.0,0.0,0.0,0.0,1.0,0.0,0.0,0.0,1.0,0.813409242034,-0.128183926456,9.28915594816,0.1,0.0,0.0,0.0,0.1,0.0,0.0,0.0,0.1
1505356813317826137,11356,1505356813317620446,-0.0344423922187,-0.0474406291584,-0.395415055908,0.916629719071,1.0,0.0,0.0,0.0,1.0,0.0,0.0,0.0,100000.0,0.000415317714214,0.00105967931449,-0.000373933231458,1.0,0.0,0.0,0.0,1.0,0.0,0.0,0.0,1.0,0.813563889265,-0.120025271922,9.29109407663,0.1,0.0,0.0,0.0,0.1,0.0,0.0,0.0,0.1
1505356813323193255,11357,1505356813322998896,-0.0344423922187,-0.0474406291584,-0.395415055908,0.916629719071,1.0,0.0,0.0,0.0,1.0,0.0,0.0,0.0,100000.0,-1.9546598196e-05,0.00127824780066,9.9258730188e-05,1.0,0.0,0.0,0.0,1.0,0.0,0.0,0.0,1.0,0.813807104528,-0.109692666493,9.28983528614,0.1,0.0,0.0,0.0,0.1,0.0,0.0,0.0,0.1
1505356813329604418,11358,1505356813329371160,-0.0344508044886,-0.0474368782823,-0.395423464561,0.916625969697,1.0,0.0,0.0,0.0,1.0,0.0,0.0,0.0,100000.0,-0.000370960682631,0.00080003408948,-0.000164541765116,1.0,0.0,0.0,0.0,1.0,0.0,0.0,0.0,1.0,0.814080402255,-0.112633017451,9.28974941969,0.1,0.0,0.0,0.0,0.1,0.0,0.0,0.0,0.1
1505356813332870212,11359,1505356813332732015,-0.0344592176467,-0.0474331268482,-0.395431873198,0.916622220141,1.0,0.0,0.0,0.0,1.0,0.0,0.0,0.0,100000.0,-0.00249003991485,0.000428853556514,0.000871109892614,1.0,0.0,0.0,0.0,1.0,0.0,0.0,0.0,1.0,0.814405614138,-0.112452814728,9.29034756422,0.1,0.0,0.0,0.0,0.1,0.0,0.0,0.0,0.1
1505356813337993481,11360,1505356813337834543,-0.0344592176467,-0.0474331268482,-0.395431873198,0.916622220141,1.0,0.0,0.0,0.0,1.0,0.0,0.0,0.0,100000.0,-0.00215730816126,-0.000360546633601,0.00100693257991,1.0,0.0,0.0,0.0,1.0,0.0,0.0,0.0,1.0,0.814637950063,-0.106020899117,9.28957710266,0.1,0.0,0.0,0.0,0.1,0.0,0.0,0.0,0.1
1505356813342945379,11361,1505356813342809281,-0.0344676313647,-0.0474293745312,-0.395440312234,0.916618457309,1.0,0.0,0.0,0.0,1.0,0.0,0.0,0.0,100000.0,-0.00288233533502,-0.000601360574365,0.00121266208589,1.0,0.0,0.0,0.0,1.0,0.0,0.0,0.0,1.0,0.814703810215,-0.082979830727,9.29021788836,0.1,0.0,0.0,0.0,0.1,0.0,0.0,0.0,0.1
1505356813348030972,11362,1505356813347818186,-0.0344596329296,-0.0474328251507,-0.395439898349,0.91661875804,1.0,0.0,0.0,0.0,1.0,0.0,0.0,0.0,100000.0,-0.00078749662498,-0.00035010650754,0.00154589908198,1.0,0.0,0.0,0.0,1.0,0.0,0.0,0.0,1.0,0.814554712176,-0.0471050592139,9.28966764212,0.1,0.0,0.0,0.0,0.1,0.0,0.0,0.0,0.1
1505356813356691323,11363,1505356813356450044,-0.0344520472696,-0.0474359756937,-0.395447478995,0.916615609733,1.0,0.0,0.0,0.0,1.0,0.0,0.0,0.0,100000.0,-0.000199630856514,-0.000210816040635,0.000297441147268,1.0,0.0,0.0,0.0,1.0,0.0,0.0,0.0,1.0,0.814213436842,-0.0302325456869,9.28954322338,0.1,0.0,0.0,0.0,0.1,0.0,0.0,0.0,0.1
