%time,field.linear.x,field.linear.y,field.linear.z,field.angular.x,field.angular.y,field.angular.z
1505356812456971084,-0.0110700389312,-0.0970273826531,0.17109310627,0.0,0.0,1.38364312123
1505356812506826910,-0.0112246418985,-0.0980651020535,0.171068072319,0.0,0.0,1.38365309092
1505356812556795761,-0.0110068403928,-0.097250968102,0.171106278896,0.0,0.0,1.38365451089
1505356812606829533,-0.0111806110578,-0.0979042793722,0.171064019203,0.0,0.0,1.38366050967
1505356812656769748,-0.0111347774316,-0.0974175375002,0.171078920364,0.0,0.0,1.38364556739
1505356812707065389,-0.011083121081,-0.0975542187119,0.171119213104,0.0,0.0,1.38365974597
1505356812756910139,-0.0112002103434,-0.0978744154418,0.171104192734,0.0,0.0,1.38365243237
1505356812806753463,-0.0110859110905,-0.0975582833933,0.171086728573,0.0,0.0,1.38364113676
1505356812856752312,-0.0111327513044,-0.0975627836027,0.171086728573,0.0,0.0,1.38364113676
1505356812906756956,-0.0110827436567,-0.0974823703823,0.171100914478,0.0,0.0,1.38364546092
1505356812956855795,-0.0111757185246,-0.0977136971993,0.171136498451,0.0,0.0,1.3836512845
1505356813006856991,-0.0112467413277,-0.0979078263172,0.171103417873,0.0,0.0,1.38364530363
1505356813056922264,-0.0111208639276,-0.0974436727166,0.171084523201,0.0,0.0,1.38364624369
1505356813106923127,-0.0111344872418,-0.0975532413774,0.171084523201,0.0,0.0,1.38364624369
1505356813156820732,-0.0111155379035,-0.0976934124856,0.171128988266,0.0,0.0,1.38366006703
1505356813207399159,-0.0112802664949,-0.0980507177551,0.171068131924,0.0,0.0,1.38364439836
1505356813256790767,-0.0110102129115,-0.0972961435723,0.171091377735,0.0,0.0,1.38365064928
1505356813307262921,-0.011179030104,-0.0975340493505,0.171110272408,0.0,0.0,1.38365231985
1505356813356846264,-0.0111581032439,-0.0977135872443,0.17109555006,0.0,0.0,1.38364367263
1505356813407203030,-0.0111198016397,-0.0976257228914,0.171100318432,0.0,0.0,1.3836419562
1505356813456845748,-0.0111760340177,-0.0977950690866,0.171082913876,0.0,0.0,1.38363536996
1505356813507210016,-0.0111115921198,-0.0974029403849,0.171096384525,0.0,0.0,1.38365084644
1505356813557042109,-0.0111793365007,-0.0977598233428,0.1711191535,0.0,0.0,1.3836452376
1505356813606819573,-0.0112326509965,-0.0980219799746,0.171079993248,0.0,0.0,1.38364390892
1505356813656796514,-0.011116117696,-0.0972473067587,0.171110868454,0.0,0.0,1.38364025792
1505356813706850701,-0.011160971939,-0.0977893645934,0.171082496643,0.0,0.0,1.38365265279
1505356813756807450,-0.0111308260084,-0.097511320815,0.17110145092,0.0,0.0,1.38365144595
1505356813806800341,-0.011117502555,-0.0975169942282,0.171115219593,0.0,0.0,1.38364149059
1505356813856796282,-0.011166145829,-0.0979723228826,0.17110812664,0.0,0.0,1.3836499613
1505356813906857055,-0.0111267243474,-0.097374269983,0.171122074127,0.0,0.0,1.38364077504
1505356813956781063,-0.0111959828622,-0.0977940543049,0.171113908291,0.0,0.0,1.38364445833
1505356814006813677,-0.0111028600802,-0.0976482211562,0.171114087105,0.0,0.0,1.38363335804
1505356814056806741,-0.0112114298622,-0.0978561537103,0.171111166477,0.0,0.0,1.38364744805
1505356814106863265,-0.0111454512977,-0.0974194382642,0.171117603779,0.0,0.0,1.38364681364
1505356814156694779,-0.0112085508579,-0.0978881671899,0.171069443226,0.0,0.0,1.38362980642
1505356814207001166,-0.0111401689652,-0.0975930912104,0.171062767506,0.0,0.0,1.38363663683
1505356814256858234,-0.0111412017042,-0.0975593722465,0.171107172966,0.0,0.0,1.38364871679
1505356814306737270,-0.0112247484129,-0.097899359449,0.171083331108,0.0,0.0,1.38365334361
1505356814356747808,-0.0111253975826,-0.0975554366078,0.171057939529,0.0,0.0,1.38363594592
1505356814406898202,-0.0110471864995,-0.0972558838585,0.171095311642,0.0,0.0,1.38363635514
1505356814456826400,-0.011207600374,-0.0979507771095,0.171094954014,0.0,0.0,1.38363115003
1505356814507108560,-0.0111750916447,-0.0977625722011,0.171096801758,0.0,0.0,1.38363555646
1505356814556971562,-0.0111959066165,-0.097901877724,0.171048700809,0.0,0.0,1.38364053294
1505356814606789133,-0.0111239112839,-0.0971368385551,0.171084821224,0.0,0.0,1.38363774466
1505356814656834050,-0.0112018336204,-0.0979695528903,0.171078264713,0.0,0.0,1.38364725983
1505356814706819124,-0.011180795485,-0.0977491959625,0.171085834503,0.0,0.0,1.38365243684
1505356814756756662,-0.0111039732108,-0.0976625392074,0.171063363552,0.0,0.0,1.38364136954
1505356814806783635,-0.011108220132,-0.0971779202467,0.171093404293,0.0,0.0,1.38362559095
1505356814856845588,-0.0111914874217,-0.097760136001,0.171099245548,0.0,0.0,1.38362707544
1505356814906823258,-0.0111810915426,-0.0979458303119,0.171083569527,0.0,0.0,1.38363148142
1505356814956835265,-0.0111355205221,-0.0976592886432,0.171078324318,0.0,0.0,1.38362985099
1505356815006820650,-0.0111922557993,-0.0975420778325,0.171080350876,0.0,0.0,1.38363883203
1505356815056905898,-0.0111011066805,-0.0974083719776,0.171101748943,0.0,0.0,1.38363335537
1505356815106780160,-0.0113156091295,-0.0983776148749,0.171043097973,0.0,0.0,1.38363339231
1505356815156850179,-0.0112202162248,-0.0975161740932,0.171055018902,0.0,0.0,1.38363805734
1505356815206891645,-0.0111401235138,-0.0976421210422,0.17104446888,0.0,0.0,1.38363881714
1505356815256785847,-0.0111308882351,-0.0974648250296,0.171037316322,0.0,0.0,1.3836296858
1505356815306868271,-0.0111797090514,-0.0976580863676,0.171040475368,0.0,0.0,1.38362000619
1505356815356998818,-0.0112045898257,-0.0977596885828,0.171058952808,0.0,0.0,1.3836436107
1505356815406899475,-0.0111226690276,-0.0976822063601,0.171071946621,0.0,0.0,1.38364087075
1505356815456913433,-0.0110922205525,-0.0973764562527,0.171086609364,0.0,0.0,1.38363398815
1505356815507084054,-0.0111050931304,-0.0978033876372,0.171073496342,0.0,0.0,1.38362767152
1505356815556734720,-0.011152872837,-0.097506474176,0.171114206314,0.0,0.0,1.38364138392
1505356815607615424,-0.0111314005524,-0.0977887894529,0.171123862267,0.0,0.0,1.3836366305
1505356815656958222,-0.0112514692822,-0.0979035857451,0.171074509621,0.0,0.0,1.38364759248
1505356815706898723,-0.0111266688109,-0.0974079706346,0.171060621738,0.0,0.0,1.38362817451
1505356815756886783,-0.011188604153,-0.0977800954068,0.171045303345,0.0,0.0,1.38362784366
1505356815806786207,-0.0111907397459,-0.0976934543365,0.17105448246,0.0,0.0,1.38365194412
1505356815856770111,-0.0111559657452,-0.0976533369996,0.171054244041,0.0,0.0,1.38364148638
1505356815907314266,-0.0110793553724,-0.0975252305827,0.171072125435,0.0,0.0,1.38364195129
1505356815956809348,-0.0111630139448,-0.0979540750003,0.171041727066,0.0,0.0,1.38363918501
1505356816006757832,-0.0111089276895,-0.0975073461764,0.17107707262,0.0,0.0,1.3836459992
1505356816056868949,-0.0111790542498,-0.0977724704833,0.171095430851,0.0,0.0,1.38365855321
1505356816106830255,-0.0111353247636,-0.0976613710165,0.171094655991,0.0,0.0,1.38364178324
1505356816156724368,-0.011104627503,-0.0974864824794,0.171085596085,0.0,0.0,1.38363941691
1505356816207054890,-0.0111787747129,-0.0975049454299,0.171117007732,0.0,0.0,1.38364616892
1505356816256745284,-0.0111115588271,-0.097887604834,0.171121954918,0.0,0.0,1.38365998675
1505356816306739530,-0.0112182307202,-0.0978959526576,0.171096086502,0.0,0.0,1.38364640082
1505356816356879304,-0.0110617364797,-0.0972174408934,0.171122670174,0.0,0.0,1.38364244689
1505356816406834945,-0.0112215094437,-0.0979326043597,0.171105623245,0.0,0.0,1.38365542802
1505356816457167195,-0.0111466572344,-0.0978519110111,0.171099603176,0.0,0.0,1.38365860316
1505356816507428435,-0.0110893130574,-0.0976791377005,0.171094059944,0.0,0.0,1.38366821546
1505356816556796152,-0.0112358399918,-0.0977882179317,0.171050190926,0.0,0.0,1.38365733158
1505356816607009341,-0.0110507004502,-0.097325280906,0.171063065529,0.0,0.0,1.38364541588
1505356816656828808,-0.0110686801618,-0.0976570835521,0.171076059341,0.0,0.0,1.38365393817
1505356816706891640,-0.0111622771217,-0.0977945940752,0.171070694923,0.0,0.0,1.38366121493
1505356816756826927,-0.0111124987545,-0.0974005547057,0.171121776104,0.0,0.0,1.38364517766
1505356816806784667,-0.0111675653477,-0.097944681428,0.171096563339,0.0,0.0,1.38364407241
1505356816856822701,-0.0110751746074,-0.097397922725,0.171108365059,0.0,0.0,1.38364745226
1505356816906821375,-0.0111978235814,-0.098005915867,0.171080589294,0.0,0.0,1.38364785655
1505356816956851942,-0.0111139217399,-0.097446633991,0.171127796173,0.0,0.0,1.38365520591
1505356817006868090,-0.0111360714747,-0.0975925309164,0.171143770218,0.0,0.0,1.38366317095
1505356817056753540,-0.0111472430276,-0.0975368094421,0.171142816544,0.0,0.0,1.38364843012
1505356817106811639,-0.0111263417668,-0.0977640627889,0.171133697033,0.0,0.0,1.3836397135
1505356817156941547,-0.0111971640371,-0.0980292868394,0.171101093292,0.0,0.0,1.38365666137
1505356817207306125,-0.011094456412,-0.0974627453575,0.171107411385,0.0,0.0,1.38365001663
1505356817256761519,-0.0111021820831,-0.0974268083748,0.171129405499,0.0,0.0,1.3836489419
1505356817306867639,-0.0111355873566,-0.0978343337009,0.171112060547,0.0,0.0,1.38364740766
1505356817356801501,-0.0111677826234,-0.0979420653755,0.171095192432,0.0,0.0,1.38365849862
1505356817406733999,-0.011103156532,-0.0976676617106,0.171082913876,0.0,0.0,1.38365477954
1505356817456744378,-0.0110836374551,-0.0970674962138,0.171158850193,0.0,0.0,1.3836494497
1505356817507378269,-0.0112054314492,-0.0980077531657,0.171139001846,0.0,0.0,1.38363755305
1505356817556818454,-0.0112253860615,-0.0981483438968,0.171067595482,0.0,0.0,1.38365778791
1505356817606883371,-0.0110630711256,-0.0974536216879,0.171070992947,0.0,0.0,1.38365872796
1505356817656771650,-0.0110633107556,-0.097411267019,0.171101927757,0.0,0.0,1.38364591118
1505356817706842021,-0.0111553551855,-0.0975468914711,0.171110391617,0.0,0.0,1.38364291456
1505356817756866394,-0.0111923591485,-0.0979101512915,0.171091139317,0.0,0.0,1.38364029008
1505356817806877654,-0.0110917890748,-0.0975305884974,0.171127676964,0.0,0.0,1.38365542016
1505356817856892661,-0.0110676246149,-0.0976813205447,0.17115008831,0.0,0.0,1.38365098531
1505356817906805818,-0.0111935454899,-0.097720314571,0.171128153801,0.0,0.0,1.38364144311
1505356817956816138,-0.0111426827551,-0.0977841019045,0.171103179455,0.0,0.0,1.38364552552
1505356818006872359,-0.0111081230859,-0.0976544346353,0.171115994453,0.0,0.0,1.38365592122
1505356818056738676,-0.0111240163725,-0.0976297278707,0.171127676964,0.0,0.0,1.38364267539
1505356818107222100,-0.0111642850646,-0.0979743066543,0.171069324017,0.0,0.0,1.38364387561
1505356818156849976,-0.0110890172102,-0.0970277192134,0.171121060848,0.0,0.0,1.38363922196
1505356818207350185,-0.0111515533996,-0.0978901348254,0.17112082243,0.0,0.0,1.38364053049
1505356818256840361,-0.0111951837187,-0.0980815344721,0.17109131813,0.0,0.0,1.38365673404
1505356818306843173,-0.0110830243294,-0.0972742498167,0.171122610569,0.0,0.0,1.38367066454
1505356818356800377,-0.0111622610102,-0.0976090344804,0.171129524708,0.0,0.0,1.38365462366
1505356818406853979,-0.0110546782184,-0.0975857701758,0.171138703823,0.0,0.0,1.3836488199
1505356818456873880,-0.0112160825472,-0.0981387624702,0.171100378036,0.0,0.0,1.38364759373
1505356818507753317,-0.0110962057157,-0.0974019632178,0.171119987965,0.0,0.0,1.38364528966
1505356818556757181,-0.011133155601,-0.0975951699007,0.171134471893,0.0,0.0,1.3836525894
1505356818606859574,-0.0111205713307,-0.0976106068912,0.171130776405,0.0,0.0,1.38363764252
1505356818656793372,-0.0111877239585,-0.0979981584514,0.171105742455,0.0,0.0,1.38363793825
1505356818706918555,-0.0111880231701,-0.0979103295611,0.171071112156,0.0,0.0,1.38365745374
1505356818756769293,-0.0109763782343,-0.0971407234548,0.171116292477,0.0,0.0,1.3836402092
1505356818806854569,-0.0111535636334,-0.0974026262321,0.17116767168,0.0,0.0,1.38364487811
1505356818856816831,-0.0112386806074,-0.0982918835486,0.171107172966,0.0,0.0,1.38364069392
1505356818906774341,-0.0111217259015,-0.0976201978652,0.171096563339,0.0,0.0,1.38364787625
1505356818956802288,-0.0111038248738,-0.0975656977993,0.171101987362,0.0,0.0,1.38363475948
1505356819006933732,-0.0109871454937,-0.0972472098467,0.171161532402,0.0,0.0,1.38365731247
1505356819056971718,-0.0112266006406,-0.0980204975594,0.171123564243,0.0,0.0,1.38363726011
1505356819106793860,-0.0111080789761,-0.0977137183757,0.171112120152,0.0,0.0,1.38364479657
1505356819156756406,-0.011153953773,-0.0977680674919,0.171103537083,0.0,0.0,1.38364723095
1505356819207211351,-0.0111041158478,-0.0975973213241,0.171116650105,0.0,0.0,1.38366579871
1505356819256790887,-0.0111441715977,-0.0976914908838,0.171087443829,0.0,0.0,1.38363625117
1505356819306865310,-0.0111824707878,-0.0977524061407,0.171070456505,0.0,0.0,1.38364930352
1505356819356990484,-0.0111559105812,-0.0974737692078,0.171109139919,0.0,0.0,1.38363822396
1505356819407319922,-0.0111600888789,-0.0979734322545,0.17109721899,0.0,0.0,1.3836535314
1505356819456853465,-0.0110712998964,-0.0972061471613,0.17112916708,0.0,0.0,1.38364649781
1505356819507249982,-0.0111705610784,-0.0979536520807,0.171083033085,0.0,0.0,1.38364673932
1505356819556816561,-0.0111611684879,-0.097576282014,0.171096980572,0.0,0.0,1.38363937687
1505356819606823721,-0.0110345494113,-0.0975639980465,0.171139240265,0.0,0.0,1.38365752675
1505356819657025554,-0.0111765532938,-0.0976982830635,0.171136081219,0.0,0.0,1.38364659706
1505356819706828573,-0.0111477290736,-0.0975861958271,0.17112237215,0.0,0.0,1.38363982768
1505356819756782624,-0.0111892873075,-0.0980020498493,0.17107874155,0.0,0.0,1.38363586576
1505356819806963156,-0.0110827174054,-0.0975098240965,0.171094119549,0.0,0.0,1.38365021399
1505356819856804538,-0.0111023098129,-0.0974819581805,0.171126961708,0.0,0.0,1.38366157772
1505356819908084914,-0.0112200245919,-0.0979735487747,0.171081781387,0.0,0.0,1.38364670248
1505356819956784907,-0.0110941119951,-0.0972675178221,0.171094298363,0.0,0.0,1.38363375812
1505356820007340542,-0.0111668106795,-0.0977756688874,0.171118199825,0.0,0.0,1.38364995435
1505356820056797149,-0.0111362409671,-0.0977742263297,0.171128749847,0.0,0.0,1.38365210613
1505356820106766489,-0.0111415174619,-0.0976334469752,0.171113193035,0.0,0.0,1.38364474398
1505356820156712820,-0.0111504114652,-0.0974938554475,0.171105980873,0.0,0.0,1.38364505738
1505356820206927344,-0.0111111717653,-0.0974805490678,0.171141624451,0.0,0.0,1.38364119675
1505356820256816436,-0.0111646410169,-0.0980044311266,0.171125054359,0.0,0.0,1.38364715309
1505356820306981760,-0.0111278348379,-0.097398907993,0.171139001846,0.0,0.0,1.38363770809
1505356820356814359,-0.0111494204817,-0.0977956010572,0.171111702919,0.0,0.0,1.38363069034
1505356820406863609,-0.0110860129645,-0.0972964907926,0.171151578426,0.0,0.0,1.38363967795
1505356820456777219,-0.0112200807345,-0.0981698093694,0.171115458012,0.0,0.0,1.38363154792
1505356820507295396,-0.011053822621,-0.0975747832284,0.17110222578,0.0,0.0,1.38363968568
1505356820556803270,-0.0111686677864,-0.0974471147742,0.171123206615,0.0,0.0,1.38364253566
1505356820606764061,-0.0111324031848,-0.0975816345493,0.171136796474,0.0,0.0,1.38363915209
1505356820656791464,-0.0111742019945,-0.0979459141445,0.171098589897,0.0,0.0,1.38364019398
1505356820706826402,-0.0111289588648,-0.0976762277534,0.171098232269,0.0,0.0,1.38365023109
1505356820756798340,-0.0111310051026,-0.0975695578247,0.171103298664,0.0,0.0,1.38363650605
1505356820806836242,-0.0111716143363,-0.0976261639396,0.17108887434,0.0,0.0,1.38363649989
1505356820856872979,-0.0111506065242,-0.0975212109437,0.171088576317,0.0,0.0,1.38362298573
1505356820906792164,-0.0111455237566,-0.0976507815732,0.171103417873,0.0,0.0,1.38362539234
1505356820956805120,-0.011095323574,-0.0976635969982,0.171123027802,0.0,0.0,1.38363784582
1505356821006807013,-0.0110699528645,-0.0976127912381,0.17112237215,0.0,0.0,1.38364453657
1505356821056734525,-0.0111626411421,-0.0974564056558,0.171128571033,0.0,0.0,1.38362084876
1505356821106801064,-0.0111143503907,-0.0978411792187,0.171115577221,0.0,0.0,1.38362206788
1505356821157016448,-0.0111514940141,-0.097582932235,0.171145319939,0.0,0.0,1.38363627548
1505356821207213597,-0.0111473404572,-0.0981040792725,0.171090245247,0.0,0.0,1.38363840878
1505356821256786964,-0.0110291788212,-0.0968166075827,0.171166181564,0.0,0.0,1.38362592919
1505356821307151550,-0.0112865442429,-0.0981591917204,0.171115577221,0.0,0.0,1.38362122529
1505356821356861731,-0.0111109329103,-0.0977650693512,0.171088814735,0.0,0.0,1.38362214899
1505356821406834179,-0.0111448928272,-0.0975547058722,0.171105146408,0.0,0.0,1.38363856765
1505356821456889121,-0.0111027534209,-0.0976205337709,0.171105623245,0.0,0.0,1.38364075044
1505356821506834482,-0.0112169188095,-0.0975874799309,0.171096980572,0.0,0.0,1.38361235473
1505356821556803520,-0.0111264387003,-0.0975721676737,0.171111226082,0.0,0.0,1.38361726856
1505356821607258949,-0.0110812772406,-0.0975812985947,0.171155452728,0.0,0.0,1.38361771737
1505356821656825569,-0.0111882560171,-0.0978791607135,0.171151280403,0.0,0.0,1.38361677513
1505356821707226877,-0.0111570490751,-0.0974347407659,0.171146154404,0.0,0.0,1.38360857069
1505356821756823589,-0.0111690435687,-0.0976866406286,0.171125769615,0.0,0.0,1.38361237509
1505356821806794324,-0.0111693477505,-0.0978011482882,0.171107828617,0.0,0.0,1.38361301645
1505356821856780334,-0.0111106502353,-0.0974004060988,0.171138703823,0.0,0.0,1.38361471463
1505356821906873132,-0.0111109500648,-0.0977261630499,0.171130776405,0.0,0.0,1.38361612579
1505356821956760147,-0.0111092794276,-0.0973521278636,0.171164274216,0.0,0.0,1.38360568121
1505356822006772472,-0.0110939942728,-0.0977548555381,0.17117190361,0.0,0.0,1.38361852064
1505356822056764582,-0.0111322695579,-0.0977805610166,0.171163260937,0.0,0.0,1.3836125751
1505356822106761478,-0.0111455190851,-0.0978071394454,0.171144723892,0.0,0.0,1.38362963781
1505356822156780332,-0.0111134114498,-0.0977213008301,0.17109900713,0.0,0.0,1.38361093234
1505356822206867124,-0.0111602021891,-0.0973203401239,0.171105861664,0.0,0.0,1.38360666022
1505356822256683398,-0.0110537055257,-0.0975625183726,0.171124517918,0.0,0.0,1.38362462603
1505356822306875292,-0.0112060249708,-0.0975616313922,0.171168029308,0.0,0.0,1.38361343342
1505356822356751229,-0.0110974758003,-0.0979949840319,0.17113173008,0.0,0.0,1.38361239294
1505356822406745628,-0.0111297969557,-0.0974068459611,0.171108961105,0.0,0.0,1.38360156358
1505356822456826671,-0.0110008069006,-0.0974982131326,0.171116352081,0.0,0.0,1.38360791489
1505356822507410281,-0.0111780563966,-0.0979622695875,0.171102643013,0.0,0.0,1.38361473206
1505356822556771128,-0.0110447322729,-0.0973452144357,0.171144902706,0.0,0.0,1.38362802156
1505356822606775321,-0.0111688725024,-0.0977117945997,0.171142280102,0.0,0.0,1.38361522849
1505356822656774614,-0.011093757561,-0.0975180452972,0.171154022217,0.0,0.0,1.38361966079
1505356822706785954,-0.0111603242337,-0.0978203763688,0.171127080917,0.0,0.0,1.38363278155
1505356822756709289,-0.0110503415088,-0.097469835515,0.171158909798,0.0,0.0,1.38363773382
1505356822807288889,-0.0111822967922,-0.0979899575889,0.171110272408,0.0,0.0,1.38361902754
1505356822856815404,-0.0110568544043,-0.0970654617112,0.171148896217,0.0,0.0,1.38360959879
1505356822906823490,-0.0111610633542,-0.0977548111643,0.171143591404,0.0,0.0,1.38361326244
1505356822956954383,-0.0112183793694,-0.0980739499817,0.171107828617,0.0,0.0,1.38362136834
1505356823007087543,-0.0110643420885,-0.0975155553035,0.171130478382,0.0,0.0,1.38363967818
1505356823056814213,-0.011131828109,-0.0975645051059,0.171135723591,0.0,0.0,1.38361872628
1505356823106814689,-0.0111051436788,-0.0976354156346,0.171116232872,0.0,0.0,1.38361657334
1505356823157497281,-0.0110879719099,-0.0974144326399,0.171140730381,0.0,0.0,1.38361690842
1505356823207209566,-0.0111139390276,-0.0978330711704,0.171149671078,0.0,0.0,1.38362824577
1505356823256921128,-0.0110725598322,-0.0974776991388,0.171172142029,0.0,0.0,1.38364332244
1505356823306868073,-0.0111403308313,-0.0976731545596,0.171161711216,0.0,0.0,1.38360808988
1505356823356815847,-0.0110779981033,-0.0976612263456,0.171146810055,0.0,0.0,1.38361861662
1505356823407284481,-0.0111428562149,-0.0977864916631,0.17114007473,0.0,0.0,1.38363991784
1505356823456792733,-0.0111636962583,-0.0979326761713,0.171097695827,0.0,0.0,1.38362574803
1505356823506887262,-0.0110829355009,-0.0970286419249,0.171171069145,0.0,0.0,1.38362669802
1505356823556814314,-0.0110957959152,-0.0978201286955,0.171162128448,0.0,0.0,1.38362813871
1505356823606774025,-0.0111271695072,-0.09768514832,0.171146512032,0.0,0.0,1.38361775541
1505356823656846232,-0.0112255495318,-0.0980047276571,0.171090245247,0.0,0.0,1.38362756656
1505356823706778469,-0.0111050278863,-0.0973073589289,0.171106398106,0.0,0.0,1.38362169879
1505356823756803605,-0.0109889738681,-0.0973075838269,0.171158671379,0.0,0.0,1.38362760152
1505356823806824781,-0.0112052820575,-0.0977740345343,0.171180009842,0.0,0.0,1.38362659468
1505356823856836791,-0.0111463387363,-0.0981077851735,0.171115815639,0.0,0.0,1.3836170921
1505356823906896074,-0.0110578970454,-0.097356155695,0.171146452427,0.0,0.0,1.38362270182
1505356823956849803,-0.01106766511,-0.0975262059952,0.171171188354,0.0,0.0,1.38364014389
1505356824006857226,-0.0111887310238,-0.0977738780288,0.171137690544,0.0,0.0,1.38361746388
1505356824056884747,-0.0111114442536,-0.097491002436,0.171144783497,0.0,0.0,1.38361851557
1505356824106843541,-0.0111490121642,-0.0979581946591,0.171117782593,0.0,0.0,1.38362840254
1505356824156932559,-0.0110905212446,-0.0975633193779,0.171116054058,0.0,0.0,1.38363168676
1505356824206840964,-0.0111389515044,-0.0974360398037,0.171124696732,0.0,0.0,1.38362475748
1505356824256915548,-0.0111246435693,-0.0977124946421,0.171114981174,0.0,0.0,1.38362835345
1505356824307330944,-0.0110699721159,-0.0976248427239,0.171121478081,0.0,0.0,1.38362630705
1505356824356865508,-0.011155579722,-0.0976132428803,0.171151936054,0.0,0.0,1.38363107257
1505356824406808374,-0.011092528305,-0.0979466015573,0.171120524406,0.0,0.0,1.38363176596
1505356824456843513,-0.0110454964464,-0.0971248779548,0.171156704426,0.0,0.0,1.38362396195
1505356824506881514,-0.0111807510958,-0.0976471466801,0.171169996262,0.0,0.0,1.3836290964
1505356824556853135,-0.0111209505752,-0.0979077584687,0.171156466007,0.0,0.0,1.38362021415
1505356824607370665,-0.0111177246583,-0.0976370422293,0.171156644821,0.0,0.0,1.383632421
1505356824656991446,-0.011042788805,-0.0973000015798,0.171181321144,0.0,0.0,1.38362767601
1505356824706847240,-0.0111862403322,-0.0978147115187,0.171160340309,0.0,0.0,1.38362069014
1505356824756759434,-0.0111336123448,-0.0979539436359,0.171122610569,0.0,0.0,1.38362264763
1505356824806907595,-0.0111336008901,-0.0974302508456,0.171118855476,0.0,0.0,1.38362247884
1505356824856736208,-0.0110667086936,-0.0976413172745,0.171137213707,0.0,0.0,1.38363066621
1505356824906899682,-0.0111445087558,-0.0974855933455,0.171157300472,0.0,0.0,1.38362117556
1505356824956880778,-0.0111351711596,-0.0979511074522,0.17113161087,0.0,0.0,1.38362071854
1505356825007426701,-0.0110940192267,-0.0974211803978,0.17114418745,0.0,0.0,1.38361982067
1505356825056882132,-0.0111166122462,-0.0977369211815,0.171151041985,0.0,0.0,1.38363419287
1505356825106891592,-0.0111578743844,-0.0977043780147,0.171129107475,0.0,0.0,1.38362406315
1505356825156861898,-0.0111009044925,-0.0974802686776,0.171119511127,0.0,0.0,1.38360645396
1505356825206899846,-0.0110970050535,-0.0975518193487,0.171126544476,0.0,0.0,1.38362384659
1505356825256760945,-0.0111001120622,-0.0975164403718,0.17117613554,0.0,0.0,1.3836260709
1505356825306807010,-0.0111849433759,-0.0981512148584,0.171126306057,0.0,0.0,1.38363196118
1505356825356835049,-0.0110252817166,-0.0971668645841,0.171139419079,0.0,0.0,1.38360927761
1505356825407059601,-0.0111587899834,-0.0975909415745,0.171148717403,0.0,0.0,1.38362408097
1505356825456812781,-0.0111522986742,-0.0979051111466,0.17114263773,0.0,0.0,1.38362391774
1505356825506813465,-0.011200393509,-0.0979501663295,0.171098291874,0.0,0.0,1.3836287988
1505356825556731289,-0.011107517108,-0.097394627371,0.171089291573,0.0,0.0,1.3836189722
1505356825606836403,-0.0110283970162,-0.0971254328163,0.171149432659,0.0,0.0,1.38362780032
1505356825656853388,-0.0110875018344,-0.0978084754809,0.171188950539,0.0,0.0,1.38362754099
1505356825706876227,-0.0111915894991,-0.0982776946225,0.171109259129,0.0,0.0,1.3836318036
1505356825756824497,-0.0110945760977,-0.0971717286341,0.171144485474,0.0,0.0,1.38362875153
1505356825806847973,-0.0111340690899,-0.0977680911028,0.171121001244,0.0,0.0,1.38362664004
1505356825856793733,-0.011047399505,-0.0971523448752,0.171177506447,0.0,0.0,1.38362454739
1505356825907204777,-0.0111769846145,-0.0980695483691,0.171159505844,0.0,0.0,1.38362336768
1505356825956826304,-0.0110925298431,-0.0977679899847,0.171150624752,0.0,0.0,1.38363383089
1505356826007033604,-0.0110840751679,-0.0973812876632,0.171157836914,0.0,0.0,1.38361502447
1505356826056787205,-0.0111600244983,-0.0974143249563,0.171190440655,0.0,0.0,1.38362639793
1505356826106822339,-0.0111116449142,-0.0977666453533,0.171192109585,0.0,0.0,1.38362908151
1505356826156742396,-0.0112471211226,-0.0981565107331,0.1711358428,0.0,0.0,1.38362011219
1505356826206840821,-0.0110495213209,-0.0972895392263,0.171152055264,0.0,0.0,1.38362705351
1505356826256793926,-0.0110801889717,-0.0975037364573,0.171172559261,0.0,0.0,1.38362815688
1505356826306958614,-0.0112361208596,-0.0979158684381,0.17115432024,0.0,0.0,1.3836198697
1505356826356767649,-0.0112478364542,-0.0981058706473,0.171079695225,0.0,0.0,1.38362184205
1505356826406882904,-0.0110310623632,-0.0971833803873,0.171111166477,0.0,0.0,1.383620469
1505356826456817934,-0.0111901307959,-0.0975689183404,0.171132087708,0.0,0.0,1.38362621697
1505356826506799355,-0.0110601694133,-0.0976134805886,0.171140789986,0.0,0.0,1.38361561423
1505356826556829480,-0.011209686124,-0.097951493979,0.17109888792,0.0,0.0,1.38361862622
1505356826606790644,-0.0111008206337,-0.0975863978259,0.171103715897,0.0,0.0,1.38363379937
1505356826656883321,-0.0110819663587,-0.0973133356394,0.171157717705,0.0,0.0,1.38362130154
1505356826706823305,-0.0111539752555,-0.0976552220768,0.171174228191,0.0,0.0,1.38361505171
1505356826756830532,-0.0111700937915,-0.0979607152436,0.171123564243,0.0,0.0,1.38360965241
1505356826806833632,-0.0109975880625,-0.0971922775824,0.171177685261,0.0,0.0,1.38362091909
1505356826856849626,-0.0112990328976,-0.0979785865407,0.171181917191,0.0,0.0,1.38361884419
1505356826906803249,-0.0110487535545,-0.097551069982,0.171180725098,0.0,0.0,1.38362609318
1505356826956958636,-0.0112039242632,-0.0978295343521,0.17112660408,0.0,0.0,1.38360594552
1505356827007456668,-0.0111040573512,-0.0974716876715,0.171131551266,0.0,0.0,1.383613832
1505356827056808297,-0.0110868558868,-0.0975192492003,0.171180129051,0.0,0.0,1.38362290847
1505356827106839242,-0.0111829595008,-0.0980426987739,0.171148478985,0.0,0.0,1.38362370385
1505356827156845164,-0.0111690146282,-0.0976721509587,0.171123743057,0.0,0.0,1.38361848577
1505356827206834719,-0.011144953446,-0.0975083122252,0.171098530293,0.0,0.0,1.38359837092
1505356827256736574,-0.0110385856013,-0.0971804178246,0.171171784401,0.0,0.0,1.38360779267
1505356827306781935,-0.0110611339574,-0.0975271906224,0.171229481697,0.0,0.0,1.38361214125
1505356827356825837,-0.0113743375448,-0.0991430988258,0.171063184738,0.0,0.0,1.38362193115
1505356827406833932,-0.0110420692625,-0.0963029565647,0.171157062054,0.0,0.0,1.38361479547
1505356827456891278,-0.0112086078981,-0.0983750866723,0.171135246754,0.0,0.0,1.38362509414
1505356827506872007,-0.0111560949803,-0.0973597815351,0.17115598917,0.0,0.0,1.38362261131
1505356827556715434,-0.0112239827139,-0.0980125060177,0.171121895313,0.0,0.0,1.3836184321
1505356827607558556,-0.0111242037413,-0.0970646536761,0.171165823936,0.0,0.0,1.38360117487
1505356827656767554,-0.0112450822508,-0.0983312791383,0.171103417873,0.0,0.0,1.38362070912
1505356827706920163,-0.0110580462793,-0.0971185914453,0.171135962009,0.0,0.0,1.38361353358
1505356827756856317,-0.0112237087513,-0.0978522199651,0.171124637127,0.0,0.0,1.38361390282
1505356827806915910,-0.0110822856412,-0.0977041774672,0.171127915382,0.0,0.0,1.38361706674
1505356827856736587,-0.0111364621467,-0.0976430446945,0.171123385429,0.0,0.0,1.38360742086
1505356827907298760,-0.0111980282714,-0.0978595226236,0.171117663383,0.0,0.0,1.38361783341
1505356827956813523,-0.0110665628745,-0.0973351373667,0.17114430666,0.0,0.0,1.38362183655
1505356828007013011,-0.0112268001317,-0.0980779277145,0.171124398708,0.0,0.0,1.3836180081
1505356828056946249,-0.0110694740469,-0.0972491369309,0.171133041382,0.0,0.0,1.38360743264
1505356828107578185,-0.0112385825227,-0.0978631939869,0.17110311985,0.0,0.0,1.38360875261
1505356828156774867,-0.0110758908423,-0.0973945347871,0.17113494873,0.0,0.0,1.383616587
1505356828207417491,-0.0111598015075,-0.0978083774949,0.171161651611,0.0,0.0,1.38361433179
1505356828256798264,-0.011207230304,-0.0980832484942,0.171098768711,0.0,0.0,1.38361465501
1505356828307294605,-0.0110959269214,-0.0971427333844,0.171122610569,0.0,0.0,1.38361001495
1505356828356808170,-0.0110952170845,-0.0975303667047,0.171144127846,0.0,0.0,1.383617572
1505356828406827974,-0.0111934871599,-0.0982297631126,0.17110067606,0.0,0.0,1.38361393475
1505356828456814488,-0.0111334449378,-0.0974019508204,0.171110510826,0.0,0.0,1.38361428997
1505356828506925965,-0.0111149018138,-0.0974957246141,0.171120524406,0.0,0.0,1.38361214507
1505356828556812158,-0.0111327186517,-0.0973725981856,0.171153903008,0.0,0.0,1.38360989116
1505356828606816642,-0.0111438094835,-0.0980458501533,0.17113083601,0.0,0.0,1.38360897016
1505356828656958561,-0.0111490824128,-0.097855508899,0.171114623547,0.0,0.0,1.38362945469
1505356828706818378,-0.0110536426227,-0.0972138466833,0.171172559261,0.0,0.0,1.38362392526
1505356828756932307,-0.0111768446111,-0.0977983408823,0.1711820364,0.0,0.0,1.38362218184
1505356828806791809,-0.0112309539648,-0.0980692827045,0.171105980873,0.0,0.0,1.38362383849
1505356828856829202,-0.0111116238359,-0.0973917335774,0.171114504337,0.0,0.0,1.38361993347
1505356828906838194,-0.0111069754426,-0.097529903707,0.171153128147,0.0,0.0,1.38363728413
1505356828956858328,-0.0111586093785,-0.0975619321509,0.171172857285,0.0,0.0,1.38363060522
1505356829006806923,-0.0111822662731,-0.0981524247221,0.171121835709,0.0,0.0,1.38362573741
1505356829056714428,-0.0111343809755,-0.0974153588546,0.171122550964,0.0,0.0,1.3836152224
1505356829106811327,-0.0111047954014,-0.097669582587,0.171144485474,0.0,0.0,1.38362911741
1505356829156904986,-0.0111291963803,-0.0976625168767,0.171108961105,0.0,0.0,1.38361889668
1505356829206929023,-0.0111110643991,-0.097396739067,0.171135783195,0.0,0.0,1.38362843902
1505356829256749125,-0.0111352549974,-0.097866995988,0.171126723289,0.0,0.0,1.38362268675
1505356829307352130,-0.0112740317287,-0.0979551079003,0.171100497246,0.0,0.0,1.38363253494
1505356829356805213,-0.0110612644062,-0.0974166617169,0.17112660408,0.0,0.0,1.38363570859
1505356829407124861,-0.0111414618466,-0.0976169898419,0.17112749815,0.0,0.0,1.38363488807
1505356829456825012,-0.0111145487378,-0.0976192515918,0.171145915985,0.0,0.0,1.38363148883
1505356829507210791,-0.0111609238308,-0.0980116292505,0.171103835106,0.0,0.0,1.3836327598
1505356829556681615,-0.0111139471305,-0.097591100054,0.171107113361,0.0,0.0,1.38364079938
1505356829606874523,-0.0110725173911,-0.0972714687533,0.171128094196,0.0,0.0,1.38362754191
1505356829656795822,-0.0111020260183,-0.0979361508004,0.171119511127,0.0,0.0,1.38363626226
1505356829707360482,-0.0111447189847,-0.097799353964,0.171085834503,0.0,0.0,1.38362763121
1505356829756789127,-0.01107383749,-0.0976316126938,0.171096682549,0.0,0.0,1.38363641164
1505356829807153275,-0.0111129771347,-0.0974360087911,0.171145200729,0.0,0.0,1.38363594481
1505356829856985199,-0.0111511739109,-0.0974142725085,0.171181380749,0.0,0.0,1.38364050416
1505356829906909661,-0.0111115922389,-0.0979578378252,0.171146571636,0.0,0.0,1.3836355872
1505356829956820104,-0.0111892282833,-0.0978035553451,0.171124517918,0.0,0.0,1.3836214649
1505356830006943413,-0.0111288136285,-0.0976258739524,0.171142160892,0.0,0.0,1.38364841797
1505356830056940689,-0.0110894702664,-0.0973398501379,0.171181201935,0.0,0.0,1.38363853499
1505356830106782587,-0.011217556917,-0.0981134882101,0.171129107475,0.0,0.0,1.38363557079
1505356830156893993,-0.0110874006738,-0.0976598840586,0.171135663986,0.0,0.0,1.38362643906
1505356830206825204,-0.0110981436691,-0.0977267124592,0.171123027802,0.0,0.0,1.38364032215
1505356830256803775,-0.0111356949307,-0.0975249596358,0.171144962311,0.0,0.0,1.38365967113
1505356830306808747,-0.0110669491059,-0.097313412831,0.171182572842,0.0,0.0,1.38363508864
1505356830356977283,-0.0112173777373,-0.0982319918399,0.171104669571,0.0,0.0,1.38362278475
1505356830406950038,-0.0111123933067,-0.097344884798,0.171125590801,0.0,0.0,1.38363434409
1505356830456920397,-0.0110363733924,-0.0974394725215,0.171165466309,0.0,0.0,1.38363956564
1505356830506789746,-0.011279460906,-0.0984762672139,0.171087503433,0.0,0.0,1.3836315592
1505356830556954134,-0.0110510371205,-0.0969377423815,0.171133875847,0.0,0.0,1.38363514252
1505356830606926798,-0.0110446767596,-0.097690952266,0.171157598495,0.0,0.0,1.38363618522
1505356830656918455,-0.0112158891156,-0.0979877913158,0.171165585518,0.0,0.0,1.3836446324
1505356830706857982,-0.0110544383378,-0.0973513611024,0.171175837517,0.0,0.0,1.38363506589
1505356830756694772,-0.0112085562386,-0.0981565873926,0.171112000942,0.0,0.0,1.38363695287
1505356830806871332,-0.0110028289861,-0.0968832619301,0.171181619167,0.0,0.0,1.3836306717
1505356830856831657,-0.0111770749184,-0.0981529134121,0.171165585518,0.0,0.0,1.38363554075
1505356830906852993,-0.0111802674279,-0.0978990559931,0.171138584614,0.0,0.0,1.38363069367
1505356830956689379,-0.0111162214938,-0.0973925717113,0.171151161194,0.0,0.0,1.38364406809
1505356831006785287,-0.0111060763247,-0.0977004436887,0.171135604382,0.0,0.0,1.38362050895
1505356831056849301,-0.0111466126227,-0.0975490627084,0.171148836613,0.0,0.0,1.38365182752
1505356831107339496,-0.0111203917141,-0.0978723072647,0.171155452728,0.0,0.0,1.38363352245
1505356831156860068,-0.0111653171485,-0.0977780572147,0.171142101288,0.0,0.0,1.38364028967
1505356831206842422,-0.0110985655946,-0.0973655786033,0.171143114567,0.0,0.0,1.38363137731
1505356831256897218,-0.0111352802139,-0.0977512946452,0.171112537384,0.0,0.0,1.38363701423
1505356831306878003,-0.0111508742386,-0.0977916862491,0.171118974686,0.0,0.0,1.3836367503
1505356831356851698,-0.0111302701525,-0.0975720649315,0.171129643917,0.0,0.0,1.38362432396
1505356831406835732,-0.0110621998067,-0.0974733050946,0.171157717705,0.0,0.0,1.38364125153
1505356831456816847,-0.0111464238797,-0.0978766817027,0.171132385731,0.0,0.0,1.3836385606
1505356831506920851,-0.0111343177694,-0.0977874864102,0.171119689941,0.0,0.0,1.3836418927
1505356831556901299,-0.0111096175069,-0.0975603986064,0.171149075031,0.0,0.0,1.38364303293
1505356831606820922,-0.0111155967007,-0.0974866348722,0.171152353287,0.0,0.0,1.38362776494
1505356831656767493,-0.0111509963925,-0.0974949786496,0.171187698841,0.0,0.0,1.38363390536
1505356831706818641,-0.0111065689409,-0.0979885222451,0.1711550951,0.0,0.0,1.38363971936
1505356831756801461,-0.0111432216801,-0.0978359471889,0.171124696732,0.0,0.0,1.38363763044
1505356831806866799,-0.0111236605976,-0.0972482899408,0.1711769104,0.0,0.0,1.38362759897
1505356831856983543,-0.0111848022413,-0.0979288058529,0.171150684357,0.0,0.0,1.38363444287
1505356831907314932,-0.0110991082574,-0.0975008864634,0.171157002449,0.0,0.0,1.38362985912
1505356831956742968,-0.0111116223998,-0.097761871301,0.17116522789,0.0,0.0,1.38364321905
1505356832007436921,-0.011081399469,-0.0975701023447,0.171157360077,0.0,0.0,1.38363029566
1505356832056854284,-0.011184650701,-0.0979364392512,0.171137213707,0.0,0.0,1.38364061786
1505356832106939349,-0.0111834691309,-0.0976134206086,0.171102404594,0.0,0.0,1.38363177594
1505356832156851959,-0.011074966248,-0.0973902858502,0.171144962311,0.0,0.0,1.38363925516
1505356832207354285,-0.0111122325533,-0.0978200436863,0.171158790588,0.0,0.0,1.38363645591
1505356832256847560,-0.0110881760156,-0.0972940655039,0.171172320843,0.0,0.0,1.38362217377
1505356832306805647,-0.0112372535857,-0.0982062440019,0.171122252941,0.0,0.0,1.38362938125
1505356832356863621,-0.0110827011177,-0.0971346204802,0.171161353588,0.0,0.0,1.38363971189
1505356832406817530,-0.0111740355175,-0.0980245902611,0.171140551567,0.0,0.0,1.38363111017
1505356832456743755,-0.0110902417729,-0.097505090814,0.171168088913,0.0,0.0,1.38364068134
1505356832507373083,-0.0110764240445,-0.0976226978017,0.171176671982,0.0,0.0,1.38363683107
1505356832556835673,-0.0113076455899,-0.0981656967516,0.171110630035,0.0,0.0,1.38363594813
1505356832606806930,-0.0109277824534,-0.0966600900787,0.171193003654,0.0,0.0,1.38362857929
1505356832656822864,-0.0112704427644,-0.0985424190937,0.171135306358,0.0,0.0,1.38363585939
1505356832706790926,-0.0110491542112,-0.0972124370582,0.171125590801,0.0,0.0,1.38361583682
1505356832756858079,-0.0110713034338,-0.0972238866885,0.17117279768,0.0,0.0,1.38360973921
1505356832806752582,-0.0111651610311,-0.0980154511551,0.171187102795,0.0,0.0,1.38362520435
1505356832856985691,-0.0111482748899,-0.0978320004035,0.171155273914,0.0,0.0,1.38363018941
1505356832906764731,-0.0111519717374,-0.0979359597664,0.171126663685,0.0,0.0,1.38364459068
1505356832956699191,-0.0110657620141,-0.096994173114,0.17117112875,0.0,0.0,1.38362384308
1505356833006899414,-0.011144938919,-0.0978444755544,0.171186506748,0.0,0.0,1.38363710579
1505356833056829138,-0.0112446634775,-0.0981770701282,0.171101212502,0.0,0.0,1.38363185126
1505356833106818743,-0.0111787643294,-0.0976520930518,0.1710755229,0.0,0.0,1.38362108499
1505356833156825946,-0.0109716351625,-0.096718101144,0.171173870564,0.0,0.0,1.38362592278
1505356833206825020,-0.011119202228,-0.097701759374,0.171196043491,0.0,0.0,1.3836182481
1505356833256816100,-0.0112246666477,-0.0983435892277,0.171136975288,0.0,0.0,1.38362063208
1505356833307212028,-0.0110835104162,-0.097394002762,0.171123802662,0.0,0.0,1.38360651101
1505356833356756235,-0.0111521030338,-0.0974171385298,0.171181857586,0.0,0.0,1.38362721792
1505356833406907080,-0.0111686995188,-0.0979489816475,0.171137750149,0.0,0.0,1.38362490289
1505356833456734198,-0.0110952177559,-0.0973277215679,0.171154916286,0.0,0.0,1.38360744007
1505356833506822797,-0.0112086512251,-0.0982603635315,0.171081006527,0.0,0.0,1.38360859802
1505356833556827254,-0.0110996352194,-0.0971774860564,0.171095073223,0.0,0.0,1.38359568657
1505356833607425982,-0.0109947548299,-0.0973606267949,0.171166479588,0.0,0.0,1.38361667736
1505356833656797248,-0.0113282080112,-0.0984185468283,0.171069920063,0.0,0.0,1.38359829455
1505356833707419891,-0.0110949269078,-0.0974323195496,0.17108130455,0.0,0.0,1.38360673175
1505356833756831192,-0.0110434808917,-0.0970977328276,0.171173930168,0.0,0.0,1.38360835235
1505356833807570493,-0.0111874957036,-0.0979017358945,0.171181738377,0.0,0.0,1.38361236957
1505356833856851205,-0.0111564598295,-0.0977362740954,0.171150922775,0.0,0.0,1.38360393424
1505356833906851455,-0.0111627320596,-0.0975691685951,0.171139061451,0.0,0.0,1.38360116493
1505356833956981853,-0.011109471309,-0.0977228804603,0.171138048172,0.0,0.0,1.3835961877
1505356834006807286,-0.0111384139233,-0.0975263479045,0.171166539192,0.0,0.0,1.38362387071
1505356834056822282,-0.0111351421225,-0.0976639492902,0.171163976192,0.0,0.0,1.38360407993
1505356834106799931,-0.0112107006127,-0.0978678886354,0.171136260033,0.0,0.0,1.38360121297
1505356834156778161,-0.0109881163173,-0.097168217697,0.171166718006,0.0,0.0,1.38359586092
1505356834206785999,-0.0111952703879,-0.097937230134,0.17116945982,0.0,0.0,1.38360451471
1505356834256828043,-0.0110709480018,-0.0974232993468,0.17117202282,0.0,0.0,1.3835921647
1505356834306792336,-0.0112526746822,-0.0979029953669,0.171137750149,0.0,0.0,1.38359458785
1505356834356813058,-0.0110779814912,-0.0975106790475,0.171118021011,0.0,0.0,1.38360441859
1505356834407336571,-0.0111047129222,-0.0975505598357,0.171166777611,0.0,0.0,1.38360462261
1505356834456872587,-0.0111507092422,-0.0979858842985,0.171160399914,0.0,0.0,1.38361665364
1505356834506899909,-0.011076947855,-0.097657652833,0.171135783195,0.0,0.0,1.3836290804
1505356834556843384,-0.0111833419852,-0.097456272255,0.171126902103,0.0,0.0,1.38360442735
1505356834606797298,-0.0111052685093,-0.0975300695906,0.171141326427,0.0,0.0,1.3835957923
1505356834656901225,-0.0111357542514,-0.0976854405101,0.171158134937,0.0,0.0,1.3836035093
1505356834706844562,-0.0110938922135,-0.0974729477669,0.171151697636,0.0,0.0,1.38360210767
1505356834756810898,-0.0110345703681,-0.0974014896257,0.171196043491,0.0,0.0,1.38361280082
1505356834806904787,-0.0111277552819,-0.0978879433959,0.171180665493,0.0,0.0,1.38361297385
1505356834856783261,-0.011131949367,-0.097900724485,0.171161293983,0.0,0.0,1.38360761034
1505356834906884801,-0.0109565985707,-0.0975336936074,0.171173155308,0.0,0.0,1.38361363138
1505356834956838008,-0.0111821885466,-0.0975898244416,0.171151518822,0.0,0.0,1.3836101016
1505356835006905337,-0.0110428516346,-0.0974841894274,0.171187758446,0.0,0.0,1.38361855048
1505356835056851313,-0.0111841352521,-0.0978094297858,0.171154260635,0.0,0.0,1.38360751204
1505356835106816858,-0.0110356760431,-0.0974052371647,0.171180427074,0.0,0.0,1.38360966617
1505356835156741352,-0.0111419270814,-0.0975004620396,0.171184062958,0.0,0.0,1.38360205267
1505356835207189450,-0.011133828901,-0.0977828222684,0.171167552471,0.0,0.0,1.38360759039
1505356835256830051,-0.011083510406,-0.0977528200077,0.171188414097,0.0,0.0,1.38362352016
1505356835306859313,-0.0111039624578,-0.0977872042383,0.171164095402,0.0,0.0,1.38360820792
1505356835356917769,-0.0111059453581,-0.0976237536688,0.171157717705,0.0,0.0,1.38360796735
1505356835406869469,-0.0109931914978,-0.0972780022043,0.171182572842,0.0,0.0,1.38361055451
1505356835456745024,-0.0110777247853,-0.0976256662292,0.171190559864,0.0,0.0,1.38359943931
1505356835506813498,-0.0111394885661,-0.0976654396894,0.171202600002,0.0,0.0,1.38361962839
1505356835556824256,-0.0111722893708,-0.0979469751795,0.171172261238,0.0,0.0,1.38361574931
1505356835607315974,-0.0111098185148,-0.0973636066668,0.171196639538,0.0,0.0,1.38361172542
1505356835656914723,-0.0111413234302,-0.0980032309758,0.171147167683,0.0,0.0,1.38360504044
1505356835706767036,-0.0110058270764,-0.0969341119242,0.171207726002,0.0,0.0,1.38361841612
1505356835756897457,-0.0112711839582,-0.0981449265443,0.171193122864,0.0,0.0,1.38361006075
1505356835806709310,-0.0112414190903,-0.0979736288718,0.171148717403,0.0,0.0,1.38361707182
1505356835856811855,-0.010996606964,-0.0971425973093,0.17117702961,0.0,0.0,1.38362305061
1505356835906922342,-0.0110745866365,-0.0974454090957,0.171202540398,0.0,0.0,1.38361330328
1505356835956800588,-0.0110395448135,-0.0976156712517,0.171258628368,0.0,0.0,1.38361754777
1505356836007245627,-0.0113396865113,-0.0986129914139,0.171148955822,0.0,0.0,1.38362625203
1505356836056688102,-0.0109833723237,-0.0968321979038,0.171184837818,0.0,0.0,1.38360878238
1505356836106862243,-0.0111057376339,-0.0976653832523,0.171197593212,0.0,0.0,1.38360325568
1505356836156779842,-0.0110215764157,-0.0974563455859,0.171227037907,0.0,0.0,1.38361987062
1505356836206864839,-0.0112132712703,-0.0981568180889,0.171172320843,0.0,0.0,1.38360105562
1505356836256764974,-0.0111249174188,-0.0975196874604,0.171145796776,0.0,0.0,1.3836161291
1505356836306786271,-0.0109940343895,-0.0972407129603,0.171192407608,0.0,0.0,1.38361902265
1505356836356784475,-0.0111510654671,-0.0977607284884,0.171199917793,0.0,0.0,1.38360976844
1505356836406807167,-0.0111751303623,-0.0977995353065,0.17119127512,0.0,0.0,1.38361384561
1505356836456940648,-0.0111842506304,-0.0979511535984,0.171158790588,0.0,0.0,1.38362278017
1505356836506939417,-0.0110279662667,-0.0972048816152,0.171186804771,0.0,0.0,1.38361041783
1505356836556844555,-0.0110556567796,-0.0973584635922,0.171217083931,0.0,0.0,1.38361374226
1505356836606799327,-0.0110919688999,-0.0977362408844,0.171211719513,0.0,0.0,1.3836069257
1505356836657016705,-0.01115198197,-0.0979824441268,0.171188533306,0.0,0.0,1.38362152413
1505356836707399271,-0.0111222154154,-0.0974111891794,0.171176433563,0.0,0.0,1.38361933306
1505356836757058462,-0.0111399744403,-0.0977338811696,0.171165168285,0.0,0.0,1.38360518926
1505356836807000068,-0.0110366082405,-0.0972229295548,0.171215474606,0.0,0.0,1.38362191454
1505356836856794292,-0.011164460726,-0.0981938335814,0.171191751957,0.0,0.0,1.38361536129
1505356836906865530,-0.0111581951853,-0.0977366376362,0.171178519726,0.0,0.0,1.3836269475
1505356836957060469,-0.0110481254067,-0.0971422102052,0.171185612679,0.0,0.0,1.38362149184
1505356837006952817,-0.011052805839,-0.097481810434,0.17120808363,0.0,0.0,1.38361824545
1505356837056975022,-0.0111845200104,-0.0978887510709,0.171202719212,0.0,0.0,1.38362464115
1505356837107480368,-0.0111947396597,-0.0980332042216,0.171160578728,0.0,0.0,1.38361933456
1505356837156964706,-0.0109921233358,-0.0971299846458,0.171220302582,0.0,0.0,1.38362625205
1505356837206771778,-0.01116990609,-0.0980134395291,0.171183586121,0.0,0.0,1.38361329847
1505356837256879226,-0.0110365784744,-0.0974268479845,0.171173393726,0.0,0.0,1.38362153842
1505356837306946643,-0.0111347754614,-0.0975750404431,0.171184659004,0.0,0.0,1.38362016414
1505356837356832690,-0.0110387003217,-0.097633890059,0.171203196049,0.0,0.0,1.38362362035
1505356837406859669,-0.0111930033759,-0.0980178673715,0.171168386936,0.0,0.0,1.38362099979
1505356837456802892,-0.0111026500162,-0.0972869392801,0.171162247658,0.0,0.0,1.38362430593
1505356837506824103,-0.0111158658631,-0.0976551202128,0.171184301376,0.0,0.0,1.38362017896
1505356837556793177,-0.0110913234337,-0.0975928441664,0.171205282211,0.0,0.0,1.38362140674
1505356837607328976,-0.0111248520833,-0.0980008273591,0.171173334122,0.0,0.0,1.38361809438
1505356837656848221,-0.0110798590241,-0.0972283403954,0.171178877354,0.0,0.0,1.38361998289
1505356837706942853,-0.0111043891084,-0.0976896401986,0.171185970306,0.0,0.0,1.38360163262
1505356837756811306,-0.0111058681078,-0.0975934346821,0.171194434166,0.0,0.0,1.38360741082
1505356837806779711,-0.0111638519944,-0.0978951708223,0.171157836914,0.0,0.0,1.38362047496
1505356837856805914,-0.0111233315689,-0.0976239383736,0.171163141727,0.0,0.0,1.38361870733
