%time,field.linear.x,field.linear.y,field.linear.z,field.angular.x,field.angular.y,field.angular.z
1503329557978405546,0.0283084793091,-0.00485859807332,0.105710744858,0.1,0.0,-0.0457728207111
1503329558015764767,0.0277960535685,-0.00394774881999,0.107063025236,0.1,0.0,-0.0449657142162
1503329558040267168,0.0275557810465,-0.00374757385254,0.107111215591,0.1,0.0,-0.0446555614471
1503329558102199614,0.0263596979777,-0.00212731170654,0.110371589661,0.1,0.0,-0.0397263169289
1503329558144656892,0.0259894688924,-0.000846665700277,0.110183238983,0.1,0.0,-0.0405322611332
1503329558209702402,0.0256900685628,3.33404541016e-05,0.111409276724,0.1,0.0,-0.0414790809155
1503329559087509716,0.0189456265767,-0.00745874214172,0.0929871350527,0.1,0.0,-0.0275729298592
1503329559111289603,0.0174150250753,-0.00735423405965,0.0929037109017,0.1,0.0,-0.0288654267788
1503329559175056449,0.014022769928,-0.00768610127767,0.0943795591593,0.1,0.0,-0.0228807628155
1503329559220888765,0.0123838907878,-0.007860496521,0.0948033183813,0.1,0.0,-0.0230583995581
1503329559280333050,0.00882881673177,-0.00824293963114,0.0975880846381,0.1,0.0,-0.0222969502211
1503329559310110273,0.0084393641154,-0.00818788274129,0.0995446890593,0.1,0.0,-0.0218027308583
1503329559372337120,0.00487600008647,-0.00820985730489,0.0984399914742,0.1,0.0,-0.0239260792732
1503329559416035070,0.00277460066477,-0.00826092974345,0.0981861278415,0.1,0.0,-0.0242115706205
1503329559496343395,-0.00364484850566,-0.00835394096375,0.0930711627007,0.1,0.0,-0.0263958498836
1503329559537118395,-0.00612329483032,-0.00833884429932,0.0904744789004,0.1,0.0,-0.0281489863992
1503329559578548987,-0.0127063280741,-0.00770817565918,0.0855934619904,0.1,0.0,-0.0279763564467
1503329559615426341,-0.015274810791,-0.00750781440735,0.0849470645189,0.1,0.0,-0.0265794172883
1503329559660480423,-0.0220198771159,-0.00638331349691,0.0862953513861,0.1,0.0,-0.0238561555743
1503329559705213072,-0.0249060312907,-0.00568566131592,0.0866905748844,0.1,0.0,-0.0239848792553
1503329565678687803,-0.0300274276733,0.0470119679769,0.111827492714,0.1,0.0,-0.050567984581
1503329565734472868,-0.0289158630371,0.0543295644124,0.112528145313,0.1,0.0,-0.0522503256798
1503329565763814728,-0.0279199879964,0.0575464579264,0.114682376385,0.1,0.0,-0.052917599678
1503329565844285997,-0.0260811106364,0.0644919179281,0.107572793961,0.1,0.0,-0.0587915182114
1503329565874000492,-0.0242955271403,0.0686218058268,0.10054141283,0.1,0.0,-0.0594795942307
1503329572242384082,0.0304565226237,0.0661518198649,0.0944533348083,0.1,0.0,-0.0864300131798
1503329572253803142,0.0254636128743,0.0634654642741,0.0976493358612,0.1,0.0,-0.0871229171753
1503329572276677765,0.0233052164714,0.0621498006185,0.0914479494095,0.1,0.0,-0.0860439538956
1503329572453219309,0.0198145039876,0.0555920664469,0.105398416519,0.1,0.0,-0.0880860090256
1503329572466441987,0.0182364959717,0.054826868693,0.0982622504234,0.1,0.0,-0.0865738987923
1503329572479160209,0.013884707133,0.0537249145508,0.0984925627708,0.1,0.0,-0.0842967629433
1503329572498015337,0.0116492055257,0.0533783772786,0.0981485843658,0.1,0.0,-0.0815319418907
1503329572555713409,0.00670893859863,0.0527345174154,0.102017641068,0.1,0.0,-0.0777053236961
1503329572583783244,0.00580676269531,0.0527005411784,0.101836740971,0.1,0.0,-0.0753187537193
1503329572688664471,0.00140310414632,0.0529969482422,0.104405105114,0.1,0.0,-0.0718678236008
1503329572700398993,-0.000585620244344,0.0541625976562,0.105329245329,0.1,0.0,-0.0708176493645
1503329572734166350,-0.00307048829397,0.0555525665283,0.102137297392,0.1,0.0,-0.0660003423691
1503329572778275306,-0.00409816233317,0.0566831665039,0.103586003184,0.1,0.0,-0.0645773410797
1503329572839571964,-0.00605918757121,0.0584412384033,0.108981356025,0.1,0.0,-0.0522217750549
1503329572870995102,-0.00615188725789,0.0606332651774,0.097695864737,0.1,0.0,-0.0517802238464
1503329572942013111,-0.00946111679077,0.0602537740072,0.104130893946,0.1,0.0,-0.0570721626282
1503329572977264103,-0.0121587053935,0.0620936787923,0.0980055183172,0.1,0.0,-0.0555396080017
1503329573038315725,-0.0146485354106,0.0639084218343,0.0999699831009,0.1,0.0,-0.0518046617508
1503329573066024218,-0.0158601430257,0.0652022806803,0.0990102291107,0.1,0.0,-0.0498138666153
1503329577696844457,-0.0245419540405,0.0506734619141,0.0638140439987,0.1,0.0,0.064292371273
1503329577726240104,-0.0228054733276,0.0453756815592,0.0570927858353,0.1,0.0,0.0641050934792
1503329577774062937,-0.0216976928711,0.0425189081828,0.0544447898865,0.1,0.0,0.0645265877247
1503329577840608393,-0.0203852411906,0.039324663798,0.0533613562584,0.1,0.0,0.0663078725338
1503329577866146385,-0.0188610051473,0.0380790354411,0.0482133030891,0.1,0.0,0.0666199326515
1503329577923889485,-0.0167661552429,0.0336972885132,0.0344948768616,0.1,0.0,0.0662243366241
1503329577966109294,-0.0151136716207,0.0319321772257,0.0286567807198,0.1,0.0,0.068108022213
1503329578014617610,-0.013094048818,0.0265529505412,0.0199383497238,0.1,0.0,0.0679406523705
1503329578058118152,-0.0115116360982,0.024296661377,0.0139475166798,0.1,0.0,0.0670929253101
1503329578118240975,-0.00791062990824,0.017773302714,-0.00473390519619,0.1,0.0,0.0685031116009
1503329578148940371,-0.00582091522217,0.0142582219442,-0.00460349023342,0.1,0.0,0.0658696293831
1503329578212274636,-0.00126172931989,0.00692768859863,-0.0325246341527,0.1,0.0,0.062820777297
1503329578263382567,0.000961128950119,0.00312276013692,-0.0329134762287,0.1,0.0,0.0612660497427
1503329578316767869,0.00705367088318,-0.00688238970439,-0.0394325554371,0.1,0.0,0.0643850564957
1503329578363129640,0.00851701291402,-0.0115996996562,-0.0350157767534,0.1,0.0,0.0651980414987
1503329578409771379,0.01290234375,-0.0214844614665,-0.01895034872,0.1,0.0,0.0656263828278
1503329578450289094,0.0151150957743,-0.0247906621297,-0.0104969833046,0.1,0.0,0.0667739808559
1503329578513094701,0.0200271441142,-0.032594909668,-0.0103815868497,0.1,0.0,0.0665956139565
1503329578538863278,0.0230720443726,-0.0356597824097,-0.0155643820763,0.1,0.0,0.0657356828451
1503329578617347341,0.0264653422038,-0.0422410329183,-0.000451967120171,0.1,0.0,0.0676139891148
1503329578653419188,0.0287665227254,-0.0447785644531,0.00381249189377,0.1,0.0,0.0670762956142
1503329578722279370,0.0326158599854,-0.0507865854899,-0.00280964374542,0.1,0.0,0.0688120722771
1503329578753890312,0.0346554463704,-0.0529664154053,0.0163757801056,0.1,0.0,0.067086815834
1503329578813993954,0.0374123713175,-0.0607823435465,0.0182522833347,0.1,0.0,0.0687268674374
1503329578841169840,0.0372052307129,-0.0625017801921,0.0361098051071,0.1,0.0,0.0694146156311
1503329578906608509,0.0419823964437,-0.0683238220215,0.0127527713776,0.1,0.0,0.0662170052528
1503329578932865536,0.0427157745361,-0.0717847290039,0.0109503269196,0.1,0.0,0.0668609440327
1503329585674543865,0.0591045939128,0.0616959737142,0.013524055481,0.1,0.0,-0.0535577982664
1503329585691102771,0.0611838378906,0.061690032959,-0.00699687004089,0.1,0.0,-0.0499806851149
1503329585734198987,0.0609001668294,0.058493830363,-0.0165987014771,0.1,0.0,-0.0501380413771
1503329585779880258,0.0597831420898,0.0576660207113,-0.00339388847351,0.1,0.0,-0.0547830909491
1503329585840924663,0.060142171224,0.0553976491292,-0.0237669944763,0.1,0.0,-0.0517089813948
1503329585893635315,0.0583276570638,0.0527248942057,-0.0115795135498,0.1,0.0,-0.0565133243799
1503329585944123017,0.0588958333333,0.0510810852051,-0.0257701873779,0.1,0.0,-0.0519768297672
1503329585974824031,0.0607604166667,0.0511972249349,-0.0497615337372,0.1,0.0,-0.0429425835609
1503329586034831612,0.0603092244466,0.0525360921224,-0.0618216991425,0.1,0.0,-0.0385567992926
1503329586079985033,0.0584180501302,0.0529206746419,-0.0400016307831,0.1,0.0,-0.0436802208424
1503329586141851537,0.0543712565104,0.0559541015625,0.00107955932617,0.1,0.0,-0.0479326099157
1503329586169954320,0.0565909627279,0.0577503000895,-0.0240752696991,0.1,0.0,-0.0386051684618
1503329586234693077,0.0553998006185,0.0583295288086,0.000303506851196,0.1,0.0,-0.0364964306355
1503329586280194132,0.0564297078451,0.0593815917969,-0.0233602523804,0.1,0.0,-0.031956538558
1503329586343882657,0.053548828125,0.0618788299561,-0.0012834072113,0.1,0.0,-0.0330296754837
1503329586366445639,0.054091990153,0.0638796539307,-0.0225820541382,0.1,0.0,-0.0316177159548
1503329586443444974,0.0514831542969,0.063422358195,-0.0158371925354,0.1,0.0,-0.0306212007999
1503329586475247072,0.0518928629557,0.0639044443766,-0.0164229869843,0.1,0.0,-0.0277353525162
1503329586532187476,0.0511358439128,0.0653592173258,-0.0214569568634,0.1,0.0,-0.0269593596458
1503329586566447496,0.0503003641764,0.0660532531738,-0.0229425430298,0.1,0.0,-0.0285042226315
1503329586623411717,0.0488681437174,0.0663682912191,-0.00871467590332,0.1,0.0,-0.0313459038734
1503329586656604646,0.0481735127767,0.0669742075602,-0.0145280361176,0.1,0.0,-0.0276929438114
1503329586736207510,0.0480041910807,0.0666331837972,-0.00695180892944,0.1,0.0,-0.0300088524818
1503329586760331272,0.046612894694,0.0660573679606,-0.00314021110535,0.1,0.0,-0.0300915241241
1503329586823179092,0.0456774800618,0.0659275614421,-0.00655937194824,0.1,0.0,-0.0295886099339
1503329586865737172,0.0457372436523,0.0670384216309,-0.0257558822632,0.1,0.0,-0.0312271416187
1503329586926044289,0.0432293497721,0.0627357076009,-0.0178285837173,0.1,0.0,-0.028392791748
1503329586956875125,0.0417142842611,0.0611529642741,-0.0292141437531,0.1,0.0,-0.0324068367481
1503329587015271507,0.0374013671875,0.0582417195638,-0.0106691122055,0.1,0.0,-0.0348560214043
1503329587044855976,0.0364128367106,0.0571036224365,-0.0192105770111,0.1,0.0,-0.0324009358883
1503329587125619016,0.0336541137695,0.0557751719157,-0.0312931537628,0.1,0.0,-0.0300425291061
1503329587169111850,0.0316736806234,0.0536785176595,-0.0209910869598,0.1,0.0,-0.0357413589954
1503329587215337128,0.0316125946045,0.0513201243083,-0.0512579679489,0.1,0.0,-0.0317722856998
1503329587256741245,0.029794670105,0.0487798156738,-0.0509395599365,0.1,0.0,-0.029951274395
1503329587315898287,0.0287422993978,0.0440815327962,-0.0304861068726,0.1,0.0,-0.033096909523
1503329587349129657,0.0281230341593,0.0426202494303,-0.0214613676071,0.1,0.0,-0.0358625352383
1503329587407368445,0.0261114044189,0.0408908945719,-0.027978181839,0.1,0.0,-0.0323087871075
1503329587453849236,0.0234056854248,0.0398082605998,-0.0224586129189,0.1,0.0,-0.0359199941158
1503329587512880599,0.0190487060547,0.0389018147786,-0.0135675668716,0.1,0.0,-0.0319884419441
1503329587542557079,0.0180311304728,0.039079981486,-0.0138713717461,0.1,0.0,-0.0291213095188
1503329587608006811,0.0142961222331,0.038119354248,-0.00711393356323,0.1,0.0,-0.0233321487904
1503329587652313359,0.0130144615173,0.0387606201172,-0.00786262750626,0.1,0.0,-0.0260512828827
1503329587712450941,0.0087104549408,0.0387551345825,-0.0145927071571,0.1,0.0,-0.0306016206741
1503329587740501374,0.00719373321533,0.0380605723063,0.0040947496891,0.1,0.0,-0.027025103569
1503329587800013616,0.00279011885325,0.0366356328328,0.00423640012741,0.1,0.0,-0.0288632512093
1503329587833037911,0.000210019429525,0.0368158874512,0.00959233939648,0.1,0.0,-0.0290508270264
1503329587905519858,-0.0035972665151,0.0366999053955,1.89989805222e-07,0.1,0.0,-0.0333136320114
1503329587940951113,-0.00488106091817,0.0365449269613,-0.00311482697725,0.1,0.0,-0.0325437188148
1503329587995737480,-0.0103692499797,0.0382518488566,-0.00932055711746,0.1,0.0,-0.0342203974724
1503329588024266381,-0.0128989448547,0.0378798472087,-0.00994876027107,0.1,0.0,-0.0352728962898
1503329588103970883,-0.0156535161336,0.0378201319377,0.00116515159607,0.1,0.0,-0.0386859178543
1503329588133058191,-0.0190952924093,0.0383476231893,-0.0107592940331,0.1,0.0,-0.0400932431221
1503329588196340267,-0.0236412200928,0.037085357666,-0.00136160850525,0.1,0.0,-0.0410578250885
1503329588223109376,-0.0258018747965,0.0375566355387,0.0024134516716,0.1,0.0,-0.0418576300144
1503329588297017498,-0.0317755559285,0.0374238484701,-0.00317561626434,0.1,0.0,-0.050585091114
1503329588335681811,-0.0334684804281,0.0368660710653,-0.0119240283966,0.1,0.0,-0.0525221526623
1503329588390212255,-0.0382533823649,0.0362894337972,-0.0102424621582,0.1,0.0,-0.0552292466164
1503329588418710323,-0.0402838490804,0.0356165669759,0.00866782665253,0.1,0.0,-0.0546882152557
1503329588478609246,-0.0447890523275,0.0377061665853,-0.00239944458008,0.1,0.0,-0.0607008934021
1503329588510155084,-0.0465342712402,0.0367790018717,0.0101102590561,0.1,0.0,-0.0614753365517
1503329588583396492,-0.0494238179525,0.036425664266,0.00074291229248,0.1,0.0,-0.0628744512796
1503329588633785503,-0.0521582234701,0.0347057240804,-0.00345325469971,0.1,0.0,-0.0709453523159
1503329588675594773,-0.0520685628255,0.03245556132,0.0157289505005,0.1,0.0,-0.0689951479435
1503329588737518877,-0.0529310709635,0.0300834986369,0.000704050064087,0.1,0.0,-0.07387393713
1503329588780904340,-0.0544884338379,0.0293626759847,0.0067298412323,0.1,0.0,-0.0758676230907
1503329588810903532,-0.0477180684408,0.0210107676188,0.00656986236572,0.1,0.0,-0.10208016634
1503329588881749922,-0.0572722371419,0.0277139078776,0.003338098526,0.1,0.0,-0.0817627310753
1503329588901065927,-0.0588762003581,0.0254340311686,-0.00477504730225,0.1,0.0,-0.0928756594658
1503329590630461624,-0.0422723185221,-0.117076883952,-0.00298321247101,0.1,0.0,-0.0627543926239
1503329590642670219,-0.0364679972331,-0.120528208415,-0.00153851509094,0.1,0.0,-0.0558252334595
1503329590724910012,-0.03378125,-0.124113972982,-0.00610768795013,0.1,0.0,-0.0581543445587
1503329590740333746,-0.0284555765788,-0.126495768229,-0.00374174118042,0.1,0.0,-0.0553117990494
1503329590776940951,-0.0269201507568,-0.126851216634,0.0028378367424,0.1,0.0,-0.0503665208817
1503329592465541364,0.0397731170654,-0.0851046346029,0.0584862232208,0.1,0.0,-0.0295387506485
1503329592493617477,0.0423823394775,-0.0787469126383,0.0726501941681,0.1,0.0,-0.0240179300308
1503329592540152681,0.043696492513,-0.076125386556,0.0788460373878,0.1,0.0,-0.0233935117722
1503329597056176030,0.0601822814941,0.0929246724447,-0.00119721889496,0.1,0.0,0.0637341737747
1503329597066617898,0.0592474161784,0.0868942565918,-0.00394463539124,0.1,0.0,0.0614167451859
1503329597091646417,0.0577704671224,0.0804895935059,-0.00381505489349,0.1,0.0,0.0603320002556
1503329597120657391,0.0553939615885,0.0768490804036,-0.000149846076965,0.1,0.0,0.0619996786118
1503329597203026464,0.050744934082,0.0694402313232,0.0132319927216,0.1,0.0,0.0616977214813
1503329597230355808,0.0495870056152,0.0666029612223,-0.000722646713257,0.1,0.0,0.0632372498512
1503329597288495857,0.0493883666992,0.0625237833659,-0.0393414497375,0.1,0.0,0.0660181641579
1503329597321400839,0.0446897277832,0.0564335581462,-0.00731062889099,0.1,0.0,0.0616353154182
1503329597396230733,0.0413542480469,0.0507736104329,-0.0378905534744,0.1,0.0,0.0656850636005
1503329597431019693,0.0383965861003,0.0475668741862,-0.0413353443146,0.1,0.0,0.0630322694778
1503329597483126539,0.0336242548625,0.038942199707,-0.032798409462,0.1,0.0,0.0662973225117
1503329597515715905,0.0315946935018,0.0361242930094,-0.0480495691299,0.1,0.0,0.0640526115894
1503329597577148976,0.0257053731283,0.0290978062948,-0.061917245388,0.1,0.0,0.0630576759577
1503329597622898135,0.0242930806478,0.0259978993734,-0.08337444067,0.1,0.0,0.063382551074
1503329597684755640,0.0159320462545,0.0183809839884,-0.0888529419899,0.1,0.0,0.0644987374544
1503329597710915937,0.00862704849243,0.013687189738,-0.106820002198,0.1,0.0,0.0740571767092
1503329597784486791,-0.000740033467611,0.00720058377584,-0.143625274301,0.1,0.0,0.0754457488656
1503329597815623527,-0.00553429603577,0.00417497126261,-0.137990877032,0.1,0.0,0.0830514281988
1503329597878741083,-0.012263053894,-0.00104439433416,-0.134748890996,0.1,0.0,0.0790631473064
1503329597908619252,-0.0130329602559,-0.00487006251017,-0.133034557104,0.1,0.0,0.0683569386601
1503329597965081830,-0.0180171674093,-0.0112147903442,-0.129544705153,0.1,0.0,0.0653790831566
1503329598048767372,-0.0197971127828,-0.0143010826111,-0.113451123238,0.1,0.0,0.0649903267622
1503329598076338798,-0.022132136027,-0.0201372795105,-0.085990048945,0.1,0.0,0.0647353976965
1503329598100886596,-0.0241154581706,-0.023544128418,-0.0831134095788,0.1,0.0,0.0574312508106
1503329598178509691,-0.0271671346029,-0.0286470362345,-0.0723275393248,0.1,0.0,0.0586926937103
1503329598205200648,-0.0276518147786,-0.0308607025146,-0.0580029040575,0.1,0.0,0.04894977808
1503329598266840001,-0.0317836507161,-0.034476755778,-0.058913692832,0.1,0.0,0.0558768808842
1503329598296208533,-0.0338182067871,-0.0372412770589,-0.0643374025822,0.1,0.0,0.0529879033566
1503329598356731065,-0.0345300750732,-0.0408025156657,-0.0360298454762,0.1,0.0,0.0468131899834
1503329598407162313,-0.0366563822428,-0.0426648890177,-0.0516175925732,0.1,0.0,0.0510272085667
1503329598464031595,-0.0387136535645,-0.0479719289144,-0.0365856587887,0.1,0.0,0.0485278367996
1503329598494191146,-0.0387871348063,-0.0495626780192,-0.0182943642139,0.1,0.0,0.0452961027622
1503329598554434568,-0.0440640258789,-0.0550589192708,-0.0425290465355,0.1,0.0,0.0466969609261
1503329598600088502,-0.0455570017497,-0.0580181833903,-0.0445086956024,0.1,0.0,0.0476874709129
1503329598661660691,-0.0475753936768,-0.061081258138,-0.0322278738022,0.1,0.0,0.0414977073669
1503329598692927626,-0.0487924906413,-0.0625994517008,-0.0308262109756,0.1,0.0,0.041534781456
1503329598780847717,-0.0492112223307,-0.0652569783529,-0.00812441110611,0.1,0.0,0.0353635549545
1503329598812151563,-0.0501677093506,-0.0658869374593,-0.00644236803055,0.1,0.0,0.0359889268875
1503329598857593367,-0.0517382507324,-0.0694985453288,-0.013017475605,0.1,0.0,0.0331327319145
1503329598902539430,-0.0515453643799,-0.0685216878255,-0.00822919607162,0.1,0.0,0.0309876203537
1503329598961357804,-0.053736618042,-0.0715292561849,-0.0255227088928,0.1,0.0,0.0341089367867
1503329598978467116,-0.0516251525879,-0.0707856445312,-0.00470107793808,0.1,0.0,0.0320208668709
1503329599037928463,-0.0534575195312,-0.0755812479655,-0.038115799427,0.1,0.0,0.0330131053925
1503329599085932221,-0.0529072418213,-0.0769787902832,-0.0393202900887,0.1,0.0,0.0354756116867
1503329599142908728,-0.0519080149333,-0.0782410024007,-0.0222274661064,0.1,0.0,0.0312142372131
1503329599190402944,-0.0494433695475,-0.077265335083,-0.00422912836075,0.1,0.0,0.0290022492409
1503329599252662562,-0.0486269785563,-0.0776185099284,0.00140643119812,0.1,0.0,0.0270231962204
1503329599278581491,-0.0496114908854,-0.0789289347331,-0.0109457969666,0.1,0.0,0.0259566307068
1503329599338111244,-0.0490255381266,-0.0787153625488,-0.0208923816681,0.1,0.0,0.0298188328743
1503329599389020823,-0.0481970316569,-0.0765190531413,-0.00363582372665,0.1,0.0,0.0285690426826
1503329599444281663,-0.0464667561849,-0.0766718546549,-0.0130748748779,0.1,0.0,0.0272263884544
1503329599474842102,-0.0451318664551,-0.074504099528,0.00338089466095,0.1,0.0,0.0269314050674
1503329599536956135,-0.0450027923584,-0.0751735229492,-0.00955510139465,0.1,0.0,0.0283023715019
1503329599566002671,-0.0443290303548,-0.0751430155436,-0.00676667690277,0.1,0.0,0.0263239145279
1503329599645307208,-0.0429053395589,-0.0738786722819,-0.00666922330856,0.1,0.0,0.0301818847656
1503329599673057115,-0.0404709218343,-0.0733417409261,-0.0017945766449,0.1,0.0,0.025591313839
1503329599735686812,-0.0387539723714,-0.0706707255046,-0.00841277837753,0.1,0.0,0.0311132669449
1503329599805665393,-0.0387046356201,-0.0697456665039,-0.0124528408051,0.1,0.0,0.0340883731842
1503329599879814826,-0.0360500742594,-0.0634295043945,-0.0109450817108,0.1,0.0,0.0342797040939
1503329599912914026,-0.0340763931274,-0.0615598958333,-0.0115020573139,0.1,0.0,0.036085486412
1503329599956491566,-0.0285110702515,-0.0584809773763,4.15742397308e-05,0.1,0.0,0.0347676873207
1503329599984910798,-0.0281226857503,-0.0585191802979,0.000396102666855,0.1,0.0,0.0362930893898
1503329600063642484,-0.0246960652669,-0.0553727213542,-0.005833953619,0.1,0.0,0.0345867872238
1503329600108970106,-0.0229674886068,-0.0543861643473,-0.00444677472115,0.1,0.0,0.0319633483887
1503329600152753450,-0.0194503339132,-0.0519161071777,-0.00299151241779,0.1,0.0,0.0352001786232
1503329600198337287,-0.017656993866,-0.0519176991781,-0.00521868467331,0.1,0.0,0.0326926708221
1503329600244799630,-0.0152689755758,-0.0489169667562,-0.00329566001892,0.1,0.0,0.0375425219536
1503329600294512728,-0.0139856491089,-0.0480778554281,-0.00554221868515,0.1,0.0,0.0416023135185
1503329600350299522,-0.0114027964274,-0.0448188730876,-0.00549039244652,0.1,0.0,0.0408360362053
1503329600395749379,-0.00982479286194,-0.0428424173991,-0.0135138332844,0.1,0.0,0.0403606891632
1503329600459724853,-0.00765753936768,-0.0400730361938,-0.00984478741884,0.1,0.0,0.0410686731339
1503329600485679040,-0.00642864545186,-0.0380646514893,-0.00870858319104,0.1,0.0,0.0400079488754
1503329600545524338,-0.0029566783905,-0.0346028086344,-0.0133821545169,0.1,0.0,0.0430791378021
1503329600574726735,-0.00149866994222,-0.0331665293376,-0.015796629712,0.1,0.0,0.0437786877155
1503329600655569344,0.00131201267242,-0.0297143910726,-0.0231038071215,0.1,0.0,0.0471758246422
1503329600680204355,0.00233701674143,-0.027964302063,-0.0237437263131,0.1,0.0,0.0490261018276
1503329600742549934,0.00459254201253,-0.0243814214071,-0.0274144075811,0.1,0.0,0.0530406534672
1503329600786964039,0.0065430132548,-0.0209643999736,-0.0377438515425,0.1,0.0,0.0551919341087
1503329600854315969,0.00983682060242,-0.0174984423319,-0.0473638176918,0.1,0.0,0.0596262514591
1503329600877172060,0.0119387880961,-0.0147707773844,-0.0550768524408,0.1,0.0,0.0581861138344
1503329600945320668,0.0155447247823,-0.0111453577677,-0.0579150244594,0.1,0.0,0.0573229044676
1503329600981453715,0.0174502881368,-0.00851696523031,-0.0503329783678,0.1,0.0,0.0551102310419
1503329601044848679,0.020404867808,-0.00297781880697,-0.042940735817,0.1,0.0,0.0509544983506
1503329601077557431,0.0224271036784,-0.00153978157043,-0.044219493866,0.1,0.0,0.0583155937493
1503329601151090674,0.0248429819743,0.00159199587504,-0.047614723444,0.1,0.0,0.058436833322
1503329601181242112,0.0256517079671,0.00302978960673,-0.0371244102716,0.1,0.0,0.0598821491003
1503329601240030586,0.0286023483276,0.00824327468872,-0.0432737022638,0.1,0.0,0.0611320734024
1503329601271805319,0.0300392405192,0.0111836535136,-0.0409049987793,0.1,0.0,0.0511724352837
1503329601335687370,0.0306182912191,0.0167256228129,-0.0150710344315,0.1,0.0,0.0457361340523
1503329601358588505,0.0314102376302,0.0192757441203,-0.0180433988571,0.1,0.0,0.0508083850145
1503329601437854544,0.0332026163737,0.0233189951579,0.00140154361725,0.1,0.0,0.0463189333677
1503329601463276585,0.034382425944,0.0250386962891,0.00132870674133,0.1,0.0,0.0481065511703
1503329601523597975,0.0354750569661,0.0277499135335,0.0242434740067,0.1,0.0,0.0442767888308
1503329601554885742,0.0360563354492,0.0289900156657,0.0214841365814,0.1,0.0,0.0457198470831
1503329601615099847,0.0373057963053,0.0306159667969,0.0327061414719,0.1,0.0,0.0449877530336
1503329601660397957,0.0385055389404,0.0312020645142,0.0419050455093,0.1,0.0,0.0423252135515
1503329601720923273,0.0405344238281,0.0342241338094,0.0446379184723,0.1,0.0,0.0434104949236
1503329601751269333,0.0408632507324,0.035009244283,0.053303360939,0.1,0.0,0.0423641949892
1503329601825733167,0.0423839823405,0.0359943618774,0.0577204227448,0.1,0.0,0.0414580404758
1503329601877358980,0.0436335754395,0.0375889485677,0.0409315824509,0.1,0.0,0.0437627583742
1503329601917572537,0.0460328369141,0.0400706481934,0.0532652139664,0.1,0.0,0.0452116578817
1503329601954175897,0.0472386779785,0.0408305053711,0.0505028963089,0.1,0.0,0.0454338639975
1503329602025909226,0.049323059082,0.0435365346273,0.0494756698608,0.1,0.0,0.0446500480175
1503329602053870162,0.0497034708659,0.0434327494303,0.0489075183868,0.1,0.0,0.0477394461632
1503329602117273707,0.0521805419922,0.0453247070313,0.0534274578094,0.1,0.0,0.0459480136633
1503329602212192995,0.0538980102539,0.0466864980062,0.0544173717499,0.1,0.0,0.0455517321825
1503329606538888228,0.0795092264811,-0.0464872792562,-0.225296854973,0.1,0.0,0.0609820485115
1503329606553190966,0.0792546386719,-0.0476081899007,-0.23058719933,0.1,0.0,0.059084713459
1503329606773390912,0.0738230031331,-0.0406265563965,-0.206891983747,0.1,0.0,0.0544747710228
1503329606802612340,0.0715579325358,-0.0410073547363,-0.203622370958,0.1,0.0,0.0572412014008
1503329606835926589,0.0706795247396,-0.0406703135173,-0.214807510376,0.1,0.0,0.0531992316246
1503329606934192298,0.0472313130697,-0.0374368845622,0.0360508263111,0.1,0.0,0.154614269733
1503329606949947981,0.066308380127,-0.038485361735,-0.189653977752,0.1,0.0,0.0619313120842
1503329607016193600,0.063967010498,-0.0332404607137,-0.199097454548,0.1,0.0,0.0385602116585
1503329607029477215,0.0610579325358,-0.0331806411743,-0.189144462347,0.1,0.0,0.0381478071213
1503329607107308583,0.0592321065267,-0.0322823359172,-0.190520271659,0.1,0.0,0.0383315682411
1503329607137788139,0.0571939137777,-0.0306019846598,-0.172960013151,0.1,0.0,0.0330521464348
1503329607201250671,0.0543622283936,-0.029825146993,-0.169979214668,0.1,0.0,0.0417239367962
1503329607223397380,0.052474995931,-0.0282828343709,-0.161919131875,0.1,0.0,0.0370700359344
1503329607326869187,0.0487542368571,-0.0264804204305,-0.15185110271,0.1,0.0,0.0372626781464
1503329607339111880,0.0472509155273,-0.0257172495524,-0.145445391536,0.1,0.0,0.034771412611
1503329607394813936,0.0447570699056,-0.0227701416016,-0.141697794199,0.1,0.0,0.0288173556328
1503329607438216727,0.0418399734497,-0.022014986674,-0.118115663528,0.1,0.0,0.0354020595551
1503329607500150909,0.0393348490397,-0.0186332219442,-0.117010161281,0.1,0.0,0.0224555134773
1503329607527735225,0.0377259165446,-0.0184131698608,-0.105709813535,0.1,0.0,0.0278371870518
1503329607588549124,0.035007212321,-0.0164666048686,-0.109497793019,0.1,0.0,0.025122076273
1503329607633109881,0.0341175969442,-0.0158844057719,-0.101035758853,0.1,0.0,0.0251721143723
1503329607696397884,0.0331870371501,-0.0130223414103,-0.0883329361677,0.1,0.0,0.018389582634
1503329607746927392,0.0323679631551,-0.0126844952901,-0.0836686044931,0.1,0.0,0.0130910128355
1503329607795295461,0.0314605840047,-0.0121649602254,-0.0859982669353,0.1,0.0,0.0111769288778
1503329607840747514,0.0304068145752,-0.0103576018016,-0.0697065293789,0.1,0.0,0.00596898794174
1503329607890532373,0.0283261413574,-0.00881811650594,-0.0628355145454,0.1,0.0,0.00299024581909
1503329607929067526,0.0287165629069,-0.00923382695516,-0.0677315890789,0.1,0.0,-0.00245885550976
1503329607982639850,0.0269049428304,-0.00746500396729,-0.0588551163673,0.1,0.0,-0.00460809469223
1503329608018212902,0.0251211624146,-0.00592949930827,-0.0391966402531,0.1,0.0,-0.00494001805782
1503329608086187335,0.0244389470418,-0.00257435099284,-0.035224661231,0.1,0.0,-0.0149961411953
1503329608118047728,0.0237836303711,-0.00247723197937,-0.0411226153374,0.1,0.0,-0.0131514780223
1503329608186004836,0.0223151550293,-0.00212300364176,-0.0308506339788,0.1,0.0,-0.0128164738417
1503329608212367943,0.0213394012451,-0.00148236338298,-0.028486520052,0.1,0.0,-0.025446690619
1503329608282770017,0.0196578216553,-0.00113842455546,-0.0312736481428,0.1,0.0,-0.0214337520301
1503329608316616670,0.018140218099,-0.000314722061157,-0.0207299888134,0.1,0.0,-0.0289154797792
1503329608373722149,0.0169798253377,0.00216806666056,-0.0216590762138,0.1,0.0,-0.0270028114319
1503329608400456893,0.0166852073669,0.00371384588877,-0.0222982242703,0.1,0.0,-0.0290681123734
1503329608484638983,0.0146488494873,0.00405932648977,-0.0204800218344,0.1,0.0,-0.0363771021366
1503329608508293205,0.0150578740438,0.00457312488556,-0.0210942700505,0.1,0.0,-0.0379709601402
1503329608571666012,0.0147006823222,0.00543709945679,-0.0140292495489,0.1,0.0,-0.0389802828431
1503329608595539013,0.0150092595418,0.00515027332306,-0.0134167745709,0.1,0.0,-0.0397020727396
1503329608658869919,0.0146812464396,0.00556765238444,-0.011511258781,0.1,0.0,-0.0478424541652
1503329608709717088,0.0152539469401,0.0058705889384,-0.0138358920813,0.1,0.0,-0.0465324148536
1503329608773440645,0.0145026257833,0.00435490099589,-0.0128646865487,0.1,0.0,-0.0548981502652
1503329608825424367,0.0128592834473,0.00435525576274,-0.0121501460671,0.1,0.0,-0.0595364533365
1503329608872194413,0.012192952474,-0.000691659927368,-0.0164211951196,0.1,0.0,-0.0604301169515
1503329608899779530,0.0124079284668,-0.000943826357524,-0.0157383978367,0.1,0.0,-0.0588354542851
1503329608962292337,0.0113874320984,-0.00430778948466,-0.0246902573854,0.1,0.0,-0.0660038366914
1503329608990854719,0.0108772608439,-0.00690155601501,-0.0207614656538,0.1,0.0,-0.0628104358912
1503329609055283902,0.0110478006999,-0.0100699799856,-0.00985757820308,0.1,0.0,-0.0709324702621
1503329609082075898,0.0109517211914,-0.0116482594808,-0.000225264579058,0.1,0.0,-0.0710524246097
1503329609145575423,0.0123229522705,-0.0147941436768,0.00283724628389,0.1,0.0,-0.0777237415314
1503329609207056733,0.0123797327677,-0.0162265230815,0.0128390211612,0.1,0.0,-0.0779236257076
1503329609251552930,0.0135825246175,-0.0196655464172,-0.00842878222466,0.1,0.0,-0.0848515629768
1503329609298187948,0.0141053581238,-0.0201145235697,0.00437599420547,0.1,0.0,-0.082700997591
1503329609340927354,0.0151166852315,-0.0244881896973,0.0134417191148,0.1,0.0,-0.0854118168354
1503329609394222739,0.0151850840251,-0.0253326746623,0.00846016407013,0.1,0.0,-0.0880938470364
1503329609446383064,0.0163188832601,-0.0300185190837,0.0117764919996,0.1,0.0,-0.0901806056499
1503329609472767300,0.0158164342244,-0.0315122655233,0.00985208898783,0.1,0.0,-0.0920024812222
1503329609557087632,0.0159374580383,-0.0359123967489,-0.00273083895445,0.1,0.0,-0.0915732979774
1503329609599688949,0.0158238169352,-0.0370216344198,0.00908297300339,0.1,0.0,-0.0911949276924
1503329609640490707,0.0173682924906,-0.0411932398478,-0.00436264276505,0.1,0.0,-0.097241461277
1503329609671353191,0.0177179514567,-0.0428632253011,-0.00265042483807,0.1,0.0,-0.0944019556046
1503329609736136589,0.0166533927917,-0.044765935262,0.00255623459816,0.1,0.0,-0.0904182195663
1503329609777002493,0.0162813542684,-0.0459270477295,-0.00661055743694,0.1,0.0,-0.0867382884026
1503329609854141911,0.0167019996643,-0.0482670542399,0.00299432873726,0.1,0.0,-0.087019264698
1503329609866939407,0.0172738990784,-0.050180943807,-0.0025527626276,0.1,0.0,-0.0893021225929
1503329610005919691,0.0177484944661,-0.0527737986247,0.00880220532417,0.1,0.0,-0.0833275914192
1503329610019304525,0.0166566251119,-0.0538164265951,0.00984807312489,0.1,0.0,-0.0807445049286
1503329610081634159,0.0132094624837,-0.0593627726237,0.00180076062679,0.1,0.0,-0.0842776298523
1503329610111133244,0.0108352305094,-0.0600092417399,0.0135173685849,0.1,0.0,-0.0819417238235
1503329610169620721,0.00904059410095,-0.0627227834066,0.00602119741961,0.1,0.0,-0.0746129155159
1503329610197168285,0.00664892069499,-0.0635490010579,0.00218301825225,0.1,0.0,-0.0791909694672
1503329610257748270,0.00242869170507,-0.0637060089111,-0.00158713012934,0.1,0.0,-0.071704685688
1503329610303357318,0.00157711791992,-0.0645010681152,-0.00994434952736,0.1,0.0,-0.0712221264839
1503329610366699449,-0.00116072146098,-0.0640557556152,0.00717253983021,0.1,0.0,-0.0675076842308
1503329610395810740,-0.00187803204854,-0.0655349324544,0.0039234161377,0.1,0.0,-0.0659362673759
1503329610456112291,-0.00441374460856,-0.0653841349284,0.00779446959496,0.1,0.0,-0.0620100498199
1503329610503712469,-0.00563713391622,-0.0656141153971,0.00449869036674,0.1,0.0,-0.0583556294441
1503329610563136912,-0.00871767934163,-0.0678827514648,-0.00348338484764,0.1,0.0,-0.0530714392662
1503329610592613487,-0.00767572530111,-0.0686240590413,0.000341892242432,0.1,0.0,-0.0588227510452
1503329610653358988,-0.00891445032756,-0.0713860168457,0.000561594963074,0.1,0.0,-0.0575789213181
1503329610697848533,-0.0105258344014,-0.0720394795736,0.00202596187592,0.1,0.0,-0.0515282154083
1503329610757136452,-0.0127221425374,-0.0738730570475,-0.00796476006508,0.1,0.0,-0.054435968399
1503329610786583861,-0.0144833424886,-0.0749036305745,-0.00553569197655,0.1,0.0,-0.0551275014877
1503329610846742375,-0.016704053243,-0.0759020690918,-0.00368374586105,0.1,0.0,-0.0533650517464
1503329610892577426,-0.016903330485,-0.0774545338949,-0.0141558647156,0.1,0.0,-0.0515391230583
1503329610955980354,-0.0181374384562,-0.0779443003337,-0.00133019685745,0.1,0.0,-0.0474932193756
1503329610986760433,-0.018308052063,-0.0778809407552,0.00595682859421,0.1,0.0,-0.0460919737816
1503329611045838874,-0.0203919169108,-0.0812189229329,-0.01164072752,0.1,0.0,-0.0451481342316
1503329611088435551,-0.0212622629801,-0.0810488382975,0.00463575124741,0.1,0.0,-0.0445572137833
1503329611136343021,-0.0218638051351,-0.0825522969564,0.0055860877037,0.1,0.0,-0.0440325737
1503329611181810191,-0.0222517776489,-0.0833385009766,0.00212419033051,0.1,0.0,-0.0424871444702
1503329611244104057,-0.0227225926717,-0.084122853597,0.00830948352814,0.1,0.0,-0.0432518720627
1503329611289065235,-0.0226084238688,-0.0852555948893,0.00260406732559,0.1,0.0,-0.0430665016174
1503329611350949301,-0.0251427307129,-0.0860465901693,-0.00439149141312,0.1,0.0,-0.0441455841064
1503329611377500449,-0.0258486175537,-0.0858715922038,0.0013484954834,0.1,0.0,-0.0434250831604
1503329611445389681,-0.0278243967692,-0.0864077555339,0.00641769170761,0.1,0.0,-0.0425800085068
1503329611482074139,-0.0286357727051,-0.0862353515625,0.00304055213928,0.1,0.0,-0.0414748191833
1503329611547348707,-0.0296279296875,-0.0884779866536,-0.00284934043884,0.1,0.0,-0.0423747301102
1503329611576836481,-0.0313789621989,-0.0892759602865,-0.00147873163223,0.1,0.0,-0.0431219339371
1503329611633853320,-0.0348056793213,-0.0892543538411,0.00454944372177,0.1,0.0,-0.0413646697998
1503329611666107240,-0.0352842051188,-0.0889602762858,0.00280737876892,0.1,0.0,-0.0413825511932
1503329611743775375,-0.0373852742513,-0.0905186055501,0.00426340103149,0.1,0.0,-0.04274559021
1503329611770247938,-0.0383761698405,-0.0911875813802,0.000775218009949,0.1,0.0,-0.0431691408157
1503329611837561182,-0.0393201904297,-0.0923599446615,0.00244009494781,0.1,0.0,-0.0437660217285
1503329611877962301,-0.0402197062174,-0.0921079711914,0.00275492668152,0.1,0.0,-0.0414276123047
1503329611936759412,-0.0411359659831,-0.0928142801921,0.01509141922,0.1,0.0,-0.0435104370117
1503329611964948740,-0.0424084370931,-0.0937923482259,0.00222671031952,0.1,0.0,-0.0405254364014
1503329612024685237,-0.0431149393717,-0.0955250244141,0.00368499755859,0.1,0.0,-0.0446027517319
1503329612069624405,-0.0438900044759,-0.0963821207682,0.0116373300552,0.1,0.0,-0.0472018718719
1503329612137481322,-0.0454465738932,-0.0961691589355,0.0199458599091,0.1,0.0,-0.0457253456116
1503329612177727336,-0.0467949015299,-0.0967404886882,-0.000417947769165,0.1,0.0,-0.0452461838722
1503329612223537183,-0.045711344401,-0.0979910481771,0.00526762008667,0.1,0.0,-0.0468380451202
1503329612265818718,-0.0449792683919,-0.0970497029622,0.0150872468948,0.1,0.0,-0.0473781824112
1503329612313958062,-0.0448186136882,-0.100105021159,0.000545740127563,0.1,0.0,-0.0477278232574
1503329612360942628,-0.0424194234212,-0.100155924479,0.0213712453842,0.1,0.0,-0.0512918233871
1503329612456797937,-0.0413417867025,-0.101818481445,0.0109391212463,0.1,0.0,-0.0534867048264
1503329612474140033,-0.0409674682617,-0.101854197184,0.0184279680252,0.1,0.0,-0.0523142814636
1503329612505989629,-0.0421912943522,-0.105251576742,-0.000529646873474,0.1,0.0,-0.0545057058334
1503329612559116730,-0.0419529724121,-0.105862945557,0.00469768047333,0.1,0.0,-0.056836605072
1503329612613674958,-0.0403551635742,-0.107076741536,0.00488841533661,0.1,0.0,-0.0573961734772
1503329612642607517,-0.0403101298014,-0.107445678711,0.00855159759521,0.1,0.0,-0.05828332901
1503329612704910467,-0.0373875834147,-0.105147776286,0.0192754268646,0.1,0.0,-0.0631028413773
1503329612749073306,-0.0369218648275,-0.104882293701,0.0233992338181,0.1,0.0,-0.0638650655746
1503329612810297875,-0.0369512634277,-0.106593424479,0.0112005472183,0.1,0.0,-0.0615925788879
1503329612841273090,-0.0355458577474,-0.105474395752,0.0150020122528,0.1,0.0,-0.0639431476593
1503329612918432852,-0.0352964579264,-0.105142110189,0.0150310993195,0.1,0.0,-0.0631638765335
1503329612945402966,-0.0350649312337,-0.104383728027,0.0199877023697,0.1,0.0,-0.0661419630051
1503329613007667802,-0.0354718424479,-0.103515675863,0.0177718400955,0.1,0.0,-0.063668012619
1503329613093536802,-0.034310740153,-0.103295003255,0.025160074234,0.1,0.0,-0.0651932954788
1503329613138090741,-0.0350363769531,-0.106554056803,0.0114750862122,0.1,0.0,-0.066247344017
1503329613208130635,-0.0344556681315,-0.105598968506,0.0264971256256,0.1,0.0,-0.0690841674805
1503329613279726368,-0.0330155232747,-0.105038736979,0.0221354961395,0.1,0.0,-0.0653969049454
1503329613350758312,-0.0329055582682,-0.106273101807,0.0139249563217,0.1,0.0,-0.0712659358978
1503329613425572969,-0.0287342936198,-0.105057495117,0.0375010967255,0.1,0.0,-0.0720167160034
1503329613462578136,-0.0250908406576,-0.105560424805,0.0457733273506,0.1,0.0,-0.0748230218887
1503329613509432788,-0.0238909606934,-0.105896982829,0.0477502346039,0.1,0.0,-0.0744768381119
1503329613592927660,-0.0236444498698,-0.106828755697,0.0402928590775,0.1,0.0,-0.0744917392731
1503329613665477134,-0.0216308237712,-0.106227579753,0.0463526248932,0.1,0.0,-0.0765037536621
1503329613680264305,-0.0218834686279,-0.10624005127,0.0473244786263,0.1,0.0,-0.0766575336456
1503329613694465522,-0.0205797983805,-0.110452494303,0.0196830034256,0.1,0.0,-0.0773775577545
1503329613728092731,-0.0198498077393,-0.111085449219,0.0162345170975,0.1,0.0,-0.0773754119873
1503329613773006168,-0.0169444478353,-0.108862284342,0.0426957607269,0.1,0.0,-0.0791389942169
1503329613843692129,-0.0179093577067,-0.111214070638,0.0179191827774,0.1,0.0,-0.0785627365112
1503329613879259026,-0.0146408843994,-0.111429148356,0.0315908789635,0.1,0.0,-0.0822327136993
1503329613935904128,-0.0129648590088,-0.111732666016,0.0273142457008,0.1,0.0,-0.086348772049
1503329613985354585,-0.0125185597738,-0.114173573812,0.0259407162666,0.1,0.0,-0.0884034633636
1503329614014148536,-0.0123497416178,-0.114349578857,0.0261927247047,0.1,0.0,-0.087061882019
1503329614077458458,-0.0110318552653,-0.115104054769,0.0344412326813,0.1,0.0,-0.0896277427673
1503329614119967031,-0.0122398579915,-0.117018208822,0.0248683094978,0.1,0.0,-0.0863909721375
1503329614243721152,-0.0111452840169,-0.12052351888,0.01926445961,0.1,0.0,-0.0963233709335
1503329614314122719,-0.0112075042725,-0.12142960612,0.0135499835014,0.1,0.0,-0.0959914922714
1503329616172075538,-0.00327470143636,-0.0941959635417,-0.00148543715477,0.1,0.0,-0.0578894615173
1503329616185279349,-0.00293128840129,-0.0894679260254,0.00184428691864,0.1,0.0,-0.0574849843979
1503329616253954388,-0.00186758232117,-0.0817473347982,0.00500790774822,0.1,0.0,-0.061544418335
1503329616321743985,-0.00192689959208,-0.0778029886882,0.000110104680061,0.1,0.0,-0.0591111183167
1503329616333262993,-0.0015243396759,-0.0687865804036,0.00230295956135,0.1,0.0,-0.0630851984024
1503329616366390271,-0.00106135654449,-0.0647135721842,0.00120915472507,0.1,0.0,-0.0623826384544
1503329616428668433,-0.000808435440063,-0.0553992360433,-0.00136736035347,0.1,0.0,-0.0639959573746
1503329616472246087,-0.000336536407471,-0.0511069641113,-0.00521975755692,0.1,0.0,-0.0672858953476
1503329616528688745,0.000856131633123,-0.0409793980916,-0.0148454681039,0.1,0.0,-0.0691843032837
1503329616565379517,0.000424915234248,-0.0345584309896,-7.9832971096e-05,0.1,0.0,-0.0702909827232
1503329616610408084,0.000660127162933,-0.0246781921387,-0.0236686207354,0.1,0.0,-0.0705035030842
1503329616655198294,7.12071855863e-05,-0.0202258822123,-0.0247411690652,0.1,0.0,-0.0720707923174
1503329616732233101,-0.000213909725348,-0.0106039237976,-0.0510263666511,0.1,0.0,-0.075042501092
1503329616759729560,-0.000412516673406,-0.00463025919596,-0.0642388984561,0.1,0.0,-0.0737932324409
1503329616805067637,-0.00116347233454,0.00663584454854,-0.0599806234241,0.1,0.0,-0.0712582617998
1503329616849731767,-0.00180488856634,0.0125885747274,-0.0456527285278,0.1,0.0,-0.075172945857
1503329616926010783,-0.00193179623286,0.023649210612,-0.0381657928228,0.1,0.0,-0.0799908041954
1503329616958628663,-0.00198719278971,0.0283373743693,-0.00976576656103,0.1,0.0,-0.074720621109
1503329617003705214,-0.00545220120748,0.0427477315267,0.003193333745,0.1,0.0,-0.0742995738983
1503329617046022188,-0.0059387772878,0.0476605936686,-0.00382531806827,0.1,0.0,-0.0736352801323
1503329617108107071,-0.010805528005,0.0610595092773,-0.0227078869939,0.1,0.0,-0.0772987604141
1503329617152435082,-0.0119205563863,0.0666842600505,-0.025819003582,0.1,0.0,-0.0737664699554
1503329617213271262,-0.0152600377401,0.0770689290365,-0.0150155127048,0.1,0.0,-0.0701217651367
1503329617240689482,-0.0174414532979,0.0833266398112,-0.0241683870554,0.1,0.0,-0.0715442895889
1503329617320996366,-0.0195572052002,0.0905943400065,-0.00779354572296,0.1,0.0,-0.0702066421509
1503329617359062478,-0.0216656316121,0.096670308431,-0.0291506946087,0.1,0.0,-0.073582649231
1503329617410270519,-0.0240429585775,0.103987467448,-0.0379478633404,0.1,0.0,-0.072141289711
1503329617434878145,-0.0250551198324,0.108619059245,-0.0422841608524,0.1,0.0,-0.07177734375
1503329620291661971,-0.00675535964966,0.0583240763346,0.101585894823,0.1,0.0,-0.160920023918
1503329620336675231,-0.00785537338257,0.0539782714844,0.105884760618,0.1,0.0,-0.162440240383
1503329620364148970,-0.00652208836873,0.0525245463053,0.0982023775578,0.1,0.0,-0.162372887135
1503329620441018679,-0.00655906232198,0.0484990437826,0.0878238379955,0.1,0.0,-0.164706885815
1503329620475130535,-0.00641457939148,0.0453756612142,0.0899523645639,0.1,0.0,-0.165802299976
1503329620534400282,-0.00561308288574,0.0405264053345,0.0866810828447,0.1,0.0,-0.164571285248
1503329620580959488,-0.0059466603597,0.0378336893717,0.0733990222216,0.1,0.0,-0.165654718876
1503329620639208994,-0.00490340741475,0.0329636739095,0.0683466717601,0.1,0.0,-0.160880148411
1503329620665867459,-0.00383690961202,0.0305891723633,0.0594413653016,0.1,0.0,-0.159533858299
1503329620728225714,-0.00131353362401,0.0253302815755,0.0388158559799,0.1,0.0,-0.160139679909
1503329620757730667,9.11712646484e-06,0.0215143381755,0.0370640903711,0.1,0.0,-0.159548088908
1503329620837866733,0.00345194562276,0.013981136322,0.0120466500521,0.1,0.0,-0.155665695667
1503329620863003507,0.00424009895325,0.00909639612834,-0.0056111626327,0.1,0.0,-0.155366823077
1503329620948852371,0.00496405506134,-0.00200636100769,-0.033624175936,0.1,0.0,-0.144470334053
1503329620968715985,0.00542879867554,-0.00665258407593,-0.0235953181982,0.1,0.0,-0.144149184227
1503329621033255759,0.00787950197856,-0.0160458310445,-0.0133900083601,0.1,0.0,-0.140660092235
1503329621058734799,0.00859669176737,-0.0210583381653,-0.00292308675125,0.1,0.0,-0.140997424722
1503329621125803564,0.0106705513,-0.0302338511149,0.000292867422104,0.1,0.0,-0.132140547037
1503329621169426163,0.0116107241313,-0.0350233942668,0.000887520611286,0.1,0.0,-0.130657494068
1503329621228949705,0.0140213699341,-0.0446414540609,0.00670835003257,0.1,0.0,-0.12429022789
1503329621258963956,0.0141183687846,-0.0474684295654,0.00617837905884,0.1,0.0,-0.1242634058
1503329621318684345,0.0154491793315,-0.0552458699544,0.00806118920445,0.1,0.0,-0.116534292698
1503329621365180546,0.0164267692566,-0.0587988688151,0.00699092075229,0.1,0.0,-0.114061892033
1503329621425007049,0.0164564387004,-0.0650347290039,0.0135998949409,0.1,0.0,-0.108764529228
1503329621508808232,0.0163446273804,-0.0696060943604,0.00586538203061,0.1,0.0,-0.107627093792
1503329621522147650,0.0165185508728,-0.0777001647949,0.00571975205094,0.1,0.0,-0.105095863342
1503329621564068891,0.0155372861226,-0.079322072347,0.0126355094835,0.1,0.0,-0.103678226471
1503329621616735603,0.0116902809143,-0.0850033416748,0.0276822634041,0.1,0.0,-0.0814847946167
1503329621646628398,0.0119517237345,-0.0872158711751,0.0291121825576,0.1,0.0,-0.0843158960342
1503329621723543921,0.012802444458,-0.092712483724,0.0176262333989,0.1,0.0,-0.0995523929596
1503329621774665070,0.0134582672119,-0.0944481302897,0.0197775512934,0.1,0.0,-0.0832177400589
1503329621796235676,0.014420946757,-0.098036142985,0.0145483464003,0.1,0.0,-0.111301541328
1503329621845708022,0.0150451456706,-0.100618835449,0.0210516601801,0.1,0.0,-0.116041779518
1503329621903786338,0.0153966064453,-0.103218200684,0.0249954015017,0.1,0.0,-0.120404839516
1503329621933862307,0.0156754582723,-0.103739034017,0.0333563238382,0.1,0.0,-0.126392364502
1503329622009637025,0.0161111920675,-0.107067128499,0.0325349867344,0.1,0.0,-0.130958199501
1503329622216562903,7.52894083659e-05,-0.111262156169,0.0182310342789,0.1,0.0,-0.0782136917114
1503329622236762467,0.000131896972656,-0.110132161458,0.0308864712715,0.1,0.0,-0.0790213346481
1503329622298032053,-0.00164714813232,-0.109462056478,0.0297937989235,0.1,0.0,-0.0778896808624
1503329622328067171,-0.00314642333984,-0.109993092855,0.0321252942085,0.1,0.0,-0.0788869857788
1503329622400819604,-0.00692418670654,-0.111472900391,0.014323592186,0.1,0.0,-0.0757719278336
1503329622434549474,-0.00756567382813,-0.110308583577,0.0201771855354,0.1,0.0,-0.0762212276459
1503329622490913535,-0.00996166992187,-0.109641743978,0.0172009468079,0.1,0.0,-0.0745741128922
1503329622520918278,-0.0120224456787,-0.110410827637,0.00217193365097,0.1,0.0,-0.0730724334717
1503329622581590586,-0.0129479319255,-0.107048940023,0.0223701000214,0.1,0.0,-0.0732192993164
1503329622627878821,-0.0138630523682,-0.106853098551,0.0159592032433,0.1,0.0,-0.0734553337097
1503329622691163273,-0.0168677419027,-0.108601765951,0.00296556949615,0.1,0.0,-0.0733312368393
1503329622717457313,-0.018599706014,-0.106264729818,0.0149936079979,0.1,0.0,-0.0700144767761
1503329622778136334,-0.0196731567383,-0.102102935791,0.0386476516724,0.1,0.0,-0.0721192359924
1503329622822469132,-0.0213477579753,-0.103000600179,0.0233863592148,0.1,0.0,-0.0720312595367
1503329622886856018,-0.0238728281657,-0.0991196492513,0.0363926291466,0.1,0.0,-0.069908618927
1503329622919537515,-0.0250256652832,-0.0989452514648,0.0307577848434,0.1,0.0,-0.0707870721817
1503329622975988382,-0.0269289754232,-0.0973468221029,0.0299478769302,0.1,0.0,-0.0690498352051
1503329623005023868,-0.027544418335,-0.0965651855469,0.0294140577316,0.1,0.0,-0.068626999855
1503329623083782789,-0.0291770426432,-0.0960499369303,0.019935965538,0.1,0.0,-0.0682983398438
1503329623111787814,-0.030045715332,-0.094122273763,0.0341418981552,0.1,0.0,-0.0661511421204
1503329623186985805,-0.0322825113932,-0.0942034301758,0.012078166008,0.1,0.0,-0.0664699077606
1503329623216652780,-0.0322491658529,-0.0922186482747,0.0278532505035,0.1,0.0,-0.0649902820587
1503329623260055965,-0.0329785359701,-0.0912109578451,0.0159398317337,0.1,0.0,-0.0633573532104
1503329623306485636,-0.0318056081136,-0.0893848470052,0.0271775722504,0.1,0.0,-0.0636448860168
1503329623366464762,-0.0313961181641,-0.0887471313477,0.0169266462326,0.1,0.0,-0.0628674030304
1503329623398033858,-0.0315900726318,-0.0882223714193,0.0179364681244,0.1,0.0,-0.0603936910629
1503329623476795479,-0.0307702331543,-0.0866551310221,0.0131924152374,0.1,0.0,-0.058764398098
1503329623503779360,-0.0302726338704,-0.0854631958008,0.0228257775307,0.1,0.0,-0.0592651367188
1503329623563447482,-0.0284357248942,-0.0854686279297,0.0110645890236,0.1,0.0,-0.0591533184052
1503329623615838966,-0.0297857157389,-0.086631632487,0.00235188007355,0.1,0.0,-0.0577526092529
1503329623668963764,-0.0286315460205,-0.0841400909424,0.00554442405701,0.1,0.0,-0.0541718006134
1503329623699570922,-0.0265872599284,-0.0826796010335,0.0178316235542,0.1,0.0,-0.0565185546875
1503329623760166875,-0.025324412028,-0.0811201934814,0.0176628828049,0.1,0.0,-0.0555927753448
1503329623793777739,-0.0265926818848,-0.0802512868245,0.00971865653992,0.1,0.0,-0.0511376857758
1503329623853983379,-0.0246985371908,-0.0795848439535,0.00367343425751,0.1,0.0,-0.0519414544106
1503329623914417142,-0.0224957224528,-0.0770638834635,0.0156677365303,0.1,0.0,-0.0512669086456
1503329623958116656,-0.0218546930949,-0.0759716593424,0.0131355524063,0.1,0.0,-0.0508246421814
1503329624004896822,-0.0214526112874,-0.0753838043213,0.00384193658829,0.1,0.0,-0.049283862114
1503329624059090974,-0.0195016911825,-0.074370997111,-0.00461107492447,0.1,0.0,-0.0494620800018
1503329624090383479,-0.0172883529663,-0.07162012736,0.0178220570087,0.1,0.0,-0.0517602562904
1503329624150667701,-0.0156097437541,-0.0686402486165,0.0236918330193,0.1,0.0,-0.0514271259308
1503329624211191238,-0.014413550059,-0.0665711771647,0.0272202193737,0.1,0.0,-0.0495212078094
1503329624257712021,-0.0149647712708,-0.0656457265218,0.019707351923,0.1,0.0,-0.0500403046608
1503329624284627919,-0.0157298609416,-0.0665597991943,-0.00470405817032,0.1,0.0,-0.0456156730652
1503329624351404902,-0.0149139823914,-0.0641330973307,0.00522035360336,0.1,0.0,-0.0476348400116
1503329624375385554,-0.0138422330221,-0.0636623433431,0.0180766880512,0.1,0.0,-0.0466306209564
1503329624455049249,-0.012042292277,-0.0611833902995,0.0192972421646,0.1,0.0,-0.0443263053894
1503329624481239764,-0.0112177429199,-0.0614054616292,0.0158954560757,0.1,0.0,-0.0431231856346
1503329624543140634,-0.0092035853068,-0.0593572031657,-0.00383849442005,0.1,0.0,-0.0398633480072
1503329624586355411,-0.00942234611511,-0.0585905151367,-0.00192184746265,0.1,0.0,-0.0416781306267
1503329624654305432,-0.00786377080282,-0.0553476206462,-0.0104353278875,0.1,0.0,-0.0377485752106
1503329624679134053,-0.00621801503499,-0.0534378509521,0.00259789824486,0.1,0.0,-0.0389292240143
1503329624738139004,-0.00455252329508,-0.0528543599447,-0.00821553170681,0.1,0.0,-0.037321805954
1503329624770558326,-0.00354748153687,-0.0507722524007,0.00922465324402,0.1,0.0,-0.0366525650024
1503329624845497434,-0.00190810362498,-0.0488525085449,-0.00907883048058,0.1,0.0,-0.0359943509102
1503329624876115931,-0.00156296571096,-0.0477084197998,-0.00634970515966,0.1,0.0,-0.0359576940536
1503329624935506097,-0.00108964395523,-0.0435984395345,0.00706662982702,0.1,0.0,-0.0302121639252
1503329624962099656,-0.000541635751724,-0.0428063456217,0.0064904242754,0.1,0.0,-0.0300956368446
1503329625041122179,0.000127862970034,-0.0400293121338,-0.00403007864952,0.1,0.0,-0.0293325781822
1503329625074320942,0.000535113414129,-0.038730178833,-0.00590723659843,0.1,0.0,-0.0283924341202
1503329625136175088,0.000411817630132,-0.03647093455,-0.0195187740028,0.1,0.0,-0.0287662148476
1503329625164166461,0.000726363658905,-0.034898012797,-0.0178417488933,0.1,0.0,-0.0287557840347
1503329625220164143,0.000495027224223,-0.0338277486165,-0.0279150940478,0.1,0.0,-0.0284308493137
1503329625266329429,0.00113998309771,-0.0322819137573,-0.0272865705192,0.1,0.0,-0.0282932221889
1503329625335070787,0.00136179669698,-0.0301871922811,-0.0394093543291,0.1,0.0,-0.0255572199821
1503329625373927357,0.00164201625188,-0.0280941797892,-0.0296093355864,0.1,0.0,-0.0284430682659
1503329625419026648,0.00302474403381,-0.0245790812174,-0.0367948971689,0.1,0.0,-0.0257468819618
1503329625466818345,0.00294059181213,-0.0235588684082,-0.0337371006608,0.1,0.0,-0.0206632614136
1503329625521251232,0.00413770103455,-0.0201375020345,-0.0572653561831,0.1,0.0,-0.0235652923584
1503329625551898956,0.00437906869253,-0.0188080304464,-0.0559396073222,0.1,0.0,-0.0204147398472
1503329625613066460,0.00480905214945,-0.0165876922607,-0.0507297776639,0.1,0.0,-0.0193767994642
1503329625657123852,0.00553015327454,-0.0158004493713,-0.0545268431306,0.1,0.0,-0.0200315415859
1503329625717235158,0.00531297556559,-0.0130770289103,-0.0646228119731,0.1,0.0,-0.0198286473751
1503329625746580552,0.00480620002747,-0.0103854306539,-0.0696684196591,0.1,0.0,-0.0170795619488
1503329625823183230,0.0049603061676,-0.00668654441833,-0.0841849818826,0.1,0.0,-0.0140209682286
1503329625854520180,0.00520254993439,-0.0056851348877,-0.0782223641872,0.1,0.0,-0.0106652416289
1503329625915142605,0.00609999338786,-0.00160740566254,-0.0788499340415,0.1,0.0,-0.0173848178238
1503329625943555784,0.00721745808919,0.000963316599528,-0.0751203745604,0.1,0.0,-0.0199284143746
1503329626004132484,0.00772166061401,0.00395703188578,-0.0659488886595,0.1,0.0,-0.0129414442927
1503329626051442177,0.00716278966268,0.00580307515462,-0.0611887201667,0.1,0.0,-0.0178061686456
1503329626129590681,0.0063936475118,0.00927430979411,-0.0457217879593,0.1,0.0,-0.0164585933089
1503329626141683238,0.00656953938802,0.0104357007345,-0.0451943948865,0.1,0.0,-0.0153815895319
1503329626220089646,0.00732444763184,0.0126057014465,-0.0402962639928,0.1,0.0,-0.0214485824108
1503329626247370439,0.0065094871521,0.0142418670654,-0.0279011279345,0.1,0.0,-0.0237379223108
1503329626307587775,0.00482427914937,0.0172968724569,-0.00306610763073,0.1,0.0,-0.0252885818481
1503329626338166204,0.00421708043416,0.0185550626119,-0.0166701450944,0.1,0.0,-0.022190451622
1503329626398147984,0.00469622834524,0.0219571812948,0.00683729350567,0.1,0.0,-0.0247513651848
1503329626445302157,0.00455368963877,0.0231438751221,0.00359557569027,0.1,0.0,-0.0241114497185
1503329626503720626,0.00492716121674,0.0257179056803,0.0203403532505,0.1,0.0,-0.0210277140141
1503329626533107124,0.00510674413045,0.0270930048625,0.0192223191261,0.1,0.0,-0.0250868201256
1503329626594385604,0.00570707003276,0.0294461746216,0.031789675355,0.1,0.0,-0.0233099460602
1503329626636233717,0.00661500867208,0.0306611073812,0.0360278189182,0.1,0.0,-0.0192275643349
1503329626700036696,0.00705041758219,0.0330588328044,0.0456192195415,0.1,0.0,-0.0221201181412
1503329626734176482,0.00649075317383,0.0348225199382,0.0340773165226,0.1,0.0,-0.0243833065033
1503329626790333894,0.0072404015859,0.0395019785563,0.0376787185669,0.1,0.0,-0.0212559700012
1503329626838108553,0.00723390642802,0.0409854532878,0.0440668463707,0.1,0.0,-0.0209249258041
1503329626897626571,0.00651637204488,0.0449984588623,0.0439903140068,0.1,0.0,-0.0230818390846
1503329626923720937,0.00668134307861,0.0469072214762,0.0487572550774,0.1,0.0,-0.0232763290405
1503329626985568357,0.00631997998556,0.0500362294515,0.0373802185059,0.1,0.0,-0.0232100486755
1503329627013075321,0.00658509953817,0.0525853271484,0.0289862453938,0.1,0.0,-0.0250779390335
1503329627090899549,0.00670104344686,0.0554110616048,0.0355584323406,0.1,0.0,-0.0285558104515
1503329627120255349,0.00686270395915,0.0565900726318,0.0329830348492,0.1,0.0,-0.0296375751495
1503329627179304188,0.0066368598938,0.0593620402018,0.0303239226341,0.1,0.0,-0.0307145118713
1503329627209625117,0.00658857599894,0.0618080952962,0.0189283788204,0.1,0.0,-0.0335657596588
1503329627294881682,0.00612898763021,0.0641527659098,0.0234097838402,0.1,0.0,-0.0345529317856
1503329627320116190,0.00712936909993,0.0642147827148,0.0302373170853,0.1,0.0,-0.0346012711525
1503329627377703096,0.00827546691895,0.0679789581299,0.0223066210747,0.1,0.0,-0.0376192331314
1503329627406338064,0.00873217519124,0.0684403076172,0.0268938243389,0.1,0.0,-0.0398072004318
1503329627484087977,0.00965596262614,0.0713580525716,0.0179337859154,0.1,0.0,-0.0442074537277
1503329627514200904,0.0103087895711,0.0729901733398,0.00718909502029,0.1,0.0,-0.0437390804291
1503329627576941851,0.0115775324504,0.0751779225667,0.0114008784294,0.1,0.0,-0.0450799465179
1503329627617711214,0.0117712656657,0.0771917826335,0.0144904255867,0.1,0.0,-0.0463552474976
1503329627679988281,0.0143489659627,0.0793510894775,0.00183171033859,0.1,0.0,-0.0457762479782
1503329627713213113,0.0145847345988,0.0803067728678,0.00901240110397,0.1,0.0,-0.049476146698
1503329627767544219,0.0157926432292,0.0821771087646,0.000560879707336,0.1,0.0,-0.0514302253723
1503329627814918336,0.015684173584,0.0820027618408,0.0114663243294,0.1,0.0,-0.0527679920197
1503329627878606965,0.0169377441406,0.0824770609538,0.00609982013702,0.1,0.0,-0.0515778064728
1503329627943035341,0.017318359375,0.0808632100423,0.0268620252609,0.1,0.0,-0.0509324073792
1503329627986340275,0.0197288208008,0.084288172404,0.0180293321609,0.1,0.0,-0.0501440763474
1503329628010346336,0.0192164459229,0.0835341949463,0.0278898477554,0.1,0.0,-0.0526158809662
1503329628074209901,0.0201288401286,0.0850621795654,0.0153782963753,0.1,0.0,-0.0510891675949
1503329628102683407,0.0193576812744,0.083372833252,0.0281186103821,0.1,0.0,-0.0503089427948
1503329628164551793,0.0192997792562,0.08580174764,0.0118235349655,0.1,0.0,-0.054737329483
1503329628208968812,0.0189219462077,0.084220820109,0.0251420736313,0.1,0.0,-0.0547983646393
1503329628267775090,0.0203399709066,0.0836040293376,0.0264595150948,0.1,0.0,-0.0519114732742
1503329628313117525,0.0197694295247,0.0819201304118,0.0382410883904,0.1,0.0,-0.0528434514999
1503329628355516599,0.023090250651,0.0854691162109,0.0200554132462,0.1,0.0,-0.0493234395981
1503329628387540836,0.0234950205485,0.0860088094076,0.0236221551895,0.1,0.0,-0.051109790802
1503329628461523058,0.0226631113688,0.0884742635091,0.0327886343002,0.1,0.0,-0.0490579605103
1503329628495176616,0.0225,0.0897843221029,0.0302412509918,0.1,0.0,-0.0477905273438
1503329628552020282,0.0236877848307,0.0898111368815,0.032341003418,0.1,0.0,-0.0459420681
1503329628581886894,0.0243792215983,0.0904240315755,0.0298651456833,0.1,0.0,-0.0453028678894
1503329628658973409,0.0256245320638,0.0914295247396,0.0207076072693,0.1,0.0,-0.0423549413681
1503329628692228666,0.024877843221,0.0937155558268,0.0258246660233,0.1,0.0,-0.0429146289825
1503329628746156967,0.0262903238932,0.0966879679362,0.0280706882477,0.1,0.0,-0.0405740737915
1503329628783080188,0.0258223114014,0.0972037963867,0.0274176597595,0.1,0.0,-0.0423945188522
1503329629854331152,0.0311998799642,0.0989264322917,0.00626981258392,0.1,0.0,0.00109672546387
1503329629907320067,0.0285341339111,0.0952562357585,0.0117838978767,0.1,0.0,0.00199687480927
1503329629954583936,0.0286304931641,0.094704498291,0.000965654850006,0.1,0.0,0.00431609153748
1503329630033100751,0.0271671625773,0.0910890197754,-0.00909221172333,0.1,0.0,0.00259733200073
1503329630060883851,0.0265401128133,0.0893844502767,-0.00703227519989,0.1,0.0,0.00101029872894
1503329630120138042,0.0256538162231,0.0853925069173,-0.00643938779831,0.1,0.0,0.00367379188538
1503329630150995196,0.025159014384,0.0840900166829,0.000145375728607,0.1,0.0,0.0033016204834
1503329630213978020,0.023040957133,0.0803710021973,-0.0073926448822,0.1,0.0,0.00182962417603
1503329630241193872,0.0223341140747,0.0792626241048,-0.00507938861847,0.1,0.0,0.000180125236511
1503329630316394009,0.0194151865641,0.0735909729004,-0.00139081478119,0.1,0.0,-0.00296366214752
1503329630345070463,0.0191072438558,0.0719422607422,-0.0020432472229,0.1,0.0,-0.00131297111511
1503329630405963602,0.0175967966715,0.0680012868245,0.00962388515472,0.1,0.0,-0.00195598602295
1503329630453130871,0.0171954854329,0.0667857462565,-0.00642025470734,0.1,0.0,-0.00275129079819
1503329630516934978,0.0149845962524,0.0649374593099,0.00270473957062,0.1,0.0,-0.00384974479675
1503329630541505982,0.0134440307617,0.0635311279297,-0.0105817019939,0.1,0.0,-0.00557821989059
1503329630613869710,0.0121833292643,0.061241780599,-0.00289356708527,0.1,0.0,-0.00430709123611
1503329630653952474,0.0111900393168,0.0610152994792,-0.0081327855587,0.1,0.0,-0.00461703538895
1503329630709043072,0.00931644312541,0.0588903045654,0.0188010931015,0.1,0.0,-0.00259745121002
1503329630738811903,0.00833508555094,0.0575686899821,0.0166184306145,0.1,0.0,-0.00320333242416
1503329630799329272,0.00628203964233,0.0545061187744,0.003901720047,0.1,0.0,-0.00377511978149
1503329630845022812,0.00467242940267,0.0529952901204,-0.00459213554859,0.1,0.0,-0.0047779083252
1503329630906093041,0.00261921691895,0.0509012247721,-0.0134881287813,0.1,0.0,-0.00356304645538
1503329630935831602,0.00131305853526,0.0489529927572,-0.0127050802112,0.1,0.0,-0.00799262523651
1503329631000896196,0.000499426047007,0.0461487731934,-0.0103539079428,0.1,0.0,-0.00661033391953
1503329631041224328,-0.000534316778183,0.0441497599284,-0.0256931520998,0.1,0.0,-0.00938975811005
1503329631101755028,-0.00331580893199,0.0388597971598,-0.0202282741666,0.1,0.0,-0.0126849412918
1503329631133107100,-0.00466006406148,0.0374951527913,-0.0294143334031,0.1,0.0,-0.0117046833038
1503329631190463835,-0.00636652183533,0.0347236989339,-0.0469439774752,0.1,0.0,-0.0155500173569
