%time,field.header.seq,field.header.stamp,field.header.frame_id,field.batteryPercent,field.state,field.magX,field.magY,field.magZ,field.pressure,field.temp,field.wind_speed,field.wind_angle,field.wind_comp_angle,field.rotX,field.rotY,field.rotZ,field.altd,field.vx,field.vy,field.vz,field.ax,field.ay,field.az,field.motor1,field.motor2,field.motor3,field.motor4,field.tags_count,field.tm
1505356812449689788,11183,1505356812449490310,92.0,2,-18,-2,-18,98737,400,0.0,0.0,0.0,-1.49800002575,-6.55999994278,-46.4620018005,0,0.0,-0.0,-0.0,0.0829476639628,-0.011932561174,0.947963893414,0,0,0,0,0,468228928.0
1505356812454340240,11184,1505356812454129297,92.0,2,-18,-2,-18,98737,400,0.0,0.0,0.0,-1.49800002575,-6.55999994278,-46.4630012512,0,0.0,-0.0,-0.0,0.083136215806,-0.0117173222825,0.94949221611,0,0,0,0,0,468233920.0
1505356812464927505,11185,1505356812464692628,92.0,2,-23,-1,-19,98737,400,0.0,0.0,0.0,-1.49899995327,-6.55900001526,-46.4640007019,0,0.0,-0.0,-0.0,0.0830922946334,-0.011768666096,0.951367676258,0,0,0,0,0,468238976.0
1505356812464931691,11186,1505356812464717354,92.0,2,-23,-1,-19,98737,400,0.0,0.0,0.0,-1.5,-6.55900001526,-46.4650001526,0,0.0,-0.0,-0.0,0.08319144696,-0.0116745661944,0.954842269421,0,0,0,0,0,468243968.0
1505356812469684511,11187,1505356812469315708,92.0,2,-26,-2,-20,98740,400,0.0,0.0,0.0,-1.5,-6.55900001526,-46.4650001526,0,0.0,-0.0,-0.0,0.0829732716084,-0.0100333560258,0.956479012966,0,0,0,0,0,468249184.0
1505356812474636668,11188,1505356812474335048,92.0,2,-26,-2,-20,98740,400,0.0,0.0,0.0,-1.5,-6.55900001526,-46.4650001526,0,0.0,-0.0,-0.0,0.0830536261201,-0.00816134735942,0.957026362419,0,0,0,0,0,468254176.0
1505356812479624826,11189,1505356812479433359,92.0,2,-27,3,-17,98731,400,0.0,0.0,0.0,-1.49899995327,-6.55900001526,-46.4659996033,0,0.0,-0.0,-0.0,0.0830879807472,-0.00458385935053,0.956328630447,0,0,0,0,0,468259168.0
1505356812485121735,11190,1505356812484909874,92.0,2,-27,3,-17,98731,400,0.0,0.0,0.0,-1.49800002575,-6.55900001526,-46.466999054,0,0.0,-0.0,-0.0,0.0830435305834,-0.00296190474182,0.955014646053,0,0,0,0,0,468264000.0
1505356812489721832,11191,1505356812489380969,92.0,2,-22,6,-20,98731,400,0.0,0.0,0.0,-1.49699997902,-6.55900001526,-46.4679985046,0,0.0,-0.0,-0.0,0.0830673649907,-0.00238797999918,0.955638647079,0,0,0,0,0,468269088.0
1505356812498254923,11192,1505356812498034226,92.0,2,-22,6,-20,98731,400,0.0,0.0,0.0,-1.49699997902,-6.55900001526,-46.46900177,0,0.0,-0.0,-0.0,0.0829514041543,-0.00306807062589,0.955429196358,0,0,0,0,0,468274080.0
1505356812499577067,11193,1505356812499382519,92.0,2,-20,0,-22,98737,400,0.0,0.0,0.0,-1.4960000515,-6.55800008774,-46.4700012207,0,0.0,-0.0,-0.0,0.0829328671098,-0.0044373832643,0.954743146896,0,0,0,0,0,468279136.0
1505356812504447511,11194,1505356812504273942,92.0,2,-20,0,-22,98737,400,0.0,0.0,0.0,-1.49500000477,-6.55800008774,-46.4710006714,0,0.0,-0.0,-0.0,0.0829147472978,-0.0038423333317,0.952491700649,0,0,0,0,0,468284096.0
1505356812511956572,11195,1505356812511707426,92.0,2,-25,-1,-19,98743,400,0.0,0.0,0.0,-1.49399995804,-6.55800008774,-46.4720001221,0,0.0,-0.0,-0.0,0.0829036161304,-0.00414182525128,0.948784172535,0,0,0,0,0,468289344.0
1505356812516134105,11196,1505356812515952103,92.0,2,-25,-1,-19,98743,400,0.0,0.0,0.0,-1.49300003052,-6.55800008774,-46.4729995728,0,0.0,-0.0,-0.0,0.0829546377063,-0.00334197958,0.947263658047,0,0,0,0,0,468294528.0
1505356812519590906,11197,1505356812519382533,92.0,2,-22,-2,-20,98743,400,0.0,0.0,0.0,-1.49300003052,-6.55800008774,-46.4739990234,0,0.0,-0.0,-0.0,0.082978464663,-0.00526818400249,0.946558594704,0,0,0,0,0,468299232.0
1505356812524536587,11198,1505356812524371554,92.0,2,-22,-2,-20,98743,400,0.0,0.0,0.0,-1.49199998379,-6.55800008774,-46.4739990234,0,0.0,-0.0,-0.0,0.0830342322588,-0.00740069709718,0.947517096996,0,0,0,0,0,468304192.0
1505356812536920024,11199,1505356812536658325,92.0,2,-24,-2,-20,98740,400,0.0,0.0,0.0,-1.49300003052,-6.55800008774,-46.4749984741,0,0.0,-0.0,-0.0,0.0830784663558,-0.0107536446303,0.948763668537,0,0,0,0,0,468309248.0
1505356812536933300,11200,1505356812536696822,92.0,2,-24,-2,-20,98746,401,0.0,0.0,0.0,-1.49399995804,-6.55800008774,-46.4760017395,0,0.0,-0.0,-0.0,0.0830957889557,-0.0126004135236,0.948078632355,0,0,0,0,0,468314208.0
1505356812539773339,11201,1505356812539569168,92.0,2,-25,-3,-17,98740,401,0.0,0.0,0.0,-1.49399995804,-6.55800008774,-46.4760017395,0,0.0,-0.0,-0.0,0.0831109285355,-0.0128906471655,0.948348164558,0,0,0,0,0,468319328.0
1505356812544914645,11202,1505356812544720523,92.0,2,-25,-3,-17,98734,400,0.0,0.0,0.0,-1.49500000477,-6.55800008774,-46.4770011902,0,0.0,-0.0,-0.0,0.0830976292491,-0.0122910998762,0.947424829006,0,0,0,0,0,468324384.0
1505356812550020222,11203,1505356812549697167,92.0,2,-24,-4,-16,98737,400,0.0,0.0,0.0,-1.4960000515,-6.55700016022,-46.4770011902,0,0.0,-0.0,-0.0,0.0830899477005,-0.0110184345394,0.947882831097,0,0,0,0,0,468329440.0
1505356812554798952,11204,1505356812554589329,92.0,2,-24,-4,-16,98737,400,0.0,0.0,0.0,-1.4960000515,-6.55700016022,-46.4780006409,0,0.0,-0.0,-0.0,0.0830900073051,-0.0115552162752,0.948095202446,0,0,0,0,0,468334400.0
1505356812563747110,11205,1505356812563497143,92.0,2,-26,-4,-18,98731,400,0.0,0.0,0.0,-1.49699997902,-6.55700016022,-46.4780006409,0,0.0,-0.0,-0.0,0.0830909535289,-0.0113999210298,0.947951674461,0,0,0,0,0,468339424.0
1505356812564580197,11206,1505356812564354250,91.0,2,-26,-4,-18,98731,400,0.0,0.0,0.0,-1.49800002575,-6.5560002327,-46.4790000916,0,0.0,-0.0,-0.0,0.0831045731902,-0.012121184729,0.948135733604,0,0,0,0,0,468344384.0
1505356812571598622,11207,1505356812571166824,91.0,2,-25,-5,-15,98740,400,0.0,0.0,0.0,-1.49800002575,-6.5560002327,-46.4790000916,0,0.0,-0.0,-0.0,0.0831080824137,-0.0117558725178,0.947830080986,0,0,0,0,0,468349408.0
1505356812579163296,11208,1505356812578920300,91.0,2,-25,-5,-15,98740,400,0.0,0.0,0.0,-1.49800002575,-6.5560002327,-46.4799995422,0,0.0,-0.0,-0.0,0.0831095650792,-0.0115328021348,0.947937011719,0,0,0,0,0,468354496.0
1505356812579857099,11209,1505356812579634934,91.0,2,-24,-4,-18,98731,400,0.0,0.0,0.0,-1.49899995327,-6.5560002327,-46.4809989929,0,0.0,-0.0,-0.0,0.0831043198705,-0.0116141214967,0.949523448944,0,0,0,0,0,468359520.0
1505356812585418033,11210,1505356812585146198,91.0,2,-24,-4,-18,98731,400,0.0,0.0,0.0,-1.49899995327,-6.55499982834,-46.4809989929,0,0.0,-0.0,-0.0,0.0830887556076,-0.00994981918484,0.951330542564,0,0,0,0,0,468364448.0
1505356812590083774,11211,1505356812589809517,91.0,2,-24,-4,-18,98737,400,0.0,0.0,0.0,-1.49899995327,-6.55499982834,-46.4819984436,0,0.0,-0.0,-0.0,0.0830736160278,-0.00831231009215,0.953362822533,0,0,0,0,0,468369600.0
1505356812597370416,11212,1505356812597128386,91.0,2,-24,-4,-18,98737,400,0.0,0.0,0.0,-1.49899995327,-6.55499982834,-46.4840011597,0,0.0,-0.0,-0.0,0.0830532461405,-0.00480038532987,0.953014671803,0,0,0,0,0,468374592.0
1505356812599801423,11213,1505356812599578682,91.0,2,-20,-4,-20,98737,400,0.0,0.0,0.0,-1.49800002575,-6.55399990082,-46.4850006104,0,0.0,-0.0,-0.0,0.0830406397581,-0.00316576985642,0.950116217136,0,0,0,0,0,468379520.0
1505356812605020143,11214,1505356812604767470,91.0,2,-20,-4,-20,98743,401,0.0,0.0,0.0,-1.49699997902,-6.55399990082,-46.486000061,0,0.0,-0.0,-0.0,0.0830314233899,-0.00269253388979,0.947806656361,0,0,0,0,0,468384576.0
1505356812611617491,11215,1505356812611257377,91.0,2,-23,-3,-21,98734,401,0.0,0.0,0.0,-1.4960000515,-6.55499982834,-46.4869995117,0,0.0,-0.0,-0.0,0.0830219909549,-0.0032866995316,0.947446286678,0,0,0,0,0,468389984.0
1505356812615061909,11216,1505356812614820908,91.0,2,-23,-3,-21,98734,401,0.0,0.0,0.0,-1.4960000515,-6.55499982834,-46.4879989624,0,0.0,-0.0,-0.0,0.0830098316073,-0.00458723073825,0.950675785542,0,0,0,0,0,468394560.0
1505356812620105147,11217,1505356812619882998,91.0,2,-21,-3,-19,98743,401,0.0,0.0,0.0,-1.4960000515,-6.55499982834,-46.4879989624,0,0.0,-0.0,-0.0,0.0829857587814,-0.00382982566953,0.955209493637,0,0,0,0,0,468399616.0
1505356812625022152,11218,1505356812624813092,91.0,2,-21,-3,-19,98737,400,0.0,0.0,0.0,-1.4960000515,-6.55499982834,-46.4889984131,0,0.0,-0.0,-0.0,0.0829671621323,-0.00552647002041,0.955549776554,0,0,0,0,0,468404608.0
1505356812632238060,11219,1505356812631910932,91.0,2,-23,-3,-17,98734,400,0.0,0.0,0.0,-1.49500000477,-6.55499982834,-46.4889984131,0,0.0,-0.0,-0.0,0.0829460099339,-0.00659565674141,0.954081535339,0,0,0,0,0,468409760.0
1505356812639123150,11220,1505356812638837124,91.0,2,-23,-3,-17,98734,400,0.0,0.0,0.0,-1.4960000515,-6.55499982834,-46.4900016785,0,0.0,-0.0,-0.0,0.0829349830747,-0.0104743819684,0.950394511223,0,0,0,0,0,468414944.0
1505356812642177514,11221,1505356812641999090,91.0,2,-19,-3,-21,98740,400,0.0,0.0,0.0,-1.4960000515,-6.55499982834,-46.4910011292,0,0.0,-0.0,-0.0,0.082926787436,-0.0124238142744,0.948313474655,0,0,0,0,0,468420416.0
1505356812645176764,11222,1505356812644939002,91.0,2,-19,-3,-21,98746,401,0.0,0.0,0.0,-1.49699997902,-6.55399990082,-46.4910011292,0,0.0,-0.0,-0.0,0.0829285085201,-0.0128372646868,0.950052261353,0,0,0,0,0,468424704.0
1505356812651891524,11223,1505356812651631090,91.0,2,-19,3,-19,98737,401,0.0,0.0,0.0,-1.49800002575,-6.55399990082,-46.4910011292,0,0.0,-0.0,-0.0,0.0829576328397,-0.0123650534078,0.948832035065,0,0,0,0,0,468429728.0
1505356812655145509,11224,1505356812654980065,91.0,2,-19,3,-19,98731,400,0.0,0.0,0.0,-1.49800002575,-6.55399990082,-46.4910011292,0,0.0,-0.0,-0.0,0.0830096974969,-0.0108179729432,0.949956536293,0,0,0,0,0,468434752.0
1505356812665328167,11225,1505356812665105731,91.0,2,-20,0,-20,98731,400,0.0,0.0,0.0,-1.49899995327,-6.55399990082,-46.4910011292,0,0.0,-0.0,-0.0,0.0830855518579,-0.0115976557136,0.947386205196,0,0,0,0,0,468439776.0
1505356812665336904,11226,1505356812665133692,91.0,2,-20,0,-20,98731,400,0.0,0.0,0.0,-1.49899995327,-6.55499982834,-46.4920005798,0,0.0,-0.0,-0.0,0.0831481516361,-0.0114978021011,0.946875989437,0,0,0,0,0,468444768.0
1505356812670715731,11227,1505356812670526950,91.0,2,-25,-3,-17,98734,400,0.0,0.0,0.0,-1.5,-6.55499982834,-46.4920005798,0,0.0,-0.0,-0.0,0.083177395165,-0.0122720375657,0.948085427284,0,0,0,0,0,468450048.0
1505356812677152795,11228,1505356812676926572,91.0,2,-25,-3,-17,98740,401,0.0,0.0,0.0,-1.5,-6.55499982834,-46.4930000305,0,0.0,-0.0,-0.0,0.0831627622247,-0.0119848111644,0.947492659092,0,0,0,0,0,468455008.0
1505356812682922553,11229,1505356812682690267,91.0,2,-24,-2,-16,98740,401,0.0,0.0,0.0,-1.50100004673,-6.55399990082,-46.4930000305,0,0.0,-0.0,-0.0,0.0831150785089,-0.0116177164018,0.94910544157,0,0,0,0,0,468460160.0
1505356812685596325,11230,1505356812685399219,91.0,2,-24,-2,-16,98734,400,0.0,0.0,0.0,-1.50199997425,-6.55399990082,-46.4939994812,0,0.0,-0.0,-0.0,0.0830640867352,-0.0117585035041,0.947583973408,0,0,0,0,0,468464992.0
1505356812690365670,11231,1505356812690145830,91.0,2,-19,1,-21,98731,400,0.0,0.0,0.0,-1.50199997425,-6.55399990082,-46.4949989319,0,0.0,-0.0,-0.0,0.0830270498991,-0.0115866558626,0.94786131382,0,0,0,0,0,468469920.0
1505356812695404095,11232,1505356812695153509,91.0,2,-19,1,-21,98737,401,0.0,0.0,0.0,-1.50300002098,-6.55399990082,-46.4959983826,0,0.0,-0.0,-0.0,0.084574662149,-0.0117953158915,0.948004364967,0,0,0,0,0,468474912.0
1505356812700302313,11233,1505356812700081151,91.0,2,-25,-5,-17,98740,401,0.0,0.0,0.0,-1.50300002098,-6.55499982834,-46.4970016479,0,0.0,-0.0,-0.0,0.0864971801639,-0.0117261772975,0.947727560997,0,0,0,0,0,468479904.0
1505356812707686143,11234,1505356812707393377,91.0,2,-25,-5,-17,98734,400,0.0,0.0,0.0,-1.50300002098,-6.5560002327,-46.4970016479,0,0.0,-0.0,-0.0,0.0900572538376,-0.0115944417194,0.948365211487,0,0,0,0,0,468485088.0
1505356812711290646,11235,1505356812710672206,91.0,2,-30,0,-16,98737,400,0.0,0.0,0.0,-1.50300002098,-6.55800008774,-46.4980010986,0,0.0,-0.0,-0.0,0.0917489156127,-0.011655125767,0.947916507721,0,0,0,0,0,468490272.0
1505356812715514431,11236,1505356812715293611,91.0,2,-30,0,-16,98737,400,0.0,0.0,0.0,-1.5039999485,-6.55999994278,-46.4980010986,0,0.0,-0.0,-0.0,0.0923108756542,-0.0115929869935,0.948017060757,0,0,0,0,0,468495072.0
1505356812720736926,11237,1505356812720507060,91.0,2,-21,-5,-19,98737,400,0.0,0.0,0.0,-1.50499999523,-6.5609998703,-46.4980010986,0,0.0,-0.0,-0.0,0.0915992334485,-0.0117024583742,0.948062002659,0,0,0,0,0,468500064.0
1505356812725477288,11238,1505356812725219265,91.0,2,-21,-5,-19,98743,401,0.0,0.0,0.0,-1.50600004196,-6.56199979782,-46.4990005493,0,0.0,-0.0,-0.0,0.088683180511,-0.0117377061397,0.947884738445,0,0,0,0,0,468505056.0
1505356812731002218,11239,1505356812730694734,91.0,2,-27,-3,-21,98743,401,0.0,0.0,0.0,-1.50699996948,-6.56300020218,-46.4990005493,0,0.0,-0.0,-0.0,0.0873906090856,-0.011718198657,0.948109865189,0,0,0,0,0,468510016.0
1505356812741235407,11240,1505356812741010673,91.0,2,-27,-3,-21,98743,401,0.0,0.0,0.0,-1.50699996948,-6.56300020218,-46.5,0,0.0,-0.0,-0.0,0.0836246088147,-0.0117450878024,0.947929680347,0,0,0,0,0,468515552.0
1505356812741476874,11241,1505356812741042070,91.0,2,-23,-1,-19,98737,401,0.0,0.0,0.0,-1.50699996948,-6.56300020218,-46.5009994507,0,0.0,-0.0,-0.0,0.0828036740422,-0.0116790989414,0.947963356972,0,0,0,0,0,468520192.0
1505356812745642101,11242,1505356812745423110,91.0,2,-23,-1,-19,98731,400,0.0,0.0,0.0,-1.50699996948,-6.56199979782,-46.5019989014,0,0.0,-0.0,-0.0,0.0818716138601,-0.0101175773889,0.94950145483,0,0,0,0,0,468525152.0
1505356812751039436,11243,1505356812750738673,91.0,2,-24,0,-16,98734,400,0.0,0.0,0.0,-1.50699996948,-6.56199979782,-46.5019989014,0,0.0,-0.0,-0.0,0.0823461338878,-0.00819293316454,0.951295912266,0,0,0,0,0,468530272.0
1505356812755752838,11244,1505356812755542601,91.0,2,-24,0,-16,98740,401,0.0,0.0,0.0,-1.50699996948,-6.56199979782,-46.5029983521,0,0.0,-0.0,-0.0,0.0838285237551,-0.00464631989598,0.954854011536,0,0,0,0,0,468535264.0
1505356812764257156,11245,1505356812764048132,91.0,2,-21,1,-21,98737,401,0.0,0.0,0.0,-1.50600004196,-6.56199979782,-46.5040016174,0,0.0,-0.0,-0.0,0.0830517113209,-0.00454023294151,0.956436991692,0,0,0,0,0,468540480.0
1505356812771202230,11246,1505356812770691533,91.0,2,-21,1,-21,98737,401,0.0,0.0,0.0,-1.50600004196,-6.5609998703,-46.5050010681,0,0.0,-0.0,-0.0,0.0835636034608,-0.0058600269258,0.957018554211,0,0,0,0,0,468545152.0
1505356812771207621,11247,1505356812770727579,91.0,2,-25,-1,-15,98734,401,0.0,0.0,0.0,-1.50600004196,-6.5609998703,-46.5060005188,0,0.0,-0.0,-0.0,0.0826482251287,-0.00852763094008,0.956356942654,0,0,0,0,0,468550400.0
1505356812775724695,11248,1505356812775467052,91.0,2,-25,-1,-15,98728,400,0.0,0.0,0.0,-1.50600004196,-6.55999994278,-46.5060005188,0,0.0,-0.0,-0.0,0.082974024117,-0.0111660975963,0.955032706261,0,0,0,0,0,468555232.0
1505356812780687269,11249,1505356812780445052,91.0,2,-25,-1,-21,98731,400,0.0,0.0,0.0,-1.50600004196,-6.55999994278,-46.5069999695,0,0.0,-0.0,-0.0,0.0832699760795,-0.00950101483613,0.954162597656,0,0,0,0,0,468560256.0
1505356812789885078,11250,1505356812789517512,91.0,2,-25,-1,-21,98731,400,0.0,0.0,0.0,-1.50600004196,-6.55999994278,-46.5079994202,0,0.0,-0.0,-0.0,0.0830604434013,-0.0109077235684,0.952055692673,0,0,0,0,0,468565600.0
1505356812790819380,11251,1505356812790558896,91.0,2,-25,1,-13,98734,400,0.0,0.0,0.0,-1.50600004196,-6.55999994278,-46.5089988708,0,0.0,-0.0,-0.0,0.0833065211773,-0.00989660993218,0.949421405792,0,0,0,0,0,468570432.0
1505356812798422507,11252,1505356812798175854,91.0,2,-25,1,-13,98740,401,0.0,0.0,0.0,-1.50699996948,-6.55999994278,-46.5099983215,0,0.0,-0.0,-0.0,0.0829992666841,-0.0121824163944,0.947415530682,0,0,0,0,0,468575424.0
1505356812804669478,11253,1505356812804385275,91.0,2,-27,-1,-19,98743,401,0.0,0.0,0.0,-1.50800001621,-6.55999994278,-46.5110015869,0,0.0,-0.0,-0.0,0.0830333381891,-0.0128576764837,0.946618139744,0,0,0,0,0,468580480.0
1505356812806097719,11254,1505356812805816315,91.0,2,-27,-1,-19,98737,400,0.0,0.0,0.0,-1.50899994373,-6.55999994278,-46.5110015869,0,0.0,-0.0,-0.0,0.0830830857158,-0.010085305199,0.947426736355,0,0,0,0,0,468585440.0
1505356812811295627,11255,1505356812811002779,91.0,2,-23,1,-15,98737,400,0.0,0.0,0.0,-1.50899994373,-6.55999994278,-46.5110015869,0,0.0,-0.0,-0.0,0.0829537659883,-0.00880730058998,0.948558568954,0,0,0,0,0,468590656.0
1505356812815801727,11256,1505356812815619207,91.0,2,-23,1,-15,98737,400,0.0,0.0,0.0,-1.50800001621,-6.55999994278,-46.5120010376,0,0.0,-0.0,-0.0,0.0830318331718,-0.00374480825849,0.948180198669,0,0,0,0,0,468595392.0
1505356812820912623,11257,1505356812820750489,91.0,2,-20,0,-18,98734,400,0.0,0.0,0.0,-1.50699996948,-6.5609998703,-46.5120010376,0,0.0,-0.0,-0.0,0.0829225257039,-0.00347029836848,0.948314964771,0,0,0,0,0,468600448.0
1505356812825731200,11258,1505356812825519530,91.0,2,-20,0,-18,98734,400,0.0,0.0,0.0,-1.50600004196,-6.5609998703,-46.5130004883,0,0.0,-0.0,-0.0,0.0829376801848,-0.0026608586777,0.947404801846,0,0,0,0,0,468605408.0
1505356812831031960,11259,1505356812830614636,91.0,2,-26,0,-20,98731,400,0.0,0.0,0.0,-1.50499999523,-6.5609998703,-46.513999939,0,0.0,-0.0,-0.0,0.0829807966948,-0.00317273102701,0.947841823101,0,0,0,0,0,468610560.0
1505356812836689378,11260,1505356812836462499,91.0,2,-26,0,-20,98731,400,0.0,0.0,0.0,-1.50499999523,-6.5609998703,-46.5149993896,0,0.0,-0.0,-0.0,0.0829588547349,-0.00478956010193,0.947995603085,0,0,0,0,0,468615904.0
1505356812842864368,11261,1505356812842665662,91.0,2,-18,-4,-20,98734,400,0.0,0.0,0.0,-1.5039999485,-6.5609998703,-46.5159988403,0,0.0,-0.0,-0.0,0.0830140635371,-0.00361378560774,0.947950184345,0,0,0,0,0,468620544.0
1505356812845943038,11262,1505356812845739380,91.0,2,-18,-4,-20,98740,401,0.0,0.0,0.0,-1.50300002098,-6.5609998703,-46.5159988403,0,0.0,-0.0,-0.0,0.0829948484898,-0.00429090997204,0.948092758656,0,0,0,0,0,468625536.0
1505356812851641490,11263,1505356812850791947,91.0,2,-26,0,-18,98731,401,0.0,0.0,0.0,-1.50300002098,-6.5609998703,-46.516998291,0,0.0,-0.0,-0.0,0.0830118358135,-0.00341278896667,0.94779831171,0,0,0,0,0,468630592.0
1505356812857669887,11264,1505356812857443411,91.0,2,-26,0,-18,98731,401,0.0,0.0,0.0,-1.50199997425,-6.5609998703,-46.5180015564,0,0.0,-0.0,-0.0,0.0830498710275,-0.00527338078246,0.947913587093,0,0,0,0,0,468635520.0
1505356812864629540,11265,1505356812864378722,91.0,2,-24,2,-14,98731,401,0.0,0.0,0.0,-1.50199997425,-6.5609998703,-46.5180015564,0,0.0,-0.0,-0.0,0.0830634906888,-0.00753461988643,0.947951674461,0,0,0,0,0,468640800.0
1505356812868078727,11266,1505356812867770877,91.0,2,-24,2,-14,98724,400,0.0,0.0,0.0,-1.50199997425,-6.5609998703,-46.5190010071,0,0.0,-0.0,-0.0,0.0831079632044,-0.010649798438,0.9479418993,0,0,0,0,0,468645664.0
1505356812871402510,11267,1505356812871204322,91.0,2,-23,3,-17,98731,400,0.0,0.0,0.0,-1.50300002098,-6.5609998703,-46.5200004578,0,0.0,-0.0,-0.0,0.0831086188555,-0.0125786913559,0.948030769825,0,0,0,0,0,468650848.0
1505356812876186237,11268,1505356812875953762,91.0,2,-23,3,-17,98737,401,0.0,0.0,0.0,-1.5039999485,-6.55999994278,-46.5200004578,0,0.0,-0.0,-0.0,0.0831024646759,-0.012824151665,0.947935044765,0,0,0,0,0,468655776.0
1505356812881157094,11269,1505356812880952540,91.0,2,-20,0,-16,98734,401,0.0,0.0,0.0,-1.5039999485,-6.55999994278,-46.5209999084,0,0.0,-0.0,-0.0,0.0830901637673,-0.0121941110119,0.947965800762,0,0,0,0,0,468660768.0
1505356812886717852,11270,1505356812886263023,91.0,2,-20,0,-16,98734,401,0.0,0.0,0.0,-1.50499999523,-6.55999994278,-46.5209999084,0,0.0,-0.0,-0.0,0.0830660313368,-0.0109951850027,0.949490725994,0,0,0,0,0,468665888.0
1505356812892412471,11271,1505356812892189249,91.0,2,-22,0,-18,98737,401,0.0,0.0,0.0,-1.50600004196,-6.55999994278,-46.5219993591,0,0.0,-0.0,-0.0,0.0830682516098,-0.011457095854,0.951353490353,0,0,0,0,0,468670720.0
1505356812897561023,11272,1505356812897362745,91.0,2,-22,0,-18,98731,400,0.0,0.0,0.0,-1.50699996948,-6.55999994278,-46.5229988098,0,0.0,-0.0,-0.0,0.0830684527755,-0.0113068679348,0.954861342907,0,0,0,0,0,468675680.0
1505356812902710675,11273,1505356812902495857,91.0,2,-23,-7,-23,98728,400,0.0,0.0,0.0,-1.50800001621,-6.55999994278,-46.5239982605,0,0.0,-0.0,-0.0,0.0830788090825,-0.0119934752584,0.956479489803,0,0,0,0,0,468680832.0
1505356812906056227,11274,1505356812905895551,91.0,2,-23,-7,-23,98728,400,0.0,0.0,0.0,-1.50800001621,-6.55900001526,-46.5250015259,0,0.0,-0.0,-0.0,0.0830796584487,-0.010055731982,0.957035660744,0,0,0,0,0,468685760.0
1505356812911619068,11275,1505356812911413334,91.0,2,-24,-4,-16,98734,400,0.0,0.0,0.0,-1.50800001621,-6.55900001526,-46.5250015259,0,0.0,-0.0,-0.0,0.0830645114183,-0.00797338690609,0.956349134445,0,0,0,0,0,468691200.0
1505356812916482399,11276,1505356812916277671,91.0,2,-24,-4,-16,98734,400,0.0,0.0,0.0,-1.50699996948,-6.55900001526,-46.5260009766,0,0.0,-0.0,-0.0,0.0830417498946,-0.00457773962989,0.955014646053,0,0,0,0,0,468696096.0
1505356812921575172,11277,1505356812921119171,91.0,2,-22,0,-14,98734,400,0.0,0.0,0.0,-1.50600004196,-6.55800008774,-46.5260009766,0,0.0,-0.0,-0.0,0.0830159038305,-0.00282698078081,0.955647945404,0,0,0,0,0,468700960.0
1505356812928852577,11278,1505356812928582442,91.0,2,-22,0,-14,98734,400,0.0,0.0,0.0,-1.50600004196,-6.55800008774,-46.5270004272,0,0.0,-0.0,-0.0,0.0830042883754,-0.00255088927224,0.955424308777,0,0,0,0,0,468705856.0
1505356812935370870,11279,1505356812935071164,91.0,2,-24,-4,-16,98734,400,0.0,0.0,0.0,-1.50499999523,-6.55700016022,-46.5279998779,0,0.0,-0.0,-0.0,0.0830116868019,-0.00321225100197,0.954736351967,0,0,0,0,0,468711104.0
1505356812936737733,11280,1505356812936593093,91.0,2,-24,-4,-16,98734,400,0.0,0.0,0.0,-1.50499999523,-6.55700016022,-46.5289993286,0,0.0,-0.0,-0.0,0.0830376595259,-0.00608324352652,0.952502906322,0,0,0,0,0,468716160.0
1505356812945742963,11281,1505356812945451945,91.0,2,-23,3,-21,98724,400,0.0,0.0,0.0,-1.50499999523,-6.55700016022,-46.5299987793,0,0.0,-0.0,-0.0,0.0830685123801,-0.00744739593938,0.94879835844,0,0,0,0,0,468720992.0
1505356812946599194,11282,1505356812946381814,91.0,2,-23,3,-21,98731,401,0.0,0.0,0.0,-1.50600004196,-6.55700016022,-46.53099823,0,0.0,-0.0,-0.0,0.0830962657928,-0.0111025366932,0.947302758694,0,0,0,0,0,468726048.0
1505356812951633756,11283,1505356812951400265,91.0,2,-21,-1,-15,98737,401,0.0,0.0,0.0,-1.50600004196,-6.55700016022,-46.5320014954,0,0.0,-0.0,-0.0,0.0831043273211,-0.011989267543,0.946589827538,0,0,0,0,0,468731104.0
1505356812956483325,11284,1505356812956199086,91.0,2,-21,-1,-15,98737,401,0.0,0.0,0.0,-1.50699996948,-6.55700016022,-46.533000946,0,0.0,-0.0,-0.0,0.0830932855606,-0.0113273058087,0.947537600994,0,0,0,0,0,468736096.0
1505356812964937096,11285,1505356812964490331,91.0,2,-22,-4,-18,98737,401,0.0,0.0,0.0,-1.50699996948,-6.55800008774,-46.533000946,0,0.0,-0.0,-0.0,0.0830667167902,-0.0104793310165,0.948762178421,0,0,0,0,0,468740992.0
1505356812967726774,11286,1505356812967333231,91.0,2,-22,-4,-18,98737,401,0.0,0.0,0.0,-1.50699996948,-6.55800008774,-46.5340003967,0,0.0,-0.0,-0.0,0.0830259621143,-0.00745001202449,0.948053240776,0,0,0,0,0,468746080.0
1505356812971810620,11287,1505356812971537617,91.0,2,-25,1,-21,98731,401,0.0,0.0,0.0,-1.50699996948,-6.55700016022,-46.5349998474,0,0.0,-0.0,-0.0,0.0829851701856,-0.00847890041769,0.949854969978,0,0,0,0,0,468751104.0
1505356812976414444,11288,1505356812976281443,91.0,2,-25,1,-21,98724,400,0.0,0.0,0.0,-1.50699996948,-6.55700016022,-46.5349998474,0,0.0,-0.0,-0.0,0.0829456523061,-0.00723267160356,0.950805187225,0,0,0,0,0,468756096.0
1505356812981637893,11289,1505356812981449702,91.0,2,-24,0,-14,98737,400,0.0,0.0,0.0,-1.50699996948,-6.5560002327,-46.5359992981,0,0.0,-0.0,-0.0,0.0829242393374,-0.00585135398433,0.954733908176,0,0,0,0,0,468761120.0
1505356812986979342,11290,1505356812986575737,91.0,2,-24,0,-14,98743,401,0.0,0.0,0.0,-1.50600004196,-6.5560002327,-46.5369987488,0,0.0,-0.0,-0.0,0.0829352289438,-0.00450519192964,0.956586420536,0,0,0,0,0,468766176.0
1505356812997534875,11291,1505356812997242550,91.0,2,-25,-3,-19,98737,401,0.0,0.0,0.0,-1.50499999523,-6.5560002327,-46.5379981995,0,0.0,-0.0,-0.0,0.0829719230533,-0.00172684132122,0.95698094368,0,0,0,0,0,468771200.0
1505356812998505261,11292,1505356812998150014,91.0,2,-25,-3,-19,98731,400,0.0,0.0,0.0,-1.5039999485,-6.5560002327,-46.5390014648,0,0.0,-0.0,-0.0,0.0830299854279,-0.00345139252022,0.956494152546,0,0,0,0,0,468776320.0
1505356813001940174,11293,1505356813001685198,91.0,2,-24,-4,-22,98734,400,0.0,0.0,0.0,-1.5039999485,-6.5560002327,-46.5400009155,0,0.0,-0.0,-0.0,0.0830748975277,-0.00348382513039,0.954880356789,0,0,0,0,0,468781312.0
1505356813006842624,11294,1505356813006481076,91.0,2,-24,-4,-22,98740,401,0.0,0.0,0.0,-1.50300002098,-6.55499982834,-46.5410003662,0,0.0,-0.0,-0.0,0.0830964967608,-0.0043244776316,0.955621600151,0,0,0,0,0,468786208.0
1505356813012052353,11295,1505356813011731862,91.0,2,-21,-1,-19,98734,401,0.0,0.0,0.0,-1.50300002098,-6.55499982834,-46.5410003662,0,0.0,-0.0,-0.0,0.0830933898687,-0.00432448741049,0.955466806889,0,0,0,0,0,468791232.0
1505356813017764665,11296,1505356813017597074,91.0,2,-21,-1,-19,98728,400,0.0,0.0,0.0,-1.50199997425,-6.55399990082,-46.5419998169,0,0.0,-0.0,-0.0,0.083074182272,-0.00301250931807,0.956235349178,0,0,0,0,0,468796288.0
1505356813021570656,11297,1505356813021337432,91.0,2,-26,0,-24,98734,400,0.0,0.0,0.0,-1.50100004673,-6.55399990082,-46.5429992676,0,0.0,-0.0,-0.0,0.0830631554127,-0.00375751638785,0.955959975719,0,0,0,0,0,468801248.0
1505356813030824264,11298,1505356813030558380,91.0,2,-26,0,-24,98740,401,0.0,0.0,0.0,-1.5,-6.55399990082,-46.5429992676,0,0.0,-0.0,-0.0,0.0830614492297,-0.00346427061595,0.955623030663,0,0,0,0,0,468806208.0
1505356813032124542,11299,1505356813031908013,91.0,2,-22,2,-16,98737,401,0.0,0.0,0.0,-1.49899995327,-6.55399990082,-46.5439987183,0,0.0,-0.0,-0.0,0.0830706879497,-0.00379856047221,0.955783188343,0,0,0,0,0,468811488.0
1505356813037293308,11300,1505356813036975056,91.0,2,-22,2,-16,98737,401,0.0,0.0,0.0,-1.49899995327,-6.55399990082,-46.5439987183,0,0.0,-0.0,-0.0,0.0830773115158,-0.0039666313678,0.955641627312,0,0,0,0,0,468816480.0
1505356813041885657,11301,1505356813041700123,91.0,2,-19,-5,-19,98740,401,0.0,0.0,0.0,-1.49800002575,-6.55399990082,-46.5449981689,0,0.0,-0.0,-0.0,0.0830666273832,-0.00357592687942,0.955880880356,0,0,0,0,0,468821408.0
1505356813047805388,11302,1505356813047571852,91.0,2,-19,-5,-19,98740,401,0.0,0.0,0.0,-1.49800002575,-6.5529999733,-46.5449981689,0,0.0,-0.0,-0.0,0.0830375924706,-0.00384303787723,0.955845236778,0,0,0,0,0,468826400.0
1505356813052019293,11303,1505356813051612903,91.0,2,-21,-5,-21,98737,401,0.0,0.0,0.0,-1.49699997902,-6.5529999733,-46.5460014343,0,0.0,-0.0,-0.0,0.0829983204603,-0.00370629550889,0.954215824604,0,0,0,0,0,468831392.0
1505356813056753996,11304,1505356813056482908,91.0,2,-21,-5,-21,98731,400,0.0,0.0,0.0,-1.4960000515,-6.5529999733,-46.5480003357,0,0.0,-0.0,-0.0,0.0829655826092,-0.00379631971009,0.952407240868,0,0,0,0,0,468836352.0
1505356813064172703,11305,1505356813063938498,91.0,2,-24,0,-18,98734,400,0.0,0.0,0.0,-1.4960000515,-6.5529999733,-46.5480003357,0,0.0,-0.0,-0.0,0.082953453064,-0.00390995107591,0.948852062225,0,0,0,0,0,468841600.0
1505356813068394926,11306,1505356813068103611,91.0,2,-24,0,-18,98740,401,0.0,0.0,0.0,-1.4960000515,-6.5529999733,-46.5489997864,0,0.0,-0.0,-0.0,0.0829609185457,-0.00377795356326,0.947284162045,0,0,0,0,0,468846464.0
1505356813072029441,11307,1505356813071743572,91.0,2,-25,-1,-15,98737,401,0.0,0.0,0.0,-1.49500000477,-6.5529999733,-46.5489997864,0,0.0,-0.0,-0.0,0.0829825773835,-0.00387246580794,0.946724593639,0,0,0,0,0,468851552.0
1505356813078856658,11308,1505356813078589494,91.0,2,-25,-1,-15,98737,401,0.0,0.0,0.0,-1.49399995804,-6.5529999733,-46.5499992371,0,0.0,-0.0,-0.0,0.0830061435699,-0.00378449843265,0.947372078896,0,0,0,0,0,468856672.0
1505356813082064663,11309,1505356813081869327,91.0,2,-21,-1,-17,98737,401,0.0,0.0,0.0,-1.49300003052,-6.5529999733,-46.5499992371,0,0.0,-0.0,-0.0,0.0830226168036,-0.00376731832512,0.948709487915,0,0,0,0,0,468861568.0
1505356813087077202,11310,1505356813086835373,91.0,2,-21,-1,-17,98737,401,0.0,0.0,0.0,-1.49300003052,-6.5529999733,-46.5519981384,0,0.0,-0.0,-0.0,0.0830301195383,-0.00380656449124,0.948046386242,0,0,0,0,0,468866560.0
1505356813091942076,11311,1505356813091721676,91.0,2,-24,-2,-14,98743,401,0.0,0.0,0.0,-1.49199998379,-6.5529999733,-46.5530014038,0,0.0,-0.0,-0.0,0.0830264464021,-0.00376238976605,0.948284685612,0,0,0,0,0,468871552.0
1505356813099049351,11312,1505356813098870774,91.0,2,-24,-2,-14,98743,401,0.0,0.0,0.0,-1.49199998379,-6.55399990082,-46.5540008545,0,0.0,-0.0,-0.0,0.0845796316862,-0.00536304991692,0.947467267513,0,0,0,0,0,468876672.0
1505356813102111839,11313,1505356813101856414,91.0,2,-23,-1,-23,98740,401,0.0,0.0,0.0,-1.49199998379,-6.55399990082,-46.5550003052,0,0.0,-0.0,-0.0,0.0864874944091,-0.00723131652921,0.947852551937,0,0,0,0,0,468881664.0
1505356813107136152,11314,1505356813106818138,91.0,2,-23,-1,-23,98740,401,0.0,0.0,0.0,-1.49199998379,-6.55499982834,-46.5550003052,0,0.0,-0.0,-0.0,0.0900322347879,-0.00915840920061,0.949660658836,0,0,0,0,0,468886624.0
1505356813112255323,11315,1505356813111991562,91.0,2,-27,-1,-17,98734,401,0.0,0.0,0.0,-1.49199998379,-6.55700016022,-46.5550003052,0,0.0,-0.0,-0.0,0.0917175337672,-0.00891320127994,0.95140427351,0,0,0,0,0,468891744.0
1505356813117212770,11316,1505356813116938098,91.0,2,-27,-1,-17,98734,401,0.0,0.0,0.0,-1.49199998379,-6.55800008774,-46.5550003052,0,0.0,-0.0,-0.0,0.0907294154167,-0.00591030577198,0.955023944378,0,0,0,0,0,468896736.0
1505356813121973827,11317,1505356813121767566,91.0,2,-23,3,-17,98743,401,0.0,0.0,0.0,-1.49199998379,-6.55900001526,-46.5559997559,0,0.0,-0.0,-0.0,0.0896880626678,-0.00357040041126,0.956382334232,0,0,0,0,0,468901664.0
1505356813129933987,11318,1505356813129667546,91.0,2,-23,3,-17,98743,401,0.0,0.0,0.0,-1.49100005627,-6.55900001526,-46.5569992065,0,0.0,-0.0,-0.0,0.0867234990001,-0.00169312721118,0.956981420517,0,0,0,0,0,468906688.0
1505356813132424911,11319,1505356813132217985,91.0,2,-26,-2,-14,98743,401,0.0,0.0,0.0,-1.49000000954,-6.55900001526,-46.5579986572,0,0.0,-0.0,-0.0,0.0876743793488,-0.00453207409009,0.956394016743,0,0,0,0,0,468911808.0
1505356813137156213,11320,1505356813136939373,91.0,2,-26,-2,-14,98743,401,0.0,0.0,0.0,-1.49000000954,-6.55900001526,-46.5589981079,0,0.0,-0.0,-0.0,0.0866693034768,-0.00753181288019,0.95503371954,0,0,0,0,0,468916736.0
1505356813143517655,11321,1505356813143258156,91.0,2,-24,-6,-16,98743,401,0.0,0.0,0.0,-1.49000000954,-6.55999994278,-46.5600013733,0,0.0,-0.0,-0.0,0.085250467062,-0.00967149250209,0.955749988556,0,0,0,0,0,468921920.0
1505356813151545315,11322,1505356813151209234,91.0,2,-24,-6,-16,98743,401,0.0,0.0,0.0,-1.49000000954,-6.55999994278,-46.5600013733,0,0.0,-0.0,-0.0,0.0838477760553,-0.0108329169452,0.955442368984,0,0,0,0,0,468926816.0
1505356813152064910,11323,1505356813151912714,91.0,2,-23,-1,-21,98740,401,0.0,0.0,0.0,-1.48899996281,-6.55999994278,-46.5600013733,0,0.0,-0.0,-0.0,0.0810705050826,-0.00875154696405,0.954741239548,0,0,0,0,0,468931872.0
1505356813157095275,11324,1505356813156915032,91.0,2,-23,-1,-21,98740,401,0.0,0.0,0.0,-1.49000000954,-6.55999994278,-46.5600013733,0,0.0,-0.0,-0.0,0.0827385410666,-0.0104354200885,0.954059541225,0,0,0,0,0,468936864.0
1505356813164183754,11325,1505356813163917481,91.0,2,-27,-1,-15,98743,401,0.0,0.0,0.0,-1.49000000954,-6.55999994278,-46.561000824,0,0.0,-0.0,-0.0,0.0828101113439,-0.0103581231087,0.952200174332,0,0,0,0,0,468941952.0
1505356813167206797,11326,1505356813166991730,91.0,2,-27,-1,-15,98743,401,0.0,0.0,0.0,-1.49100005627,-6.55999994278,-46.5620002747,0,0.0,-0.0,-0.0,0.0836346149445,-0.0108172120526,0.954203128815,0,0,0,0,0,468946848.0
1505356813173777964,11327,1505356813173552389,91.0,2,-22,2,-16,98743,401,0.0,0.0,0.0,-1.49100005627,-6.55999994278,-46.5620002747,0,0.0,-0.0,-0.0,0.0835936367512,-0.0094266301021,0.955097675323,0,0,0,0,0,468951904.0
1505356813177348628,11328,1505356813177071120,91.0,2,-22,2,-16,98743,401,0.0,0.0,0.0,-1.49000000954,-6.55999994278,-46.5629997253,0,0.0,-0.0,-0.0,0.082279086113,-0.00446987850592,0.956576645374,0,0,0,0,0,468956864.0
1505356813182439031,11329,1505356813182153351,91.0,2,-21,-5,-17,98746,401,0.0,0.0,0.0,-1.48899996281,-6.55999994278,-46.5629997253,0,0.0,-0.0,-0.0,0.0830098986626,-0.00340146990493,0.955602049828,0,0,0,0,0,468961952.0
1505356813187879671,11330,1505356813187603406,91.0,2,-21,-5,-17,98746,401,0.0,0.0,0.0,-1.48699998856,-6.55999994278,-46.5629997253,0,0.0,-0.0,-0.0,0.082745783031,-0.00154849328101,0.953233897686,0,0,0,0,0,468966944.0
1505356813192860533,11331,1505356813192543842,91.0,2,-17,1,-17,98737,401,0.0,0.0,0.0,-1.48599994183,-6.55900001526,-46.563999176,0,0.0,-0.0,-0.0,0.0830988809466,-0.00358621426858,0.95255613327,0,0,0,0,0,468972128.0
1505356813198116226,11332,1505356813197852153,91.0,2,-17,1,-17,98737,401,0.0,0.0,0.0,-1.48599994183,-6.55900001526,-46.5649986267,0,0.0,-0.0,-0.0,0.0832698643208,-0.00464170007035,0.953248023987,0,0,0,0,0,468977120.0
1505356813203787002,11333,1505356813203549661,91.0,2,-23,-1,-15,98737,401,0.0,0.0,0.0,-1.48500001431,-6.55900001526,-46.5660018921,0,0.0,-0.0,-0.0,0.0828935801983,-0.00380547880195,0.954104483128,0,0,0,0,0,468982048.0
1505356813207647274,11334,1505356813207263717,91.0,2,-23,-1,-15,98731,400,0.0,0.0,0.0,-1.48399996758,-6.55900001526,-46.5670013428,0,0.0,-0.0,-0.0,0.0831738188863,-0.00429939804599,0.953307151794,0,0,0,0,0,468987104.0
1505356813212466535,11335,1505356813212237997,91.0,2,-23,3,-17,98731,400,0.0,0.0,0.0,-1.48300004005,-6.55900001526,-46.5670013428,0,0.0,-0.0,-0.0,0.0830408856273,-0.00302132684737,0.950072288513,0,0,0,0,0,468992064.0
1505356813217351086,11336,1505356813217110521,91.0,2,-23,3,-17,98731,400,0.0,0.0,0.0,-1.48199999332,-6.55999994278,-46.5680007935,0,0.0,-0.0,-0.0,0.0831217467785,-0.00386410276406,0.946809053421,0,0,0,0,0,468997024.0
1505356813222596292,11337,1505356813222315679,91.0,2,-22,2,-16,98731,400,0.0,0.0,0.0,-1.48199999332,-6.55999994278,-46.5690002441,0,0.0,-0.0,-0.0,0.0831725001335,-0.00400536553934,0.94815915823,0,0,0,0,0,469002208.0
1505356813231111475,11338,1505356813230907782,91.0,2,-22,2,-16,98731,400,0.0,0.0,0.0,-1.48099994659,-6.55999994278,-46.5690002441,0,0.0,-0.0,-0.0,0.082998201251,-0.0037897604052,0.948511719704,0,0,0,0,0,469007232.0
1505356813232596114,11339,1505356813232383041,91.0,2,-27,3,-13,98731,400,0.0,0.0,0.0,-1.48000001907,-6.55900001526,-46.5699996948,0,0.0,-0.0,-0.0,0.0830587819219,-0.00399321503937,0.952610850334,0,0,0,0,0,469012224.0
1505356813237637794,11340,1505356813237408960,91.0,2,-27,3,-13,98731,400,0.0,0.0,0.0,-1.48000001907,-6.55900001526,-46.5709991455,0,0.0,-0.0,-0.0,0.0829817354679,-0.00507820304483,0.949892580509,0,0,0,0,0,469017248.0
1505356813242687716,11341,1505356813242493033,91.0,2,-23,1,-19,98737,400,0.0,0.0,0.0,-1.47899997234,-6.55900001526,-46.5719985962,0,0.0,-0.0,-0.0,0.0829991772771,-0.00717111863196,0.94881349802,0,0,0,0,0,469022208.0
1505356813253961000,11342,1505356813253571584,91.0,2,-23,1,-19,98743,401,0.0,0.0,0.0,-1.47899997234,-6.55900001526,-46.5719985962,0,0.0,-0.0,-0.0,0.0830491781235,-0.0107252299786,0.946860849857,0,0,0,0,0,469027168.0
1505356813253973137,11343,1505356813253605333,91.0,2,-21,-1,-19,98737,401,0.0,0.0,0.0,-1.48000001907,-6.55900001526,-46.5730018616,0,0.0,-0.0,-0.0,0.083021722734,-0.012319820933,0.946306169033,0,0,0,0,0,469032192.0
1505356813257825970,11344,1505356813257594421,91.0,2,-21,-1,-19,98731,400,0.0,0.0,0.0,-1.48000001907,-6.55800008774,-46.5740013123,0,0.0,-0.0,-0.0,0.0830808132887,-0.0114770270884,0.948812961578,0,0,0,0,0,469037280.0
1505356813267313386,11345,1505356813267044143,91.0,2,-20,-4,-20,98734,400,0.0,0.0,0.0,-1.48099994659,-6.55800008774,-46.5750007629,0,0.0,-0.0,-0.0,0.0830808356404,-0.00880377367139,0.947772443295,0,0,0,0,0,469042272.0
1505356813268628312,11346,1505356813268391706,91.0,2,-20,-4,-20,98740,401,0.0,0.0,0.0,-1.48000001907,-6.55800008774,-46.5760002136,0,0.0,-0.0,-0.0,0.0830938816071,-0.00407966179773,0.948899924755,0,0,0,0,0,469047264.0
1505356813272959028,11347,1505356813272662284,91.0,2,-19,-1,-19,98734,401,0.0,0.0,0.0,-1.48000001907,-6.55900001526,-46.5769996643,0,0.0,-0.0,-0.0,0.0831138715148,-0.00309481355362,0.947488307953,0,0,0,0,0,469052384.0
1505356813277986901,11348,1505356813277729997,91.0,2,-19,-1,-19,98728,400,0.0,0.0,0.0,-1.47899997234,-6.55900001526,-46.577999115,0,0.0,-0.0,-0.0,0.0830825716257,-0.00226910342462,0.947566390038,0,0,0,0,0,469057440.0
1505356813282947279,11349,1505356813282665948,91.0,2,-25,1,-19,98731,400,0.0,0.0,0.0,-1.47800004482,-6.55900001526,-46.577999115,0,0.0,-0.0,-0.0,0.0830730870366,-0.00380632723682,0.948110342026,0,0,0,0,0,469062368.0
1505356813287885392,11350,1505356813287689660,91.0,2,-25,1,-19,98737,401,0.0,0.0,0.0,-1.47800004482,-6.55900001526,-46.5789985657,0,0.0,-0.0,-0.0,0.0830320194364,-0.00465815607458,0.947753429413,0,0,0,0,0,469067456.0
1505356813297587122,11351,1505356813297348299,91.0,2,-26,0,-16,98737,401,0.0,0.0,0.0,-1.47699999809,-6.55900001526,-46.5810012817,0,0.0,-0.0,-0.0,0.0830006897449,-0.0053144027479,0.948251962662,0,0,0,0,0,469072448.0
1505356813299939855,11352,1505356813299753235,91.0,2,-26,0,-16,98737,401,0.0,0.0,0.0,-1.47699999809,-6.55900001526,-46.5810012817,0,0.0,-0.0,-0.0,0.0829889625311,-0.00753667252138,0.94786131382,0,0,0,0,0,469077440.0
1505356813304911668,11353,1505356813304557464,91.0,2,-23,1,-19,98737,401,0.0,0.0,0.0,-1.47699999809,-6.55900001526,-46.5820007324,0,0.0,-0.0,-0.0,0.0829784423113,-0.0100149838254,0.947855472565,0,0,0,0,0,469082432.0
1505356813308002678,11354,1505356813307771607,91.0,2,-23,1,-19,98737,401,0.0,0.0,0.0,-1.47699999809,-6.55900001526,-46.5820007324,0,0.0,-0.0,-0.0,0.0829910486937,-0.0123522141948,0.948040544987,0,0,0,0,0,469087424.0
1505356813313094552,11355,1505356813312891616,91.0,2,-24,-4,-20,98743,401,0.0,0.0,0.0,-1.47800004482,-6.55900001526,-46.5830001831,0,0.0,-0.0,-0.0,0.0830009430647,-0.0130799924955,0.947873055935,0,0,0,0,0,469092544.0
1505356813317834754,11356,1505356813317620446,91.0,2,-24,-4,-20,98743,401,0.0,0.0,0.0,-1.47800004482,-6.55800008774,-46.5839996338,0,0.0,-0.0,-0.0,0.0830167233944,-0.0122474767268,0.948070824146,0,0,0,0,0,469097504.0
1505356813323212508,11357,1505356813322998896,91.0,2,-26,0,-20,98737,401,0.0,0.0,0.0,-1.47800004482,-6.55800008774,-46.5839996338,0,0.0,-0.0,-0.0,0.0830415412784,-0.011193129234,0.947942376137,0,0,0,0,0,469102592.0
1505356813329624161,11358,1505356813329371160,91.0,2,-26,0,-20,98737,401,0.0,0.0,0.0,-1.47899997234,-6.55800008774,-46.5849990845,0,0.0,-0.0,-0.0,0.0830694288015,-0.011493165046,0.947933614254,0,0,0,0,0,469107520.0
1505356813333001323,11359,1505356813332732015,91.0,2,-20,4,-24,98740,401,0.0,0.0,0.0,-1.48000001907,-6.55800008774,-46.5859985352,0,0.0,-0.0,-0.0,0.0831026136875,-0.0114747770131,0.94799464941,0,0,0,0,0,469112544.0
1505356813338029205,11360,1505356813337834543,91.0,2,-20,4,-24,98740,401,0.0,0.0,0.0,-1.48000001907,-6.55800008774,-46.5859985352,0,0.0,-0.0,-0.0,0.083126321435,-0.0108184590936,0.947916030884,0,0,0,0,0,469117568.0
1505356813342952039,11361,1505356813342809281,91.0,2,-20,0,-26,98737,401,0.0,0.0,0.0,-1.48099994659,-6.55800008774,-46.5870018005,0,0.0,-0.0,-0.0,0.0831330418587,-0.00846732966602,0.947981417179,0,0,0,0,0,469122592.0
1505356813348048087,11362,1505356813347818186,91.0,2,-20,0,-26,98737,401,0.0,0.0,0.0,-1.48000001907,-6.55800008774,-46.5870018005,0,0.0,-0.0,-0.0,0.0831178277731,-0.0048066386953,0.947925269604,0,0,0,0,0,469127552.0
1505356813356739878,11363,1505356813356450044,91.0,2,-28,0,-22,98740,401,0.0,0.0,0.0,-1.47899997234,-6.55800008774,-46.5880012512,0,0.0,-0.0,-0.0,0.0830830037594,-0.00308495364152,0.947912573814,0,0,0,0,0,469132736.0
1505356813360531635,11364,1505356813360226174,91.0,2,-28,0,-22,98740,401,0.0,0.0,0.0,-1.47800004482,-6.55800008774,-46.5890007019,0,0.0,-0.0,-0.0,0.0830376595259,-0.00235285051167,0.947932124138,0,0,0,0,0,469137824.0
1505356813363877075,11365,1505356813363617090,91.0,2,-21,1,-19,98737,401,0.0,0.0,0.0,-1.47699999809,-6.55800008774,-46.5900001526,0,0.0,-0.0,-0.0,0.0829933956265,-0.00327472062781,0.947907209396,0,0,0,0,0,469142688.0
1505356813372035820,11366,1505356813371638374,91.0,2,-21,1,-19,98737,401,0.0,0.0,0.0,-1.47599995136,-6.55800008774,-46.5909996033,0,0.0,-0.0,-0.0,0.0829611867666,-0.00448152981699,0.947939455509,0,0,0,0,0,469147904.0
1505356813373119770,11367,1505356813372934115,91.0,2,-27,-3,-21,98743,401,0.0,0.0,0.0,-1.47500002384,-6.55800008774,-46.591999054,0,0.0,-0.0,-0.0,0.0829446017742,-0.00388256181031,0.947925806046,0,0,0,0,0,469152736.0
1505356813378081827,11368,1505356813377919613,91.0,2,-27,-3,-21,98743,401,0.0,0.0,0.0,-1.47500002384,-6.55800008774,-46.5929985046,0,0.0,-0.0,-0.0,0.0829484462738,-0.00417480850592,0.947922825813,0,0,0,0,0,469157728.0
1505356813384273986,11369,1505356813384071710,91.0,2,-18,6,-16,98737,401,0.0,0.0,0.0,-1.47399997711,-6.55800008774,-46.5929985046,0,0.0,-0.0,-0.0,0.0829654559493,-0.0033351816237,0.94792920351,0,0,0,0,0,469162688.0
1505356813388193386,11370,1505356813387970136,91.0,2,-18,6,-16,98737,401,0.0,0.0,0.0,-1.47399997711,-6.55800008774,-46.59400177,0,0.0,-0.0,-0.0,0.0829976275563,-0.00537306303158,0.947926282883,0,0,0,0,0,469167712.0
1505356813396736128,11371,1505356813396525436,91.0,2,-22,-2,-18,98746,401,0.0,0.0,0.0,-1.47399997711,-6.55800008774,-46.5950012207,0,0.0,-0.0,-0.0,0.0830319970846,-0.00746089080349,0.94794678688,0,0,0,0,0,469172960.0
1505356813399027947,11372,1505356813398839458,91.0,2,-22,-2,-18,98746,401,0.0,0.0,0.0,-1.47399997711,-6.55800008774,-46.5950012207,0,0.0,-0.0,-0.0,0.0830663219094,-0.0107953734696,0.947958469391,0,0,0,0,0,469177888.0
1505356813403325449,11373,1505356813403137300,91.0,2,-25,1,-19,98737,401,0.0,0.0,0.0,-1.47500002384,-6.55800008774,-46.5960006714,0,0.0,-0.0,-0.0,0.0830879062414,-0.0125795034692,0.947966814041,0,0,0,0,0,469182848.0
1505356813408370343,11374,1505356813408006894,91.0,2,-25,1,-19,98737,401,0.0,0.0,0.0,-1.47599995136,-6.55800008774,-46.5970001221,0,0.0,-0.0,-0.0,0.0830945298076,-0.0128009049222,0.947972655296,0,0,0,0,0,469187840.0
1505356813413369236,11375,1505356813412952404,91.0,2,-24,2,-14,98740,401,0.0,0.0,0.0,-1.47699999809,-6.55800008774,-46.5970001221,0,0.0,-0.0,-0.0,0.0830876231194,-0.0122030172497,0.947963356972,0,0,0,0,0,469192832.0
1505356813418309838,11376,1505356813418111467,91.0,2,-24,2,-14,98740,401,0.0,0.0,0.0,-1.47699999809,-6.55800008774,-46.5970001221,0,0.0,-0.0,-0.0,0.0830721631646,-0.0109288077801,0.947962880135,0,0,0,0,0,469197888.0
1505356813423696163,11377,1505356813423482921,91.0,2,-21,-5,-17,98743,401,0.0,0.0,0.0,-1.47699999809,-6.55800008774,-46.5979995728,0,0.0,-0.0,-0.0,0.0830608308315,-0.0114940470085,0.94796192646,0,0,0,0,0,469203008.0
1505356813430642046,11378,1505356813430292602,91.0,2,-21,-5,-17,98743,401,0.0,0.0,0.0,-1.47800004482,-6.55700016022,-46.5989990234,0,0.0,-0.0,-0.0,0.083055369556,-0.0113690756261,0.947962880135,0,0,0,0,0,469207904.0
1505356813433625906,11379,1505356813433415884,91.0,2,-21,3,-17,98746,401,0.0,0.0,0.0,-1.47800004482,-6.55700016022,-46.5999984741,0,0.0,-0.0,-0.0,0.0830589905381,-0.0105590121821,0.949488282204,0,0,0,0,0,469213120.0
1505356813438539116,11380,1505356813438362341,91.0,2,-21,3,-17,98746,401,0.0,0.0,0.0,-1.47800004482,-6.5560002327,-46.6010017395,0,0.0,-0.0,-0.0,0.0830708965659,-0.00833035167307,0.951349616051,0,0,0,0,0,469218112.0
1505356813444820852,11381,1505356813444459306,91.0,2,-27,1,-21,98737,401,0.0,0.0,0.0,-1.47699999809,-6.5560002327,-46.6020011902,0,0.0,-0.0,-0.0,0.083084821701,-0.00460071489215,0.954808115959,0,0,0,0,0,469223008.0
1505356813448430743,11382,1505356813448108966,91.0,2,-27,1,-21,98737,401,0.0,0.0,0.0,-1.47699999809,-6.5560002327,-46.6030006409,0,0.0,-0.0,-0.0,0.0831044390798,-0.00305280834436,0.9564447999,0,0,0,0,0,469228000.0
1505356813457516319,11383,1505356813457225906,91.0,2,-22,2,-20,98734,401,0.0,0.0,0.0,-1.47599995136,-6.5560002327,-46.6040000916,0,0.0,-0.0,-0.0,0.0831191316247,-0.00390778761357,0.957004904747,0,0,0,0,0,469233120.0
1505356813458546327,11384,1505356813458377939,91.0,2,-22,2,-20,98734,401,0.0,0.0,0.0,-1.47599995136,-6.55499982834,-46.6040000916,0,0.0,-0.0,-0.0,0.0831213444471,-0.00670410320163,0.956339359283,0,0,0,0,0,469238080.0
1505356813464189735,11385,1505356813463959024,91.0,2,-27,3,-25,98737,401,0.0,0.0,0.0,-1.47699999809,-6.55499982834,-46.6049995422,0,0.0,-0.0,-0.0,0.0831097066402,-0.0114214736968,0.955054223537,0,0,0,0,0,469243072.0
1505356813470667891,11386,1505356813470447660,91.0,2,-27,3,-25,98737,401,0.0,0.0,0.0,-1.47699999809,-6.55399990082,-46.6049995422,0,0.0,-0.0,-0.0,0.0830779969692,-0.0123378951102,0.955688476562,0,0,0,0,0,469248064.0
1505356813473632337,11387,1505356813473442523,91.0,2,-25,-1,-15,98737,401,0.0,0.0,0.0,-1.47800004482,-6.55399990082,-46.6059989929,0,0.0,-0.0,-0.0,0.083048582077,-0.0131276156753,0.955477535725,0,0,0,0,0,469253248.0
1505356813478745302,11388,1505356813478511901,91.0,2,-25,-1,-15,98740,401,0.0,0.0,0.0,-1.47899997234,-6.55399990082,-46.6059989929,0,0.0,-0.0,-0.0,0.0830232650042,-0.0115189794451,0.956306159496,0,0,0,0,0,469258176.0
1505356813483703151,11389,1505356813483527349,91.0,2,-24,2,-20,98740,401,0.0,0.0,0.0,-1.47899997234,-6.55399990082,-46.6069984436,0,0.0,-0.0,-0.0,0.0830087140203,-0.0106787709519,0.955928683281,0,0,0,0,0,469263168.0
1505356813490205010,11390,1505356813489858870,91.0,2,-24,2,-20,98737,401,0.0,0.0,0.0,-1.47899997234,-6.55399990082,-46.6069984436,0,0.0,-0.0,-0.0,0.0830006822944,-0.0115834120661,0.954170405865,0,0,0,0,0,469268256.0
1505356813493677347,11391,1505356813493394748,91.0,2,-23,-1,-15,98737,401,0.0,0.0,0.0,-1.47899997234,-6.55399990082,-46.608001709,0,0.0,-0.0,-0.0,0.0829818546772,-0.00975778419524,0.952415049076,0,0,0,0,0,469273184.0
1505356813500067185,11392,1505356813499858682,91.0,2,-23,-1,-15,98737,401,0.0,0.0,0.0,-1.47899997234,-6.55399990082,-46.6090011597,0,0.0,-0.0,-0.0,0.0829656496644,-0.00898658391088,0.948777318001,0,0,0,0,0,469278208.0
1505356813503602844,11393,1505356813503401339,91.0,2,-23,-3,-19,98734,401,0.0,0.0,0.0,-1.47899997234,-6.55399990082,-46.6090011597,0,0.0,-0.0,-0.0,0.0829456597567,-0.00487648742273,0.947381854057,0,0,0,0,0,469283200.0
1505356813508646301,11394,1505356813508389776,91.0,2,-23,-3,-19,98734,401,0.0,0.0,0.0,-1.47800004482,-6.55399990082,-46.6100006104,0,0.0,-0.0,-0.0,0.0829414650798,-0.00309243123047,0.948265612125,0,0,0,0,0,469288224.0
1505356813513743626,11395,1505356813513543793,91.0,2,-22,-2,-18,98734,401,0.0,0.0,0.0,-1.47699999809,-6.55399990082,-46.611000061,0,0.0,-0.0,-0.0,0.0829533264041,-0.00268260319717,0.950753927231,0,0,0,0,0,469293472.0
1505356813520231806,11396,1505356813520016953,91.0,2,-22,-2,-18,98734,401,0.0,0.0,0.0,-1.47699999809,-6.55399990082,-46.6129989624,0,0.0,-0.0,-0.0,0.0829763263464,-0.00304764322937,0.955592751503,0,0,0,0,0,469298464.0
1505356813531814808,11397,1505356813531508957,91.0,2,-26,2,-18,98737,401,0.0,0.0,0.0,-1.47599995136,-6.55399990082,-46.6139984131,0,0.0,-0.0,-0.0,0.083012022078,-0.00467329472303,0.956534206867,0,0,0,0,0,469303424.0
1505356813531821976,11398,1505356813531548850,91.0,2,-26,2,-18,98737,401,0.0,0.0,0.0,-1.47500002384,-6.55399990082,-46.6150016785,0,0.0,-0.0,-0.0,0.0830427855253,-0.00380849302746,0.957388699055,0,0,0,0,0,469308352.0
1505356813533896174,11399,1505356813533689496,91.0,2,-19,-1,-17,98734,401,0.0,0.0,0.0,-1.47399997711,-6.55399990082,-46.6160011292,0,0.0,-0.0,-0.0,0.0830695256591,-0.00396945234388,0.955851554871,0,0,0,0,0,469313376.0
1505356813538776676,11400,1505356813538615035,91.0,2,-19,-1,-17,98734,401,0.0,0.0,0.0,-1.47300004959,-6.55399990082,-46.6170005798,0,0.0,-0.0,-0.0,0.0830783322453,-0.00319440709427,0.954897463322,0,0,0,0,0,469318400.0
1505356813543657557,11401,1505356813543421779,91.0,2,-25,-1,-15,98743,401,0.0,0.0,0.0,-1.47200000286,-6.55399990082,-46.6170005798,0,0.0,-0.0,-0.0,0.083069190383,-0.00344106298871,0.955784201622,0,0,0,0,0,469323360.0
1505356813550197433,11402,1505356813549979966,91.0,2,-25,-1,-15,98743,401,0.0,0.0,0.0,-1.47099995613,-6.5529999733,-46.6180000305,0,0.0,-0.0,-0.0,0.0830491036177,-0.00385914416984,0.953880369663,0,0,0,0,0,469328416.0
1505356813556521275,11403,1505356813556249144,91.0,2,-24,-2,-18,98737,401,0.0,0.0,0.0,-1.47099995613,-6.5529999733,-46.6189994812,0,0.0,-0.0,-0.0,0.0830277726054,-0.0052617713809,0.953035652637,0,0,0,0,0,469333888.0
1505356813562561070,11404,1505356813562336202,91.0,2,-24,-2,-18,98737,401,0.0,0.0,0.0,-1.47099995613,-6.5529999733,-46.6189994812,0,0.0,-0.0,-0.0,0.083018399775,-0.00740015460178,0.948921859264,0,0,0,0,0,469338784.0
1505356813563955166,11405,1505356813563780147,91.0,2,-24,-2,-18,98737,401,0.0,0.0,0.0,-1.47099995613,-6.5529999733,-46.6189994812,0,0.0,-0.0,-0.0,0.0845808312297,-0.0106975100935,0.947142064571,0,0,0,0,0,469343584.0
1505356813569167977,11406,1505356813568924739,91.0,2,-24,-2,-18,98740,401,0.0,0.0,0.0,-1.47200000286,-6.55399990082,-46.6199989319,0,0.0,-0.0,-0.0,0.086503714323,-0.0123898973688,0.94681251049,0,0,0,0,0,469348544.0
1505356813573872175,11407,1505356813573680318,91.0,2,-20,2,-16,98734,401,0.0,0.0,0.0,-1.47300004959,-6.55499982834,-46.6199989319,0,0.0,-0.0,-0.0,0.0900608375669,-0.013028325513,0.947291970253,0,0,0,0,0,469353536.0
1505356813580521565,11408,1505356813580233645,91.0,2,-20,2,-16,98734,401,0.0,0.0,0.0,-1.47300004959,-6.55700016022,-46.6209983826,0,0.0,-0.0,-0.0,0.0917488709092,-0.012223043479,0.948972165585,0,0,0,0,0,469358720.0
1505356813584744043,11409,1505356813584096408,91.0,2,-19,-3,-19,98740,401,0.0,0.0,0.0,-1.47399997711,-6.55800008774,-46.6220016479,0,0.0,-0.0,-0.0,0.0923178792,-0.0109783429652,0.948170423508,0,0,0,0,0,469363712.0
1505356813589100968,11410,1505356813588911639,91.0,2,-19,-3,-19,98737,401,0.0,0.0,0.0,-1.47399997711,-6.55900001526,-46.6230010986,0,0.0,-0.0,-0.0,0.0916210487485,-0.0114773595706,0.949865221977,0,0,0,0,0,469368640.0
1505356813597439472,11411,1505356813597199419,91.0,2,-24,0,-20,98724,401,0.0,0.0,0.0,-1.47500002384,-6.55900001526,-46.6230010986,0,0.0,-0.0,-0.0,0.0902806669474,-0.0112224323675,0.950970709324,0,0,0,0,0,469373728.0
1505356813599601448,11412,1505356813599365674,91.0,2,-24,0,-20,98718,400,0.0,0.0,0.0,-1.47500002384,-6.55999994278,-46.6240005493,0,0.0,-0.0,-0.0,0.0909217074513,-0.0120281353593,0.953184068203,0,0,0,0,0,469378752.0
1505356813604049350,11413,1505356813603878129,91.0,2,-21,-3,-19,98731,400,0.0,0.0,0.0,-1.47500002384,-6.5609998703,-46.625,0,0.0,-0.0,-0.0,0.0907196030021,-0.0115874316543,0.954844713211,0,0,0,0,0,469383712.0
1505356813609019034,11414,1505356813608781372,91.0,2,-21,-3,-19,98737,401,0.0,0.0,0.0,-1.47599995136,-6.56199979782,-46.625,0,0.0,-0.0,-0.0,0.0915996953845,-0.0114165730774,0.953621566296,0,0,0,0,0,469388608.0
1505356813614119686,11415,1505356813613910465,91.0,2,-28,4,-20,98724,401,0.0,0.0,0.0,-1.47599995136,-6.5640001297,-46.6259994507,0,0.0,-0.0,-0.0,0.0912458524108,-0.0115380696952,0.954917490482,0,0,0,0,0,469393664.0
1505356813619426843,11416,1505356813619202241,91.0,2,-28,4,-20,98724,401,0.0,0.0,0.0,-1.47699999809,-6.56500005722,-46.6259994507,0,0.0,-0.0,-0.0,0.0910167843103,-0.0114298472181,0.954460442066,0,0,0,0,0,469398784.0
1505356813624209406,11417,1505356813623993013,91.0,2,-20,0,-16,98737,401,0.0,0.0,0.0,-1.47699999809,-6.56599998474,-46.6269989014,0,0.0,-0.0,-0.0,0.0911287218332,-0.0117117594928,0.956355929375,0,0,0,0,0,469403712.0
1505356813630502936,11418,1505356813630244976,91.0,2,-20,0,-16,98740,401,0.0,0.0,0.0,-1.47800004482,-6.56699991226,-46.6279983521,0,0.0,-0.0,-0.0,0.0909226313233,-0.011619544588,0.956878423691,0,0,0,0,0,469408768.0
1505356813634548204,11419,1505356813634244429,91.0,2,-20,0,-24,98737,401,0.0,0.0,0.0,-1.47800004482,-6.56799983978,-46.6290016174,0,0.0,-0.0,-0.0,0.0911421999335,-0.0115943485871,0.954179704189,0,0,0,0,0,469413888.0
1505356813639197527,11420,1505356813638990690,91.0,2,-20,0,-24,98734,401,0.0,0.0,0.0,-1.47800004482,-6.5689997673,-46.6300010681,0,0.0,-0.0,-0.0,0.0910082310438,-0.0101046003401,0.952846169472,0,0,0,0,0,469418848.0
1505356813645481741,11421,1505356813645296906,91.0,2,-26,-4,-14,98734,401,0.0,0.0,0.0,-1.47899997234,-6.57000017166,-46.6310005188,0,0.0,-0.0,-0.0,0.0893566682935,-0.00820180308074,0.947993159294,0,0,0,0,0,469423840.0
1505356813649598054,11422,1505356813649322664,91.0,2,-26,-4,-14,98734,401,0.0,0.0,0.0,-1.47800004482,-6.57000017166,-46.6319999695,0,0.0,-0.0,-0.0,0.0874979123473,-0.00480693671852,0.947656273842,0,0,0,0,0,469428960.0
1505356813655596586,11423,1505356813655420136,91.0,2,-23,-1,-19,98731,401,0.0,0.0,0.0,-1.47800004482,-6.57000017166,-46.6329994202,0,0.0,-0.0,-0.0,0.0839011892676,-0.00314633036032,0.946804225445,0,0,0,0,0,469433856.0
1505356813665431165,11424,1505356813665109997,91.0,2,-23,-1,-19,98731,401,0.0,0.0,0.0,-1.47699999809,-6.57000017166,-46.6339988708,0,0.0,-0.0,-0.0,0.0823602005839,-0.00255994824693,0.947345197201,0,0,0,0,0,469438880.0
1505356813666497181,11425,1505356813666249031,91.0,2,-23,1,-19,98731,401,0.0,0.0,0.0,-1.47599995136,-6.57000017166,-46.6349983215,0,0.0,-0.0,-0.0,0.0818239375949,-0.00322855566628,0.948895514011,0,0,0,0,0,469443904.0
1505356813669348969,11426,1505356813669141276,91.0,2,-23,1,-19,98731,401,0.0,0.0,0.0,-1.47599995136,-6.57000017166,-46.6360015869,0,0.0,-0.0,-0.0,0.0825422108173,-0.00604622345418,0.94776904583,0,0,0,0,0,469448928.0
1505356813675819416,11427,1505356813675683211,91.0,2,-25,-1,-17,98731,401,0.0,0.0,0.0,-1.47599995136,-6.57000017166,-46.6360015869,0,0.0,-0.0,-0.0,0.0839177295566,-0.007318649441,0.948400378227,0,0,0,0,0,469454016.0
1505356813679502971,11428,1505356813679309407,91.0,2,-25,-1,-17,98731,401,0.0,0.0,0.0,-1.47699999809,-6.57000017166,-46.6360015869,0,0.0,-0.0,-0.0,0.0832415521145,-0.0110424719751,0.947491705418,0,0,0,0,0,469459040.0
1505356813686237045,11429,1505356813686009893,91.0,2,-28,2,-18,98737,401,0.0,0.0,0.0,-1.47699999809,-6.5689997673,-46.6360015869,0,0.0,-0.0,-0.0,0.0834608599544,-0.0118669904768,0.947826683521,0,0,0,0,0,469464096.0
1505356813689587505,11430,1505356813689149364,91.0,2,-28,2,-18,98737,401,0.0,0.0,0.0,-1.47800004482,-6.5689997673,-46.6370010376,0,0.0,-0.0,-0.0,0.0825727432966,-0.012826778926,0.948190927505,0,0,0,0,0,469468960.0
1505356813696635087,11431,1505356813696345656,91.0,2,-24,2,-16,98731,401,0.0,0.0,0.0,-1.47899997234,-6.5689997673,-46.6370010376,0,0.0,-0.0,-0.0,0.0829227268696,-0.0123871872202,0.947863280773,0,0,0,0,0,469473984.0
1505356813699944593,11432,1505356813699766142,91.0,2,-24,2,-16,98731,401,0.0,0.0,0.0,-1.47899997234,-6.5689997673,-46.6370010376,0,0.0,-0.0,-0.0,0.083162933588,-0.0109638031572,0.948150873184,0,0,0,0,0,469479040.0
1505356813704299439,11433,1505356813704128368,91.0,2,-19,-3,-19,98731,401,0.0,0.0,0.0,-1.48000001907,-6.5689997673,-46.6380004883,0,0.0,-0.0,-0.0,0.0830257087946,-0.0117597002536,0.947850584984,0,0,0,0,0,469484000.0
1505356813709758725,11434,1505356813709262498,91.0,2,-19,-3,-19,98731,401,0.0,0.0,0.0,-1.48099994659,-6.5689997673,-46.638999939,0,0.0,-0.0,-0.0,0.0832023397088,-0.0112741198391,0.947907686234,0,0,0,0,0,469489056.0
1505356813714946368,11435,1505356813714700889,91.0,2,-28,0,-20,98740,401,0.0,0.0,0.0,-1.48099994659,-6.57000017166,-46.6399993896,0,0.0,-0.0,-0.0,0.0829213857651,-0.0106623740867,0.948027849197,0,0,0,0,0,469494272.0
1505356813719800641,11436,1505356813719503773,91.0,2,-28,0,-20,98740,401,0.0,0.0,0.0,-1.48199999332,-6.57000017166,-46.6409988403,0,0.0,-0.0,-0.0,0.0829795151949,-0.00847012270242,0.947890162468,0,0,0,0,0,469499264.0
1505356813724845602,11437,1505356813724634880,91.0,2,-20,2,-22,98740,401,0.0,0.0,0.0,-1.48099994659,-6.57000017166,-46.641998291,0,0.0,-0.0,-0.0,0.0830202698708,-0.00469059264287,0.948000490665,0,0,0,0,0,469504256.0
1505356813733012533,11438,1505356813732695773,91.0,2,-20,2,-22,98743,401,0.0,0.0,0.0,-1.48099994659,-6.57000017166,-46.6440010071,0,0.0,-0.0,-0.0,0.0829362571239,-0.00323303672485,0.94789403677,0,0,0,0,0,469509120.0
1505356813734660074,11439,1505356813734387055,91.0,2,-19,3,-19,98734,401,0.0,0.0,0.0,-1.48000001907,-6.5689997673,-46.6450004578,0,0.0,-0.0,-0.0,0.0830139294267,-0.00239913864061,0.947899878025,0,0,0,0,0,469514176.0
1505356813739582495,11440,1505356813739398566,91.0,2,-19,3,-19,98731,401,0.0,0.0,0.0,-1.47899997234,-6.5689997673,-46.6459999084,0,0.0,-0.0,-0.0,0.0829326063395,-0.00334846414626,0.947948753834,0,0,0,0,0,469519136.0
1505356813749706146,11441,1505356813749399823,91.0,2,-24,2,-20,98740,401,0.0,0.0,0.0,-1.47800004482,-6.5689997673,-46.6459999084,0,0.0,-0.0,-0.0,0.0829799026251,-0.0045893760398,0.947902321815,0,0,0,0,0,469524224.0
1505356813750582542,11442,1505356813750437175,91.0,2,-24,2,-20,98740,401,0.0,0.0,0.0,-1.47699999809,-6.5689997673,-46.6469993591,0,0.0,-0.0,-0.0,0.0830344408751,-0.00388098228723,0.947951197624,0,0,0,0,0,469529504.0
1505356813754750382,11443,1505356813754586749,91.0,2,-21,-1,-19,98743,401,0.0,0.0,0.0,-1.47599995136,-6.5689997673,-46.6479988098,0,0.0,-0.0,-0.0,0.0830440595746,-0.00421058898792,0.947919905186,0,0,0,0,0,469534368.0
1505356813763058024,11444,1505356813762897379,91.0,2,-21,-1,-19,98743,401,0.0,0.0,0.0,-1.47500002384,-6.5689997673,-46.6489982605,0,0.0,-0.0,-0.0,0.0831072181463,-0.0032984148711,0.947916030884,0,0,0,0,0,469539360.0
1505356813764889892,11445,1505356813764684826,91.0,2,-28,-2,-20,98737,401,0.0,0.0,0.0,-1.47399997711,-6.5689997673,-46.6500015259,0,0.0,-0.0,-0.0,0.0830946937203,-0.00381387444213,0.947935521603,0,0,0,0,0,469544416.0
1505356813771369423,11446,1505356813771173561,91.0,2,-28,-2,-20,98740,401,0.0,0.0,0.0,-1.47399997711,-6.5689997673,-46.6510009766,0,0.0,-0.0,-0.0,0.0831050649285,-0.00407858705148,0.947914540768,0,0,0,0,0,469549280.0
1505356813775675873,11447,1505356813775482518,91.0,2,-23,-3,-23,98740,401,0.0,0.0,0.0,-1.47399997711,-6.5689997673,-46.6520004272,0,0.0,-0.0,-0.0,0.0831045806408,-0.00394619628787,0.947934567928,0,0,0,0,0,469554336.0
1505356813780498447,11448,1505356813780299460,91.0,2,-23,-3,-23,98737,401,0.0,0.0,0.0,-1.47300004959,-6.5689997673,-46.6529998779,0,0.0,-0.0,-0.0,0.0830746218562,-0.00413682265207,0.947923839092,0,0,0,0,0,469559424.0
1505356813785209811,11449,1505356813784804787,91.0,2,-19,-1,-17,98734,401,0.0,0.0,0.0,-1.47200000286,-6.5689997673,-46.6539993286,0,0.0,-0.0,-0.0,0.0830628871918,-0.00377992726862,0.947922825813,0,0,0,0,0,469564416.0
1505356813789853454,11450,1505356813789648348,91.0,2,-19,-1,-17,98734,401,0.0,0.0,0.0,-1.47099995613,-6.5689997673,-46.6549987793,0,0.0,-0.0,-0.0,0.0830278769135,-0.00382992788218,0.947928726673,0,0,0,0,0,469569440.0
1505356813795550666,11451,1505356813795175271,91.0,2,-23,-1,-19,98737,401,0.0,0.0,0.0,-1.47099995613,-6.5689997673,-46.65599823,0,0.0,-0.0,-0.0,0.0830154940486,-0.00536635145545,0.947929680347,0,0,0,0,0,469574560.0
1505356813799929291,11452,1505356813799730683,91.0,2,-23,-1,-19,98737,401,0.0,0.0,0.0,-1.47099995613,-6.5689997673,-46.6570014954,0,0.0,-0.0,-0.0,0.0830121859908,-0.00714194588363,0.947945296764,0,0,0,0,0,469579552.0
1505356813804982713,11453,1505356813804787146,91.0,2,-26,0,-18,98737,401,0.0,0.0,0.0,-1.47200000286,-6.5689997673,-46.658000946,0,0.0,-0.0,-0.0,0.0830078423023,-0.0107097523287,0.947958469391,0,0,0,0,0,469584448.0
1505356813813276098,11454,1505356813813019027,91.0,2,-26,0,-18,98740,401,0.0,0.0,0.0,-1.47300004959,-6.5689997673,-46.658000946,0,0.0,-0.0,-0.0,0.0830101370811,-0.0122549133375,0.947966814041,0,0,0,0,0,469589472.0
1505356813815261770,11455,1505356813815015804,91.0,2,-20,-4,-16,98740,401,0.0,0.0,0.0,-1.47399997711,-6.5689997673,-46.6590003967,0,0.0,-0.0,-0.0,0.0830061733723,-0.0128486193717,0.947970688343,0,0,0,0,0,469594592.0
1505356813819929170,11456,1505356813819746923,91.0,2,-20,-4,-16,98737,401,0.0,0.0,0.0,-1.47500002384,-6.5689997673,-46.6599998474,0,0.0,-0.0,-0.0,0.083013638854,-0.0121652716771,0.949494123459,0,0,0,0,0,469599520.0
1505356813825174440,11457,1505356813824809313,91.0,2,-22,0,-18,98737,401,0.0,0.0,0.0,-1.47500002384,-6.5689997673,-46.6599998474,0,0.0,-0.0,-0.0,0.08303078264,-0.0107979308814,0.951363742352,0,0,0,0,0,469604544.0
