%time,field.header.seq,field.header.stamp,field.header.frame_id,field.pose.position.x,field.pose.position.y,field.pose.position.z,field.pose.orientation.x,field.pose.orientation.y,field.pose.orientation.z,field.pose.orientation.w
1505356812450058296,6120,1505356812449830642,world,0.395805865526,0.82890689373,0.466480791569,-0.0466756820679,-0.997569203377,-0.0200741961598,0.0476874038577
1505356812460160824,6121,1505356812460026345,world,0.395806103945,0.828933000565,0.466480344534,-0.0466655641794,-0.997569978237,-0.0200632363558,0.0476855561137
1505356812470513939,6122,1505356812470337348,world,0.395810335875,0.828888833523,0.46648851037,-0.046697281301,-0.997569262981,-0.0200651995838,0.0476694628596
1505356812480794915,6123,1505356812480588013,world,0.395809590816,0.82892614603,0.466474801302,-0.0466818474233,-0.997569382191,-0.0200450606644,0.0476890727878
1505356812480810062,6124,1505356812480615880,world,0.395808935165,0.828903675079,0.466475069523,-0.0466700568795,-0.997570157051,-0.0200769864023,0.0476732179523
1505356812500224706,6125,1505356812500089840,world,0.395800322294,0.828931927681,0.466516464949,-0.046700168401,-0.997569382191,-0.0200303625315,0.0476778186858
1505356812510641481,6126,1505356812510405349,world,0.3958081007,0.828917741776,0.466478049755,-0.0466649569571,-0.997570216656,-0.0200724732131,0.0476780384779
1505356812510656500,6127,1505356812510479992,world,0.395809829235,0.828876435757,0.466476351023,-0.0466951727867,-0.997568964958,-0.0200523305684,0.0476825907826
1505356812530123624,6128,1505356812529892035,world,0.39580899477,0.8289514184,0.466523677111,-0.0466914847493,-0.997569978237,-0.0200323667377,0.0476732887328
1505356812540317046,6129,1505356812540143432,world,0.39581400156,0.828880190849,0.466451019049,-0.0466737113893,-0.997569203377,-0.0200778655708,0.04768743366
1505356812550487214,6130,1505356812550362288,world,0.395816296339,0.828893721104,0.466490924358,-0.046670909971,-0.99757039547,-0.0200518015772,0.0476760715246
1505356812560848741,6131,1505356812560593541,world,0.395807623863,0.828948378563,0.466519623995,-0.0467079654336,-0.997569441795,-0.0200038328767,0.0476805791259
1505356812560854525,6132,1505356812560620116,world,0.395814448595,0.828930199146,0.466479688883,-0.0466803349555,-0.997569680214,-0.0200450047851,0.0476856045425
1505356812580136529,6133,1505356812580013502,world,0.3958157897,0.828902065754,0.466509670019,-0.0466932654381,-0.9975695014,-0.0200303141028,0.0476825907826
1505356812590447828,6134,1505356812590264455,world,0.395819664001,0.828844368458,0.466454982758,-0.0466631613672,-0.997569561005,-0.0201041791588,0.0476808212698
1505356812590452490,6135,1505356812590288392,world,0.395814716816,0.828935980797,0.466481566429,-0.0466778241098,-0.997570812702,-0.0200304761529,0.0476702861488
1505356812611028379,6136,1505356812610725294,world,0.395815104246,0.828954935074,0.466524004936,-0.0467033684254,-0.997569799423,-0.0200199019164,0.0476701259613
1505356812620133002,6137,1505356812619948277,world,0.395817190409,0.828879415989,0.466458648443,-0.0466944798827,-0.99756872654,-0.0200643893331,0.0476829148829
1505356812630530896,6138,1505356812630294563,world,0.395822495222,0.828908801079,0.466475129128,-0.0466674640775,-0.997570097446,-0.020053088665,0.0476846285164
1505356812640697323,6139,1505356812640516312,world,0.395811229944,0.828923106194,0.466512560844,-0.0466974414885,-0.997569441795,-0.020036553964,0.0476761758327
1505356812650076280,6140,1505356812649857714,world,0.3958119452,0.828921079636,0.466483443975,-0.0466842539608,-0.997569322586,-0.0200505610555,0.0476855672896
1505356812660315977,6141,1505356812660129472,world,0.395812034607,0.828869819641,0.466463387012,-0.0466949678957,-0.997568786144,-0.0200328864157,0.047695081681
1505356812670671337,6142,1505356812670389838,world,0.395813316107,0.828880429268,0.466496407986,-0.0466997213662,-0.997568368912,-0.0200652536005,0.0476855188608
1505356812680870166,6143,1505356812680620111,world,0.395811498165,0.828965783119,0.466489583254,-0.0466740913689,-0.997569143772,-0.0200585536659,0.0476973243058
1505356812680874817,6144,1505356812680648968,world,0.395813554525,0.828898787498,0.466475188732,-0.0466971434653,-0.997568011284,-0.0200596936047,0.0476975664496
1505356812700380350,6145,1505356812700223126,world,0.395819842815,0.828880786896,0.466485798359,-0.0466954857111,-0.997569799423,-0.0200407598168,0.0476701818407
1505356812710745299,6146,1505356812710516678,world,0.395817697048,0.828912436962,0.466457813978,-0.0466890484095,-0.997568964958,-0.0200581233948,0.0476866997778
1505356812710750552,6147,1505356812710572651,world,0.395817786455,0.828939914703,0.466526627541,-0.0467080660164,-0.9975695014,-0.0200161784887,0.0476729795337
1505356812730147478,6148,1505356812729942936,world,0.395815044641,0.828900456429,0.466494202614,-0.0466976538301,-0.9975695014,-0.0200348496437,0.0476768128574
1505356812740411522,6149,1505356812740212800,world,0.395814448595,0.828849434853,0.466432452202,-0.046695958823,-0.99756783247,-0.0200754385442,0.0476958043873
1505356812750631584,6150,1505356812750426393,world,0.39581438899,0.828895807266,0.466488957405,-0.0466944091022,-0.997569262981,-0.0200470127165,0.0476779341698
1505356812760810323,6151,1505356812760659265,world,0.395806968212,0.828938126564,0.466489613056,-0.046720482409,-0.997567713261,-0.0200133211911,0.0477004237473
1505356812770124225,6152,1505356812769871244,world,0.395818501711,0.828937768936,0.466483622789,-0.0466904528439,-0.997569262981,-0.0200409777462,0.047685906291
1505356812780228086,6153,1505356812780072047,world,0.395826280117,0.828869342804,0.46648183465,-0.0466927886009,-0.997569561005,-0.0200426094234,0.0476783029735
1505356812790488492,6154,1505356812790305442,world,0.395823448896,0.828897416592,0.466462284327,-0.046688709408,-0.9975695014,-0.0200509801507,0.0476789996028
1505356812800775990,6155,1505356812800585005,world,0.395822674036,0.828913271427,0.46647337079,-0.0466911494732,-0.99756860733,-0.0200602505356,0.0476897954941
1505356812859875253,6156,1505356812859701686,world,0.395821452141,0.82889765501,0.466484874487,-0.0466939434409,-0.997569024563,-0.0200292058289,0.0476926378906
1505356812870159957,6157,1505356812869959026,world,0.39581951499,0.828880012035,0.466486632824,-0.0466778315604,-0.997569739819,-0.0200634412467,0.04767825827
1505356812880315849,6158,1505356812880151765,world,0.395815402269,0.828903138638,0.466457664967,-0.0467062667012,-0.997567713261,-0.0200655627996,0.0476920343935
1505356812890563800,6159,1505356812890363462,world,0.395815461874,0.828936338425,0.466523528099,-0.04669367522,-0.997569918633,-0.0200352706015,0.0476714372635
1505356812890606564,6160,1505356812890395266,world,0.395812988281,0.828890681267,0.466478735209,-0.0466837435961,-0.997569382191,-0.0200691502541,0.0476795583963
1505356812900847672,6161,1505356812900666537,world,0.395829439163,0.828899085522,0.466457158327,-0.0466716364026,-0.997569739819,-0.0200650226325,0.0476853698492
1505356812920220475,6162,1505356812920056265,world,0.395818591118,0.82893204689,0.466519027948,-0.0467101149261,-0.997569024563,-0.0200143679976,0.0476819425821
1505356812930514974,6163,1505356812930313653,world,0.395822674036,0.828909635544,0.466492146254,-0.0466987192631,-0.997569918633,-0.0200318116695,0.0476677790284
1505356812930526904,6164,1505356812930342702,world,0.395820766687,0.828873813152,0.46646553278,-0.0466845184565,-0.997568905354,-0.0200831089169,0.0476810634136
1505356812950018510,6165,1505356812949722488,world,0.395824044943,0.828863501549,0.466486126184,-0.0466890223324,-0.997569203377,-0.0200641341507,0.0476785600185
1505356812960092210,6166,1505356812959945334,world,0.39581823349,0.828936994076,0.466478258371,-0.0466946959496,-0.997569203377,-0.0200399849564,0.047683659941
1505356812970408208,6167,1505356812970187396,world,0.395813465118,0.828942477703,0.466486781836,-0.046705648303,-0.997568488121,-0.0200345143676,0.0476894825697
1505356812980615148,6168,1505356812980443007,world,0.395819932222,0.828878343105,0.466503232718,-0.0467103645205,-0.997569024563,-0.0200314950198,0.0476748049259
1505356812980620493,6169,1505356812980479653,world,0.395813524723,0.828909277916,0.466472893953,-0.0466985590756,-0.997569262981,-0.0200512874871,0.0476735681295
1505356812990870518,6170,1505356812990684622,world,0.395811676979,0.828896582127,0.466486632824,-0.0467043742537,-0.997568368912,-0.0200539249927,0.0476851649582
1505356813010285649,6171,1505356813010129563,world,0.395810455084,0.82890355587,0.466498851776,-0.0466956011951,-0.997569441795,-0.0200458280742,0.0476738661528
1505356813020604854,6172,1505356813020369981,world,0.395812869072,0.828909754753,0.466466873884,-0.0467199608684,-0.99756783247,-0.0200346726924,0.0476880185306
1505356813020610799,6173,1505356813020414629,world,0.395816504955,0.828883349895,0.466490358114,-0.0466955713928,-0.997569024563,-0.0200791470706,0.0476691536605
1505356813040038835,6174,1505356813039855039,world,0.395811289549,0.828919529915,0.46650660038,-0.0466943234205,-0.997569799423,-0.0200323108584,0.0476753413677
1505356813050272171,6175,1505356813050059230,world,0.395812213421,0.828915476799,0.466463983059,-0.0467044189572,-0.997568428516,-0.0200568772852,0.0476840026677
1505356813110404339,6176,1505356813110225704,world,0.395813256502,0.828892350197,0.466468125582,-0.0466827191412,-0.9975695014,-0.0200670622289,0.0476775467396
1505356813120618130,6177,1505356813120445488,world,0.395809203386,0.828929662704,0.466516703367,-0.0466986708343,-0.997569084167,-0.0200351439416,0.0476838387549
1505356813130998753,6178,1505356813130583409,world,0.395810425282,0.828942239285,0.46649518609,-0.0466832965612,-0.997569799423,-0.0200435929,0.0476810671389
1505356813131034007,6179,1505356813130624539,world,0.395814985037,0.828886032104,0.466481477022,-0.0466905012727,-0.997569680214,-0.0200439020991,0.0476753637195
1505356813150387082,6180,1505356813150195178,world,0.395816832781,0.828871011734,0.466503411531,-0.046668227762,-0.997570514679,-0.0200705397874,0.0476692058146
1505356813160614440,6181,1505356813160445608,world,0.395806282759,0.828913152218,0.466469615698,-0.0466963760555,-0.997568905354,-0.0200534146279,0.0476815886796
1505356813160622032,6182,1505356813160469533,world,0.395802795887,0.828926503658,0.466492950916,-0.0467146858573,-0.997568309307,-0.0200136937201,0.0476930066943
1505356813170975665,6183,1505356813170708285,world,0.395811259747,0.828911423683,0.466497927904,-0.0466741323471,-0.997569143772,-0.0200778059661,0.0476882643998
1505356813190358055,6184,1505356813190143616,world,0.395813345909,0.828885614872,0.466454446316,-0.046688772738,-0.997568786144,-0.0200661793351,0.0476879142225
1505356813200545943,6185,1505356813200338410,world,0.395806282759,0.82891201973,0.466504305601,-0.0466879196465,-0.997570097446,-0.0200368873775,0.0476726256311
1505356813200634485,6186,1505356813200365892,world,0.395802170038,0.828931868076,0.466502487659,-0.0467028357089,-0.997568488121,-0.0200447961688,0.0476866103709
1505356813210942110,6187,1505356813210675684,world,0.395809352398,0.828887999058,0.466448962688,-0.0467067249119,-0.99756783247,-0.0200655758381,0.0476878844202
1505356813230333241,6188,1505356813230082332,world,0.395803719759,0.82891112566,0.466496676207,-0.0466846749187,-0.997569441795,-0.0200559087098,0.0476827435195
1505356813240629914,6189,1505356813240362163,world,0.395811855793,0.828911364079,0.466499835253,-0.0467020347714,-0.997568905354,-0.0200394783169,0.0476829074323
1505356813240635913,6190,1505356813240390747,world,0.395818293095,0.828897535801,0.466465622187,-0.0466849282384,-0.997569561005,-0.0200551468879,0.0476790256798
1505356813250969574,6191,1505356813250759992,world,0.395818144083,0.828908622265,0.466498941183,-0.0466665923595,-0.997570097446,-0.0200699139386,0.0476795956492
1505356813270349418,6192,1505356813270150171,world,0.39581105113,0.828908741474,0.466473639011,-0.04669027403,-0.997568845749,-0.0200714189559,0.047680940479
1505356813280566560,6193,1505356813280410703,world,0.395810961723,0.828925013542,0.46649312973,-0.0466789156199,-0.997570216656,-0.0200543403625,0.0476708374918
1505356813290820731,6194,1505356813290645476,world,0.395808339119,0.828890144825,0.466501921415,-0.046697113663,-0.997569143772,-0.0200442969799,0.0476789139211
1505356813290827733,6195,1505356813290668688,world,0.395810216665,0.828889727592,0.466479003429,-0.0466963686049,-0.997569084167,-0.0200538448989,0.0476776957512
1505356813310213607,6196,1505356813310073504,world,0.39580515027,0.828918457031,0.466493278742,-0.0466850735247,-0.997569680214,-0.0200482420623,0.0476791784167
1505356813320502151,6197,1505356813320340732,world,0.395808517933,0.828896760941,0.466494470835,-0.04669823125,-0.997568845749,-0.0200460292399,0.0476851835847
1505356813330717851,6198,1505356813330565414,world,0.395808309317,0.828924059868,0.466469854116,-0.0466842614114,-0.997569382191,-0.0200461801142,0.0476869009435
1505356813339893574,6199,1505356813339742853,world,0.395813465118,0.828883290291,0.466489702463,-0.0466970317066,-0.99756783247,-0.0200682338327,0.0476971380413
1505356813351372888,6200,1505356813351168915,world,0.395811408758,0.828920781612,0.466514259577,-0.0467020720243,-0.997569084167,-0.020033031702,0.0476820059121
1505356813351417311,6201,1505356813351231706,world,0.395809710026,0.82890444994,0.466469943523,-0.0466795563698,-0.997569322586,-0.0200583711267,0.0476874150336
1505356813370905443,6202,1505356813370642900,world,0.395811766386,0.828869521618,0.466482847929,-0.0467093884945,-0.99756860733,-0.0200564786792,0.0476746745408
1505356813370914416,6203,1505356813370702470,world,0.395807743073,0.828938961029,0.466503173113,-0.0466895699501,-0.997568309307,-0.0200554151088,0.0476998724043
1505356813390491451,6204,1505356813390318341,world,0.395811080933,0.828907907009,0.466467380524,-0.0467138923705,-0.997567355633,-0.0200576428324,0.0476972199976
1505356813400791149,6205,1505356813400554594,world,0.395817816257,0.828911006451,0.46650531888,-0.0466696247458,-0.997570514679,-0.0200528595597,0.0476745590568
1505356813400804227,6206,1505356813400616415,world,0.395813584328,0.828899681568,0.466481566429,-0.0467016212642,-0.99756872654,-0.0200371295214,0.0476896762848
1505356813420286456,6207,1505356813420135786,world,0.395807057619,0.828880012035,0.466468840837,-0.0466993898153,-0.997567653656,-0.0200767330825,0.0476967431605
1505356813430706329,6208,1505356813430367838,world,0.395806074142,0.828931987286,0.466520398855,-0.046705942601,-0.997569203377,-0.0200176853687,0.0476809740067
1505356813440764177,6209,1505356813440580875,world,0.395811796188,0.82890945673,0.466484457254,-0.0467177964747,-0.997567534447,-0.0200402308255,0.0476944260299
1505356813440768461,6210,1505356813440602698,world,0.39581143856,0.828917086124,0.46649351716,-0.0466920882463,-0.99756860733,-0.0200409535319,0.0476969666779
1505356813460159753,6211,1505356813459988621,world,0.395810008049,0.828881084919,0.466504096985,-0.0466777831316,-0.997569620609,-0.0200776979327,0.0476745404303
1505356813470606569,6212,1505356813470354506,world,0.395811021328,0.828895688057,0.466460347176,-0.0466970577836,-0.997567951679,-0.0200665295124,0.0476956367493
1505356813480720164,6213,1505356813480594212,world,0.395795792341,0.828927755356,0.466505020857,-0.0467047616839,-0.997568249702,-0.0200310852379,0.0476967841387
1505356813490316350,6214,1505356813489893667,world,0.395809322596,0.828924000263,0.466527253389,-0.0466819219291,-0.997570097446,-0.0200503002852,0.0476717539132
1505356813500335450,6215,1505356813500184199,world,0.395812511444,0.828903615475,0.466474592686,-0.0466783195734,-0.9975695014,-0.0200739651918,0.0476788803935
1505356813510585606,6216,1505356813510439737,world,0.395814865828,0.828854739666,0.466501235962,-0.0466921664774,-0.9975695014,-0.0200631227344,0.0476695336401
1505356813520737400,6217,1505356813520629455,world,0.395804584026,0.828920066357,0.466512024403,-0.0466801598668,-0.997569680214,-0.0200642030686,0.0476779676974
1505356813520766366,6218,1505356813520671753,world,0.395803004503,0.828959643841,0.46649608016,-0.0467189885676,-0.997568249702,-0.0200205836445,0.0476880483329
1505356813540298139,6219,1505356813540168004,world,0.395816534758,0.828883945942,0.466507583857,-0.046682715416,-0.997570216656,-0.0200600344688,0.0476642772555
1505356813550630342,6220,1505356813550486598,world,0.395808637142,0.8288808465,0.466502070427,-0.0466805398464,-0.997569203377,-0.0200688559562,0.0476851984859
1505356813560897194,6221,1505356813560727236,world,0.395800977945,0.828898668289,0.466497570276,-0.0466922782362,-0.997568786144,-0.0200716778636,0.0476809814572
1505356813560953312,6222,1505356813560749377,world,0.395805299282,0.828936517239,0.466533958912,-0.0466773733497,-0.99757039547,-0.020056752488,0.0476684384048
1505356813580430063,6223,1505356813580263300,world,0.395807027817,0.828886687756,0.466478466988,-0.0466808080673,-0.997568905354,-0.0200896784663,0.0476810820401
1505356813590652676,6224,1505356813590482005,world,0.395801663399,0.82891201973,0.466484546661,-0.046700976789,-0.997568905354,-0.0200296193361,0.0476875267923
1505356813599833462,6225,1505356813599684471,world,0.395801335573,0.828920006752,0.466524362564,-0.0466874688864,-0.997569203377,-0.0200432240963,0.0476876311004
1505356813610045053,6226,1505356813609897683,world,0.395803630352,0.828891038895,0.466488093138,-0.0466998293996,-0.997568547726,-0.020051356405,0.0476868823171
1505356813620208643,6227,1505356813620050728,world,0.395802289248,0.82888764143,0.466492325068,-0.0466908290982,-0.997568786144,-0.0200666245073,0.0476841628551
1505356813630523419,6228,1505356813630276346,world,0.395799636841,0.828907907009,0.466518878937,-0.0466799773276,-0.997569143772,-0.0200779382139,0.0476825349033
1505356813640659869,6229,1505356813640522326,world,0.395803242922,0.828930556774,0.466503053904,-0.0466711446643,-0.997570097446,-0.020062064752,0.0476779825985
1505356813649866954,6230,1505356813649707513,world,0.395799726248,0.828889131546,0.466504007578,-0.046692840755,-0.997568130493,-0.0200865063816,0.0476895235479
1505356813660228951,6231,1505356813659967955,world,0.395803242922,0.828867077827,0.466494053602,-0.0466767065227,-0.997570037842,-0.0200762432069,0.0476682856679
1505356813670376902,6232,1505356813670187929,world,0.395801186562,0.828939020634,0.466481000185,-0.0466960296035,-0.997568845749,-0.0200363174081,0.0476914569736
1505356813680623621,6233,1505356813680457544,world,0.395802766085,0.828910171986,0.46650493145,-0.0466703958809,-0.997569441795,-0.02007891424,0.0476841144264
1505356813680685317,6234,1505356813680513979,world,0.395803570747,0.828924715519,0.466505229473,-0.0467138960958,-0.997568309307,-0.020035488531,0.0476857237518
1505356813690941732,6235,1505356813690725173,world,0.395800560713,0.828917503357,0.466488867998,-0.0466706305742,-0.997569918633,-0.0200777091086,0.0476769395173
1505356813710368390,6236,1505356813710214374,world,0.395801246166,0.828867256641,0.466502010822,-0.0466919019818,-0.997569024563,-0.0200534723699,0.047683313489
1505356813720616557,6237,1505356813720417694,world,0.39578962326,0.828936755657,0.466517776251,-0.0466730818152,-0.997569620609,-0.0200639367104,0.047685097903
1505356813731022783,6238,1505356813730715560,world,0.395792961121,0.828923404217,0.466488838196,-0.046691223979,-0.997568428516,-0.0200666598976,0.0476930700243
1505356813740250089,6239,1505356813740087656,world,0.395796209574,0.82890188694,0.466514706612,-0.0466977506876,-0.997568488121,-0.0200538355857,0.0476886332035
1505356813750496758,6240,1505356813750287051,world,0.395800709724,0.82889854908,0.466499119997,-0.0466811396182,-0.997569561005,-0.0200631488115,0.0476786382496
1505356813760784533,6241,1505356813760611160,world,0.395808041096,0.828856766224,0.466492682695,-0.0466675721109,-0.997568905354,-0.0200978871435,0.0476922169328
1505356813770075227,6242,1505356813769886049,world,0.39579769969,0.828960001469,0.466548323631,-0.0466849021614,-0.997569680214,-0.0200311839581,0.0476863160729
1505356813780267153,6243,1505356813780110485,world,0.395799219608,0.828931748867,0.466495215893,-0.0466950535774,-0.997568488121,-0.0200555175543,0.0476918779314
1505356813790490701,6244,1505356813790360403,world,0.395802438259,0.82887595892,0.466492116451,-0.0466952547431,-0.997568547726,-0.0200697984546,0.0476847328246
1505356813800765820,6245,1505356813800588714,world,0.395800948143,0.828921854496,0.466527283192,-0.0466694496572,-0.997570693493,-0.0200573727489,0.0476700253785
1505356813800769874,6246,1505356813800614082,world,0.395804017782,0.828884780407,0.466474890709,-0.0466826632619,-0.997568488121,-0.0200954917818,0.0476880371571
1505356813820314298,6247,1505356813820071023,world,0.39580398798,0.828912734985,0.466512441635,-0.0466963164508,-0.997568905354,-0.0200488809496,0.0476838685572
1505356813830679999,6248,1505356813830356454,world,0.395807385445,0.828945755959,0.466519355774,-0.0466689355671,-0.997569978237,-0.0200551878661,0.0476855821908
1505356813840774101,6249,1505356813840587839,world,0.395803749561,0.828926861286,0.466493666172,-0.0466896258295,-0.997568428516,-0.0200652126223,0.0476942881942
1505356813840790518,6250,1505356813840621592,world,0.395806401968,0.82889187336,0.466516941786,-0.0466802455485,-0.997569441795,-0.020072080195,0.0476798862219
1505356813860260222,6251,1505356813860064760,world,0.395810306072,0.828877747059,0.466495037079,-0.0466807633638,-0.9975695014,-0.0200470853597,0.0476865433156
1505356813870974005,6252,1505356813870270569,world,0.395797222853,0.828944087029,0.466502130032,-0.0467037297785,-0.997568309307,-0.020051330328,0.0476881153882
1505356813880693851,6253,1505356813880480835,world,0.395796000957,0.82894384861,0.466529518366,-0.0466901883483,-0.997568964958,-0.0200510490686,0.0476878024638
1505356813891066882,6254,1505356813890662304,world,0.395807534456,0.82887917757,0.46648645401,-0.0466757453978,-0.997569262981,-0.0200782250613,0.0476840361953
1505356813900052520,6255,1505356813899887321,world,0.395805299282,0.828877925873,0.466485738754,-0.0466916114092,-0.997568309307,-0.0200796667486,0.0476893000305
1505356813910405944,6256,1505356813910140193,world,0.395804136992,0.828930199146,0.466545075178,-0.0466724708676,-0.997569799423,-0.0200552865863,0.0476857498288
1505356813920639696,6257,1505356813920423820,world,0.395809471607,0.828922688961,0.466509580612,-0.0466854646802,-0.997568964958,-0.0200629737228,0.0476889014244
1505356813931052167,6258,1505356813930691433,world,0.395801365376,0.828887939453,0.466491699219,-0.0467060357332,-0.997568428516,-0.0200582407415,0.0476806461811
1505356813931062079,6259,1505356813930721710,world,0.395803719759,0.828927457333,0.466535568237,-0.0466893836856,-0.997570037842,-0.0200453586876,0.0476697199047
1505356813950400205,6260,1505356813950219488,world,0.395800054073,0.828886091709,0.46649774909,-0.0467187575996,-0.997567355633,-0.0200716741383,0.0476848967373
1505356813960631328,6261,1505356813960454959,world,0.395805478096,0.828901290894,0.466523379087,-0.0466783121228,-0.997569143772,-0.0200895946473,0.0476785562932
1505356813970982986,6262,1505356813970730321,world,0.395805299282,0.82889944315,0.466526687145,-0.0466850548983,-0.997568845749,-0.0200717039406,0.0476870574057
1505356813970987908,6263,1505356813970759827,world,0.395809173584,0.828906774521,0.466500550508,-0.0466862134635,-0.997568130493,-0.0200715586543,0.0476995259523
1505356813990310078,6264,1505356813990129112,world,0.395808130503,0.828926742077,0.466532111168,-0.0467121601105,-0.997568249702,-0.0200332887471,0.0476889200509
1505356814000578654,6265,1505356814000369255,world,0.395808070898,0.828885912895,0.466503739357,-0.0466820672154,-0.997568190098,-0.0200843345374,0.0476974658668
1505356814010887203,6266,1505356814010624931,world,0.395810008049,0.828900098801,0.46649608016,-0.0466808155179,-0.997568547726,-0.0200858600438,0.0476915873587
1505356814020028942,6267,1505356814019927069,world,0.395809471607,0.828901290894,0.466537088156,-0.0466857776046,-0.99756860733,-0.0200731027871,0.0476912893355
1505356814030455814,6268,1505356814030301291,world,0.395799100399,0.828917324543,0.466522306204,-0.0467031113803,-0.99756783247,-0.0200646985322,0.0476919449866
1505356814040714665,6269,1505356814040538645,world,0.395802021027,0.828921973705,0.466509312391,-0.04667930305,-0.997568845749,-0.0200880151242,0.0476864464581
1505356814049913113,6270,1505356814049718582,world,0.395800828934,0.828888833523,0.466537564993,-0.046695150435,-0.997568488121,-0.0200734790415,0.0476821698248
1505356814060092976,6271,1505356814059963186,world,0.395800173283,0.828910470009,0.466527700424,-0.0466986633837,-0.99756860733,-0.0200600214303,0.0476821698248
1505356814070346702,6272,1505356814070189983,world,0.395804822445,0.828910946846,0.466519147158,-0.046678956598,-0.997568845749,-0.0200809128582,0.0476888343692
1505356814080586574,6273,1505356814080405897,world,0.3957939744,0.828917860985,0.466551184654,-0.0467008948326,-0.997568070889,-0.0200668592006,0.0476897656918
1505356814090870424,6274,1505356814090635335,world,0.395799249411,0.828882694244,0.46648555994,-0.0466981232166,-0.997568070889,-0.0200799703598,0.0476870313287
1505356814090878087,6275,1505356814090665216,world,0.395797640085,0.828882396221,0.466505080462,-0.0467005036771,-0.99756860733,-0.0200556423515,0.0476835370064
1505356814110378141,6276,1505356814110119905,world,0.395799934864,0.828949093819,0.46655407548,-0.046686720103,-0.997569680214,-0.0200408603996,0.0476801544428
1505356814120526095,6277,1505356814120349434,world,0.395800739527,0.828913986683,0.466506928205,-0.0466986224055,-0.997567772865,-0.0200762413442,0.0476933866739
1505356814130749394,6278,1505356814130586796,world,0.395801782608,0.828887879848,0.466538369656,-0.0466854013503,-0.997569620609,-0.0200670212507,0.0476725958288
1505356814139999672,6279,1505356814139822255,world,0.395798802376,0.828884541988,0.466509222984,-0.046688195318,-0.997567772865,-0.0200901404023,0.0476998388767
1505356814150281703,6280,1505356814150109687,world,0.395793199539,0.828930556774,0.46650993824,-0.0467096418142,-0.997567117214,-0.0200644358993,0.0477015227079
1505356814160476214,6281,1505356814160350023,world,0.395798027515,0.828927457333,0.466547816992,-0.0466865636408,-0.997569084167,-0.0200491137803,0.0476896837354
1505356814170748709,6282,1505356814170562585,world,0.39580014348,0.828877449036,0.466504752636,-0.0466773025692,-0.997569262981,-0.0200859028846,0.0476789586246
1505356814179903384,6283,1505356814179732885,world,0.395799636841,0.828915059566,0.466507673264,-0.0466673001647,-0.997569262981,-0.0200985483825,0.0476855970919
1505356814190062149,6284,1505356814189946129,world,0.395795822144,0.828928232193,0.466553628445,-0.0466803871095,-0.997569561005,-0.0200587604195,0.0476826988161
1505356814200325251,6285,1505356814200190445,world,0.395794183016,0.828937232494,0.466528624296,-0.0466801859438,-0.997568547726,-0.0200823005289,0.0476940199733
1505356814210547653,6286,1505356814210412661,world,0.39579719305,0.82888430357,0.46649441123,-0.0466677770019,-0.997568666935,-0.0201096627861,0.0476906374097
1505356814220761099,6287,1505356814220606427,world,0.395797073841,0.828869879246,0.466539025307,-0.0466580912471,-0.99757039547,-0.020105920732,0.0476662404835
1505356814230082014,6288,1505356814229851345,world,0.395789802074,0.828940272331,0.466526120901,-0.0467001833022,-0.997568011284,-0.0200496837497,0.0476989112794
1505356814240262511,6289,1505356814240117449,world,0.395793437958,0.82892537117,0.466524094343,-0.0466688163579,-0.9975695014,-0.020082147792,0.0476832948625
1505356814250453666,6290,1505356814250320894,world,0.39579385519,0.828892827034,0.466547101736,-0.0466743707657,-0.997569322586,-0.0200892873108,0.0476806238294
1505356814260735034,6291,1505356814260556736,world,0.395793527365,0.828907668591,0.466519057751,-0.046675067395,-0.997568786144,-0.0200872085989,0.0476909801364
1505356814270203876,6292,1505356814269931953,world,0.39578139782,0.828917443752,0.466550379992,-0.0466920882463,-0.997568666935,-0.0200760923326,0.0476820208132
1505356814280312131,6293,1505356814280155502,world,0.395783156157,0.828914642334,0.466549396515,-0.0466695837677,-0.997569918633,-0.0200780406594,0.0476784855127
1505356814290556834,6294,1505356814290386187,world,0.395787894726,0.828887104988,0.466482073069,-0.0466766916215,-0.997568309307,-0.020088179037,0.0476987622678
1505356814300794490,6295,1505356814300641478,world,0.395786494017,0.828916668892,0.46654227376,-0.0466841608286,-0.997569680214,-0.020054737106,0.0476768612862
1505356814310115509,6296,1505356814309925406,world,0.395782738924,0.828941226006,0.466543823481,-0.0466771125793,-0.997569620609,-0.0200541038066,0.0476855188608
1505356814320345738,6297,1505356814320168292,world,0.395787090063,0.82890599966,0.466504961252,-0.0466905385256,-0.997568011284,-0.020074557513,0.04769782722
1505356814330510591,6298,1505356814330379441,world,0.395796537399,0.828882873058,0.466540545225,-0.0466659739614,-0.997569441795,-0.020107159391,0.0476786307991
1505356814340797147,6299,1505356814340602344,world,0.395797222853,0.828949511051,0.466539353132,-0.0466693229973,-0.997569859028,-0.0200483035296,0.0476907156408
1505356814350219351,6300,1505356814349816320,world,0.395790159702,0.828942060471,0.466524153948,-0.046666983515,-0.997569322586,-0.0200706254691,0.0476956628263
1505356814360326686,6301,1505356814360171162,world,0.395792037249,0.828877270222,0.466535568237,-0.0466515794396,-0.997570157051,-0.0201011151075,0.0476787388325
1505356814370651925,6302,1505356814370361267,world,0.395796090364,0.828891515732,0.466495543718,-0.0466711074114,-0.997568547726,-0.0200807265937,0.047701895237
1505356814380735342,6303,1505356814380576450,world,0.395794093609,0.828924298286,0.466534912586,-0.0466732308269,-0.997568845749,-0.0200718641281,0.0476980619133
1505356814389937277,6304,1505356814389754889,world,0.395792990923,0.828960716724,0.466564595699,-0.0466604977846,-0.997570157051,-0.0200564097613,0.0476896800101
1505356814400191156,6305,1505356814399979898,world,0.395800888538,0.828904688358,0.466499209404,-0.0466710291803,-0.997568786144,-0.0200896244496,0.0476942397654
1505356814410368948,6306,1505356814410187783,world,0.395796060562,0.828876972198,0.466513603926,-0.0466798990965,-0.997568666935,-0.0200775619596,0.0476926006377
1505356814420612087,6307,1505356814420410879,world,0.395788729191,0.828921914101,0.466540813446,-0.046674400568,-0.99756872654,-0.0200887359679,0.0476931743324
1505356814430861476,6308,1505356814430652404,world,0.395796835423,0.828921020031,0.466511547565,-0.0466909110546,-0.997567594051,-0.0200730487704,0.0477067828178
1505356814440028375,6309,1505356814439874135,world,0.395792752504,0.828922271729,0.466542512178,-0.0466814599931,-0.997569024563,-0.0200627427548,0.0476919226348
1505356814450307472,6310,1505356814450104425,world,0.39579719305,0.828905045986,0.466525703669,-0.0466668121517,-0.99756860733,-0.0200940426439,0.0476998537779
1505356814460503063,6311,1505356814460336410,world,0.39579731226,0.828879058361,0.466479599476,-0.0466690734029,-0.997568130493,-0.0200933888555,0.047707926482
1505356814473773531,6312,1505356814470540245,world,0.39578923583,0.828914046288,0.466552555561,-0.0466732941568,-0.997569620609,-0.0200608614832,0.0476866178215
1505356814480052516,6313,1505356814479885408,world,0.395793497562,0.828926980495,0.466531693935,-0.046692840755,-0.997567415237,-0.0200673099607,0.0477105677128
1505356814490309970,6314,1505356814490138383,world,0.395792633295,0.828893721104,0.466500759125,-0.0466959923506,-0.997566878796,-0.02009328641,0.0477084033191
1505356814500573121,6315,1505356814500382712,world,0.395795404911,0.828903198242,0.466545820236,-0.0466824695468,-0.997568666935,-0.0200685244054,0.0476957708597
1505356814510917796,6316,1505356814510641695,world,0.39579564333,0.828914523125,0.466516375542,-0.0466853305697,-0.997567892075,-0.0200816560537,0.0477031953633
1505356814519993995,6317,1505356814519848501,world,0.395792126656,0.828925490379,0.466519594193,-0.0466814376414,-0.997568011284,-0.0200786367059,0.0477046631277
1505356814530248848,6318,1505356814530065034,world,0.395801842213,0.828869223595,0.466531395912,-0.0466417297721,-0.9975695014,-0.020125169307,0.0476929247379
1505356814540453024,6319,1505356814540323720,world,0.395792990923,0.828921556473,0.466516941786,-0.0466929264367,-0.997568190098,-0.0200685802847,0.0476929470897
1505356814550763458,6320,1505356814550647750,world,0.395792961121,0.828951299191,0.466553062201,-0.0466800816357,-0.997569262981,-0.020050464198,0.0476911999285
1505356814560074466,6321,1505356814559848995,world,0.395794451237,0.82889097929,0.466547101736,-0.0466727800667,-0.997568964958,-0.020101280883,0.047684494406
1505356814570333219,6322,1505356814570064048,world,0.395789563656,0.828886508942,0.466509222984,-0.0466948598623,-0.997568130493,-0.0200857054442,0.0476865433156
1505356814580411634,6323,1505356814580263251,world,0.395791590214,0.828889369965,0.466537863016,-0.04666903615,-0.997569143772,-0.0200769621879,0.0476932600141
1505356814590647241,6324,1505356814590487177,world,0.39579218626,0.828937828541,0.466564595699,-0.0466612204909,-0.997569620609,-0.0200877282768,0.0476874932647
1505356814600870051,6325,1505356814600686565,world,0.395788729191,0.828915178776,0.466522336006,-0.0466871038079,-0.997568368912,-0.0200751498342,0.0476929433644
1505356814610025346,6326,1505356814609898317,world,0.395799487829,0.828866422176,0.466533601284,-0.0466922223568,-0.997567713261,-0.0200757496059,0.0477017052472
1505356814620300814,6327,1505356814620135347,world,0.395790427923,0.828922510147,0.46656242013,-0.0466784238815,-0.997568964958,-0.0200837608427,0.0476855188608
1505356814630546521,6328,1505356814630357458,world,0.395789712667,0.828898012638,0.466505616903,-0.0466898456216,-0.997567772865,-0.0200892481953,0.0476973280311
1505356814640784240,6329,1505356814640611414,world,0.395786136389,0.828925132751,0.466564565897,-0.0466948002577,-0.997568368912,-0.0200595930219,0.0476929023862
1505356814650010533,6330,1505356814649847654,world,0.395786494017,0.828921735287,0.466547101736,-0.0466732680798,-0.997569382191,-0.0200788136572,0.0476827211678
1505356814660359322,6331,1505356814660182168,world,0.395792514086,0.828889012337,0.466503322124,-0.0467088483274,-0.99756705761,-0.0200707912445,0.0477014556527
1505356814670681752,6332,1505356814670466971,world,0.395794391632,0.828907072544,0.466564029455,-0.0466606505215,-0.997569978237,-0.020089795813,0.0476783253253
1505356814680925134,6333,1505356814680750949,world,0.39579257369,0.828911721706,0.466530829668,-0.0466715991497,-0.997568368912,-0.0200969967991,0.0476992279291
1505356814690268886,6334,1505356814689989389,world,0.395786046982,0.828943252563,0.466540426016,-0.0466753579676,-0.997568845749,-0.0200632493943,0.0476988628507
1505356814700618249,6335,1505356814700456875,world,0.395783483982,0.828914165497,0.466571599245,-0.0466642566025,-0.99757027626,-0.0200714878738,0.047677628696
1505356814711009270,6336,1505356814710647618,world,0.395787745714,0.828877329826,0.466504782438,-0.0466779768467,-0.997568011284,-0.0201075412333,0.047696493566
1505356814719997642,6337,1505356814719872594,world,0.395788162947,0.828921794891,0.466543793678,-0.0466842465103,-0.997569024563,-0.0200682990253,0.0476855747402
1505356814730236798,6338,1505356814730082429,world,0.395788043737,0.828917384148,0.466554552317,-0.0466667562723,-0.9975695014,-0.0200780648738,0.0476882979274
1505356814740425330,6339,1505356814740293501,world,0.395792841911,0.828911423683,0.466513305902,-0.0466699749231,-0.9975695014,-0.020078279078,0.0476843155921
1505356814750680940,6340,1505356814750505889,world,0.395792663097,0.828936636448,0.466550052166,-0.0466793067753,-0.997569322586,-0.0200498197228,0.0476903319359
1505356814760933134,6341,1505356814760736450,world,0.395791530609,0.828922688961,0.466560542583,-0.046654228121,-0.997569203377,-0.0201026946306,0.0476971268654
1505356814770094946,6342,1505356814769937600,world,0.39579346776,0.8288859725,0.466511815786,-0.0466669425368,-0.997569382191,-0.0200795549899,0.0476896762848
1505356814780242698,6343,1505356814780126220,world,0.395790547132,0.828913807869,0.466560602188,-0.0466436743736,-0.997570216656,-0.0200967919081,0.0476893484592
1505356814790618066,6344,1505356814790433756,world,0.395786166191,0.828932523727,0.466546982527,-0.0466794595122,-0.997569084167,-0.0200600773096,0.0476916469634
1505356814800815364,6345,1505356814800670295,world,0.395792454481,0.828906595707,0.466505050659,-0.0466737449169,-0.997568130493,-0.020090168342,0.0477059371769
1505356814810018219,6346,1505356814809887830,world,0.395787835121,0.828897535801,0.466557681561,-0.0466844812036,-0.997568488121,-0.0200616046786,0.0476996228099
1505356814820297707,6347,1505356814820132748,world,0.39578795433,0.828910112381,0.466520667076,-0.0466834157705,-0.997567534447,-0.0200811903924,0.0477111004293
1505356814830598464,6348,1505356814830404035,world,0.39578589797,0.82894808054,0.466538250446,-0.0466750487685,-0.997568666935,-0.0200861431658,0.047693297267
1505356814840781970,6349,1505356814840637824,world,0.395792663097,0.828897237778,0.466547638178,-0.0466755181551,-0.99756860733,-0.0200931690633,0.0476922169328
1505356814849991489,6350,1505356814849856317,world,0.395788818598,0.828900754452,0.466508746147,-0.046656999737,-0.997568964958,-0.0200888440013,0.0477048195899
1505356814860247384,6351,1505356814860094552,world,0.395783722401,0.8289321661,0.466541618109,-0.0466824322939,-0.997567892075,-0.0200818721205,0.0477051883936
1505356814870485581,6352,1505356814870325419,world,0.395794808865,0.828882694244,0.466535836458,-0.046680867672,-0.997567951679,-0.0200982969254,0.0476987063885
1505356814880663247,6353,1505356814880521131,world,0.395787030458,0.828929543495,0.4665107131,-0.0466906391084,-0.997567653656,-0.0200512968004,0.0477136969566
1505356814890960564,6354,1505356814890773361,world,0.395791202784,0.828907966614,0.466531813145,-0.0466811619699,-0.997568488121,-0.0200642701238,0.0477018393576
1505356814900422510,6355,1505356814900188180,world,0.395789921284,0.828916430473,0.466544181108,-0.0466829501092,-0.997568130493,-0.0200831312686,0.0476995557547
1505356814910611054,6356,1505356814910441428,world,0.395784407854,0.828945279121,0.466515034437,-0.0466744191945,-0.997568547726,-0.0200721286237,0.0477036684752
1505356814920909578,6357,1505356814920722537,world,0.395787924528,0.82886993885,0.466526061296,-0.0466740094125,-0.997567713261,-0.0201045740396,0.0477068610489
1505356814930194652,6358,1505356814929978224,world,0.395792275667,0.828917920589,0.46652919054,-0.0466767661273,-0.997568666935,-0.0200683046132,0.047701023519
1505356814940347734,6359,1505356814940192007,world,0.395788520575,0.828911721706,0.466506421566,-0.0466863326728,-0.997566878796,-0.0200958717614,0.0477158725262
1505356814950828354,6360,1505356814950438451,world,0.395793497562,0.828921675682,0.466551035643,-0.046676825732,-0.997568547726,-0.0200692415237,0.0477021373808
1505356814959926387,6361,1505356814959702672,world,0.395788192749,0.828951656818,0.466548413038,-0.0466773509979,-0.99756872654,-0.0200640745461,0.0476998798549
1505356814970185347,6362,1505356814969964625,world,0.395790189505,0.828880667686,0.466499954462,-0.0466662012041,-0.997568249702,-0.0201054755598,0.0477035939693
1505356814980299732,6363,1505356814980196867,world,0.395789086819,0.82889020443,0.466557949781,-0.0466524809599,-0.997569859028,-0.0201017893851,0.047684121877
1505356814990642495,6364,1505356814990447029,world,0.395781427622,0.82894796133,0.466545253992,-0.0466767288744,-0.997568130493,-0.0200708303601,0.0477090962231
1505356815000875406,6365,1505356815000681998,world,0.395785391331,0.828919649124,0.466537117958,-0.0466664507985,-0.997568964958,-0.0200968459249,0.0476913191378
1505356815010090205,6366,1505356815009907933,world,0.395791292191,0.828873991966,0.466554194689,-0.0466809086502,-0.997568368912,-0.0200916901231,0.0476924590766
1505356815020341152,6367,1505356815020190668,world,0.395787239075,0.828911960125,0.466521024704,-0.0466614030302,-0.997568309307,-0.020107364282,0.0477053970098
1505356815030623683,6368,1505356815030439029,world,0.39578461647,0.828952074051,0.466549903154,-0.0466778203845,-0.997568190098,-0.0200782958418,0.0477044805884
1505356815040780117,6369,1505356815040643916,world,0.39578011632,0.828924655914,0.466584205627,-0.0466711893678,-0.997568845749,-0.0200729910284,0.0476983226836
1505356815050050316,6370,1505356815049856483,world,0.395790606737,0.828898251057,0.466508507729,-0.0466407686472,-0.997569441795,-0.0201240535825,0.0476967766881
1505356815060280922,6371,1505356815060098234,world,0.395787715912,0.828896760941,0.466558218002,-0.0466665066779,-0.997568964958,-0.0201044622809,0.0476881228387
1505356815070456820,6372,1505356815070320228,world,0.395779430866,0.828941524029,0.466581195593,-0.0466718859971,-0.997569084167,-0.020061859861,0.0476991087198
1505356815080739591,6373,1505356815080581618,world,0.395778179169,0.828883290291,0.466520011425,-0.0466941520572,-0.997566819191,-0.0201179403812,0.0477002896369
1505356815089972768,6374,1505356815089753080,world,0.395780175924,0.82891446352,0.466563016176,-0.0466601736844,-0.997569143772,-0.0200913734734,0.047697506845
1505356815100202070,6375,1505356815099989472,world,0.395777225494,0.828956902027,0.466577321291,-0.0466747656465,-0.997568547726,-0.0200845766813,0.0476976148784
1505356815110409581,6376,1505356815110231555,world,0.395775467157,0.828915953636,0.466540724039,-0.0466817058623,-0.997567474842,-0.0200784970075,0.0477167665958
1505356815120581783,6377,1505356815120446233,world,0.395781606436,0.828930556774,0.466576248407,-0.0466444939375,-0.997570037842,-0.0200845468789,0.0476958975196
1505356815130849142,6378,1505356815130671799,world,0.395765930414,0.828883707523,0.466523081064,-0.0466696210206,-0.997568011284,-0.0201080814004,0.0477041192353
1505356815140080938,6379,1505356815139904145,world,0.395771145821,0.828921973705,0.466536819935,-0.0466733947396,-0.99756872654,-0.0200867056847,0.0476933047175
1505356815150282707,6380,1505356815150142646,world,0.395764440298,0.828944981098,0.466599851847,-0.0466787405312,-0.997568964958,-0.0200674682856,0.0476931780577
1505356815160615251,6381,1505356815160395252,world,0.395778059959,0.828905880451,0.466550737619,-0.0466672219336,-0.997569680214,-0.0200748555362,0.0476864874363
1505356815170835021,6382,1505356815170638145,world,0.395766198635,0.828921318054,0.466561645269,-0.0466994866729,-0.997568070889,-0.0200693681836,0.0476896315813
1505356815179976769,6383,1505356815179851872,world,0.395772457123,0.828892350197,0.466583698988,-0.0466636158526,-0.997569441795,-0.0200961064547,0.0476851947606
1505356815190279592,6384,1505356815190084659,world,0.395769625902,0.828941166401,0.466542303562,-0.0466496311128,-0.997569322586,-0.0201004073024,0.0477006398141
1505356815200532440,6385,1505356815200309576,world,0.395768553019,0.82895553112,0.466578811407,-0.0466595329344,-0.997569680214,-0.0200783554465,0.0476923659444
1505356815210700638,6386,1505356815210521289,world,0.395770668983,0.8288885355,0.466563969851,-0.0466799736023,-0.997568309307,-0.020088577643,0.0476966872811
1505356815220968892,6387,1505356815220758517,world,0.395767301321,0.828923344612,0.466530829668,-0.046663954854,-0.997569084167,-0.0200904235244,0.0476953722537
1505356815230247245,6388,1505356815230026630,world,0.39577049017,0.828907489777,0.466559618711,-0.0466573387384,-0.99756860733,-0.0201154574752,0.0477012209594
1505356815240431431,6389,1505356815240275736,world,0.395768851042,0.8289514184,0.466571122408,-0.0466699264944,-0.997568845749,-0.0200696866959,0.0477022975683
1505356815250703326,6390,1505356815250481887,world,0.395771116018,0.828962683678,0.466546952724,-0.0466362573206,-0.997569859028,-0.0201003309339,0.0477019958198
1505356815260885863,6391,1505356815260712249,world,0.395775079727,0.82888674736,0.466561764479,-0.0466543510556,-0.9975695014,-0.0200992580503,0.0476918667555
1505356815270230533,6392,1505356815269970646,world,0.395772844553,0.828917384148,0.466555893421,-0.0466444417834,-0.997569799423,-0.0200876891613,0.0476993694901
1505356815280337098,6393,1505356815280200585,world,0.395765930414,0.828917384148,0.466528564692,-0.0466558970511,-0.997568845749,-0.0200988724828,0.0477061159909
1505356815290671970,6394,1505356815290500825,world,0.3957695961,0.828926205635,0.466581285,-0.0466668531299,-0.997569322586,-0.0200854726136,0.0476893633604
1505356815300928722,6395,1505356815300735877,world,0.395768940449,0.828959524632,0.466554015875,-0.04665126279,-0.997568905354,-0.0200878474861,0.0477127656341
1505356815310159399,6396,1505356815309958885,world,0.395767152309,0.828888714314,0.466526269913,-0.0466830693185,-0.997567296028,-0.0201002117246,0.0477097481489
1505356815320383148,6397,1505356815320202043,world,0.395765990019,0.828916251659,0.466586440802,-0.0466742217541,-0.997569799423,-0.0200523585081,0.0476863458753
1505356815330636926,6398,1505356815330457956,world,0.395766526461,0.828918397427,0.466538369656,-0.0466441884637,-0.997568905354,-0.0201110318303,0.0477084256709
1505356815340837310,6399,1505356815340706074,world,0.395773410797,0.828904986382,0.466531336308,-0.0466656014323,-0.99756783247,-0.0201105438173,0.0477101169527
1505356815350133528,6400,1505356815349991984,world,0.395763576031,0.828941047192,0.466580986977,-0.0466656684875,-0.997569799423,-0.0200715046376,0.0476872622967
1505356815360568061,6401,1505356815360388328,world,0.395775079727,0.828930258751,0.466533213854,-0.0466766729951,-0.997568488121,-0.0200634617358,0.0477064885199
1505356815370789347,6402,1505356815370639651,world,0.395775347948,0.828902900219,0.46655279398,-0.046677172184,-0.997568666935,-0.0200761351734,0.0476976074278
1505356815380079274,6403,1505356815379836626,world,0.395768672228,0.828913986683,0.466565281153,-0.0466492883861,-0.997569024563,-0.0201180502772,0.0476985014975
1505356815390226963,6404,1505356815390087764,world,0.395763039589,0.828933656216,0.466544449329,-0.0466679632664,-0.997568786144,-0.0200903341174,0.0476969629526
1505356815400503910,6405,1505356815400320298,world,0.395770996809,0.828928053379,0.466578572989,-0.046646963805,-0.997569918633,-0.0201017335057,0.0476893894374
1505356815410866149,6406,1505356815410695812,world,0.395773351192,0.828902363777,0.466561645269,-0.0466524213552,-0.9975695014,-0.0201053079218,0.0476901046932
1505356815420015836,6407,1505356815419877722,world,0.395777851343,0.828884482384,0.466520905495,-0.0466650687158,-0.997568130493,-0.0201165433973,0.0477030389011
1505356815430247867,6408,1505356815430092962,world,0.395776391029,0.828918457031,0.466579586267,-0.0466528572142,-0.997569441795,-0.0200947318226,0.0476967319846
1505356815440542328,6409,1505356815440355425,world,0.395778030157,0.828927278519,0.466549903154,-0.0466671660542,-0.997568786144,-0.0200899876654,0.0476977676153
1505356815451286574,6410,1505356815450556434,world,0.395778179169,0.828913390636,0.466530531645,-0.0466819554567,-0.997568249702,-0.0200820621103,0.0476968809962
1505356815459838292,6411,1505356815459700937,world,0.39578166604,0.828939139843,0.466594904661,-0.0466838851571,-0.997569262981,-0.0200375393033,0.0476937256753
1505356815470069255,6412,1505356815469917739,world,0.395784705877,0.828907310963,0.466551780701,-0.0467039532959,-0.997567415237,-0.0200677216053,0.047698866576
1505356815480229884,6413,1505356815480118895,world,0.395794540644,0.828878343105,0.466541528702,-0.0466781407595,-0.997568845749,-0.0200929604471,0.047684289515
1505356815491106535,6414,1505356815490314121,world,0.395786255598,0.828903377056,0.466571748257,-0.0466688349843,-0.997568964958,-0.0200974531472,0.047689601779
1505356815500750950,6415,1505356815500594716,world,0.395790219307,0.828926503658,0.46653598547,-0.046680059284,-0.997568428516,-0.0200654473156,0.0477046146989
1505356815509924085,6416,1505356815509729052,world,0.395789474249,0.828933179379,0.466565608978,-0.0466813519597,-0.997568428516,-0.0200735814869,0.0476972982287
1505356815520077843,6417,1505356815519925580,world,0.395801872015,0.828865706921,0.466558039188,-0.0466610230505,-0.997568488121,-0.0201222747564,0.0476962476969
1505356815530405315,6418,1505356815530204406,world,0.395792841911,0.828894615173,0.466535806656,-0.0466981194913,-0.997566998005,-0.0200938601047,0.0477037094533
1505356815540538212,6419,1505356815540439636,world,0.395789444447,0.82896900177,0.466593921185,-0.046697370708,-0.997568786144,-0.020039236173,0.0476898364723
1505356815550839749,6420,1505356815550686434,world,0.395787596703,0.828885793686,0.466547250748,-0.0466663986444,-0.997569203377,-0.0200948622078,0.0476886183023
1505356815560035078,6421,1505356815559892316,world,0.395793110132,0.828891396523,0.46652507782,-0.0466682203114,-0.997568786144,-0.0200998969376,0.0476930327713
1505356815570311171,6422,1505356815570126268,world,0.395798921585,0.82890611887,0.466573387384,-0.0466602183878,-0.997569918633,-0.0200714413077,0.0476894378662
1505356815580466323,6423,1505356815580365776,world,0.395784467459,0.828940272331,0.466574847698,-0.0466769374907,-0.997568845749,-0.0200784504414,0.0476926080883
1505356815590993482,6424,1505356815590563273,world,0.395790547132,0.828907191753,0.466544896364,-0.0466748327017,-0.997568845749,-0.0200831536204,0.0476913750172
1505356815599900260,6425,1505356815599761470,world,0.395794272423,0.828876137733,0.466547578573,-0.0466643832624,-0.997569143772,-0.0200840700418,0.0476943664253
1505356815610121943,6426,1505356815609993508,world,0.395785927773,0.828949093819,0.466564953327,-0.0466816909611,-0.997568845749,-0.0200723353773,0.0476891770959
1505356815620452022,6427,1505356815620270255,world,0.395783513784,0.828938007355,0.466558545828,-0.0466964989901,-0.997568190098,-0.0200535133481,0.0476977452636
1505356815630746041,6428,1505356815630551359,world,0.395786821842,0.828890562057,0.46656036377,-0.0466609597206,-0.997569143772,-0.0201050415635,0.0476899705827
1505356815640253445,6429,1505356815640084398,world,0.395787388086,0.82887673378,0.466511726379,-0.0466663502157,-0.997568905354,-0.0200986228883,0.0476933009923
1505356815650486715,6430,1505356815650349314,world,0.395782709122,0.828925490379,0.466550022364,-0.0466903299093,-0.997568786144,-0.0200713276863,0.0476822406054
1505356815660746249,6431,1505356815660599352,world,0.395784825087,0.828956544399,0.466588377953,-0.0466858446598,-0.997568488121,-0.0200634226203,0.0476962849498
1505356815669956322,6432,1505356815669826698,world,0.39579051733,0.828911960125,0.466524094343,-0.0466687083244,-0.997568011284,-0.0200889743865,0.047714240849
1505356815680288237,6433,1505356815680039766,world,0.395798832178,0.828888475895,0.466554611921,-0.0466747358441,-0.997568249702,-0.0200915411115,0.0477012693882
1505356815690472610,6434,1505356815690318036,world,0.395788013935,0.828906357288,0.466551870108,-0.0466628968716,-0.997568786144,-0.0200991574675,0.0476974323392
1505356815699913556,6435,1505356815699744785,world,0.395783901215,0.828939378262,0.46653175354,-0.0466719642282,-0.99756860733,-0.0200745109469,0.0477038659155
1505356815710192689,6436,1505356815709999112,world,0.395783871412,0.828923940659,0.46655100584,-0.0466661117971,-0.997569322586,-0.0200818870217,0.0476909615099
1505356815720335991,6437,1505356815720208013,world,0.395781457424,0.828907489777,0.466539889574,-0.0466777831316,-0.997568786144,-0.0200652293861,0.0476976856589
1505356815730832981,6438,1505356815730415465,world,0.395785272121,0.828905880451,0.466534405947,-0.0466670095921,-0.99756860733,-0.0201068166643,0.047694530338
1505356815740856376,6439,1505356815740647064,world,0.395785331726,0.82890599966,0.466560661793,-0.0466836467385,-0.997568905354,-0.0200647935271,0.0476903878152
1505356815750000336,6440,1505356815749850896,world,0.395781308413,0.828954696655,0.466552168131,-0.0466799773276,-0.997568488121,-0.0200570635498,0.0477048046887
1505356815760210405,6441,1505356815760068277,world,0.395786494017,0.828911840916,0.466528981924,-0.0466717593372,-0.997568368912,-0.0200949329883,0.0477009154856
1505356815770456444,6442,1505356815770314320,world,0.39578473568,0.828889489174,0.466561853886,-0.046658039093,-0.997569382191,-0.0201099850237,0.0476864911616
1505356815780635399,6443,1505356815780499131,world,0.395779192448,0.828925490379,0.466546207666,-0.0467017777264,-0.997567713261,-0.0200519934297,0.0477028414607
1505356815790907537,6444,1505356815790736056,world,0.395778894424,0.828890025616,0.466524660587,-0.0466867610812,-0.997568130493,-0.02009466663,0.0476901829243
1505356815800159321,6445,1505356815800000117,world,0.395776003599,0.82894551754,0.466574251652,-0.0466730073094,-0.997569978237,-0.020064599812,0.0476782470942
1505356815810314277,6446,1505356815810161407,world,0.395785301924,0.828906536102,0.466524332762,-0.0466919317842,-0.997567355633,-0.0200744885951,0.0477104224265
1505356815820515609,6447,1505356815820354949,world,0.395781546831,0.828912079334,0.466549217701,-0.0466786511242,-0.997568249702,-0.0200874302536,0.0476993471384
1505356815830754369,6448,1505356815830577908,world,0.395781219006,0.828922271729,0.46657320857,-0.0466763228178,-0.997568905354,-0.0200690981001,0.0476953573525
1505356815839918942,6449,1505356815839752718,world,0.395790100098,0.828868091106,0.466514378786,-0.0466777607799,-0.997567355633,-0.0201191846281,0.0477059446275
1505356815850225423,6450,1505356815850036571,world,0.39577677846,0.828945755959,0.466565430164,-0.0466601699591,-0.997570097446,-0.0200606044382,0.047690231353
1505356815860485528,6451,1505356815860275230,world,0.395784825087,0.828919112682,0.466556489468,-0.0466786324978,-0.997568070889,-0.020094897598,0.0477005317807
1505356815870651692,6452,1505356815870501630,world,0.395781964064,0.828910291195,0.466537207365,-0.0466825477779,-0.997567653656,-0.0201094020158,0.0476990193129
1505356815881090249,6453,1505356815880709815,world,0.395785212517,0.828921020031,0.466573834419,-0.0466714017093,-0.997569084167,-0.0200818553567,0.0476910322905
1505356815890035743,6454,1505356815889892850,world,0.395788282156,0.828867614269,0.466542035341,-0.0466931052506,-0.997567415237,-0.0200857464224,0.0477034933865
1505356815900241449,6455,1505356815900088640,world,0.395787656307,0.828927874565,0.466553241014,-0.0466693788767,-0.997569143772,-0.0200868658721,0.0476882755756
1505356815910518197,6456,1505356815910352165,world,0.395783811808,0.828924179077,0.466575562954,-0.0466833934188,-0.997569561005,-0.0200780704618,0.047670841217
1505356815920778666,6457,1505356815920616296,world,0.395794004202,0.828897595406,0.466548413038,-0.0466883927584,-0.997568666935,-0.0200885888189,0.0476803034544
1505356815930130829,6458,1505356815929864909,world,0.395793884993,0.828906238079,0.46654945612,-0.046663466841,-0.997569084167,-0.0200986526906,0.0476931445301
1505356815940362693,6459,1505356815940162152,world,0.395792037249,0.828899681568,0.466574043036,-0.046695843339,-0.997567534447,-0.020084457472,0.0476976521313
1505356815950637404,6460,1505356815950466353,world,0.395791918039,0.828958272934,0.466569274664,-0.0466783121228,-0.997569322586,-0.0200505331159,0.0476927235723
1505356815960857314,6461,1505356815960687883,world,0.3957926929,0.828895926476,0.466550350189,-0.0466842837632,-0.997569084167,-0.020085407421,0.0476774908602
1505356815970111767,6462,1505356815969938442,world,0.395789563656,0.828884541988,0.46657794714,-0.0466916114092,-0.997569561005,-0.02006887272,0.0476673096418
1505356815980314476,6463,1505356815980132325,world,0.395797729492,0.828920245171,0.466546744108,-0.0466735251248,-0.997568666935,-0.020094120875,0.0476924739778
1505356815990471093,6464,1505356815990345642,world,0.395796984434,0.828911960125,0.466577768326,-0.0466764122248,-0.997569084167,-0.0200877282768,0.047683544457
1505356816000771689,6465,1505356816000536690,world,0.395796120167,0.82892292738,0.466585844755,-0.046699360013,-0.997568547726,-0.0200619716197,0.047684174031
1505356816009827734,6466,1505356816009703039,world,0.395799458027,0.828905761242,0.466530799866,-0.046703055501,-0.997567892075,-0.0200762394816,0.0476873964071
1505356816020203310,6467,1505356816019900618,world,0.395797997713,0.828924059868,0.46658167243,-0.0467008315027,-0.997568190098,-0.0200603920966,0.047690410167
1505356816030418827,6468,1505356816030206239,world,0.395799666643,0.828901231289,0.466572314501,-0.0466891974211,-0.99756860733,-0.0200860723853,0.0476828068495
1505356816040673124,6469,1505356816040430219,world,0.395799726248,0.828863799572,0.466528952122,-0.0466915257275,-0.99756783247,-0.0201041437685,0.0476872548461
1505356816050982261,6470,1505356816050613258,world,0.395793288946,0.828904569149,0.466591268778,-0.0466888062656,-0.9975695014,-0.0200691968203,0.0476703718305
1505356816059939870,6471,1505356816059804957,world,0.395793825388,0.828928291798,0.466563999653,-0.0467015169561,-0.997567772865,-0.0200771018863,0.0476907379925
1505356816070137086,6472,1505356816069984131,world,0.395795375109,0.828906476498,0.466543227434,-0.0466915369034,-0.997568070889,-0.0200862530619,0.0476910360157
1505356816080299474,6473,1505356816080178561,world,0.395802766085,0.828875243664,0.466572105885,-0.0466767586768,-0.997569799423,-0.0201006438583,0.0476625598967
1505356816090566884,6474,1505356816090397228,world,0.395802110434,0.828909873962,0.466546416283,-0.0466849543154,-0.997569024563,-0.0200707651675,0.0476847589016
1505356816100903456,6475,1505356816100744366,world,0.395796597004,0.828905344009,0.466576159,-0.046695727855,-0.997568130493,-0.020078683272,0.047688126564
1505356816110149846,6476,1505356816109982258,world,0.395801484585,0.828915059566,0.46657577157,-0.0466794483364,-0.997569739819,-0.0200650505722,0.0476769320667
1505356816120435798,6477,1505356816120203030,world,0.395796298981,0.82889187336,0.466536164284,-0.0466826111078,-0.997569024563,-0.0200906004757,0.0476772375405
1505356816130918070,6478,1505356816130473157,world,0.39580231905,0.828881084919,0.466559976339,-0.046688016504,-0.997569024563,-0.0200829431415,0.0476746931672
1505356816139873869,6479,1505356816139727717,world,0.395795315504,0.828924179077,0.466584324837,-0.046695727855,-0.997568488121,-0.0200577862561,0.0476902201772
1505356816150082321,6480,1505356816149978767,world,0.395801872015,0.828914403915,0.466539978981,-0.0466674417257,-0.997568786144,-0.0201074238867,0.0476901717484
1505356816160388463,6481,1505356816160245310,world,0.395804196596,0.828888297081,0.466568440199,-0.0467001385987,-0.997568309307,-0.0200702026486,0.0476832687855
1505356816170657246,6482,1505356816170490240,world,0.395801544189,0.828892767429,0.466572135687,-0.0466919653118,-0.997568845749,-0.0200793407857,0.0476769506931
1505356816179834789,6483,1505356816179694452,world,0.395801365376,0.828894138336,0.466537714005,-0.0467002317309,-0.997568428516,-0.0200720038265,0.0476814620197
1505356816190109663,6484,1505356816189922710,world,0.395801395178,0.828950047493,0.46660014987,-0.046682741493,-0.997569859028,-0.0200452189893,0.0476797148585
1505356816200385758,6485,1505356816200209747,world,0.39579424262,0.828882992268,0.466542392969,-0.0466811209917,-0.997568488121,-0.0201086886227,0.0476823486388
1505356816211304669,6486,1505356816210397908,world,0.395802646875,0.828878998756,0.466534972191,-0.0466958805919,-0.997568309307,-0.0200948696584,0.047678090632
1505356816220814330,6487,1505356816220634370,world,0.395797610283,0.828930199146,0.466598927975,-0.0466758608818,-0.997569441795,-0.0200709234923,0.0476838089526
1505356816230226311,6488,1505356816230018115,world,0.395796298981,0.828912436962,0.466547042131,-0.0466987155378,-0.997568190098,-0.0200588796288,0.0476930402219
1505356816240370632,6489,1505356816240239938,world,0.395794659853,0.828908622265,0.466564118862,-0.0466875806451,-0.997569203377,-0.0200730469078,0.0476774200797
