%time,field.header.seq,field.header.stamp,field.header.frame_id,field.vector.x,field.vector.y,field.vector.z
1503329544024062146,3613,1503329544022384104,ardrone_base_link,-0.215799227357,0.564397990704,-0.796797156334
1503329544028211133,3614,1503329544027457164,ardrone_base_link,-0.215799227357,0.564397990704,-0.796797156334
1503329544038059256,3615,1503329544037857394,ardrone_base_link,-0.203653275967,0.54307538271,-0.814613103867
1503329544042702734,3616,1503329544042514959,ardrone_base_link,-0.203653275967,0.54307538271,-0.814613103867
1503329544043400815,3617,1503329544043273801,ardrone_base_link,-0.232594460249,0.525491178036,-0.818387925625
1503329544047587676,3618,1503329544047411464,ardrone_base_link,-0.232594460249,0.525491178036,-0.818387925625
1503329544052748879,3619,1503329544052541856,ardrone_base_link,-0.218773394823,0.521690368652,-0.824607372284
1503329544057715413,3620,1503329544057410527,ardrone_base_link,-0.218773394823,0.521690368652,-0.824607372284
1503329544063036363,3621,1503329544062849451,ardrone_base_link,-0.234663158655,0.505428314209,-0.83034658432
1503329544067996021,3622,1503329544067821642,ardrone_base_link,-0.234663158655,0.505428314209,-0.83034658432
1503329544075023622,3623,1503329544074870389,ardrone_base_link,-0.180594995618,0.541785001755,-0.82088637352
1503329544078002204,3624,1503329544077845592,ardrone_base_link,-0.180594995618,0.541785001755,-0.82088637352
1503329544082979392,3625,1503329544082790899,ardrone_base_link,-0.173213750124,0.554283976555,-0.814104616642
1503329544088013889,3626,1503329544087771310,ardrone_base_link,-0.173213750124,0.554283976555,-0.814104616642
1503329544096736701,3627,1503329544096517199,ardrone_base_link,-0.207390338182,0.518475830555,-0.82956135273
1503329544099504533,3628,1503329544099318474,ardrone_base_link,-0.207390338182,0.518475830555,-0.82956135273
1503329544104256078,3629,1503329544104080531,ardrone_base_link,-0.185535818338,0.538937389851,-0.821658611298
1503329544108194649,3630,1503329544107801466,ardrone_base_link,-0.185535818338,0.538937389851,-0.821658611298
1503329544117255808,3631,1503329544116662382,ardrone_base_link,-0.227324590087,0.530424058437,-0.816684663296
1503329544118014961,3632,1503329544117798618,ardrone_base_link,-0.227324590087,0.530424058437,-0.816684663296
1503329544124254764,3633,1503329544124074302,ardrone_base_link,-0.232594460249,0.525491178036,-0.818387925625
1503329544129148055,3634,1503329544128949932,ardrone_base_link,-0.232594460249,0.525491178036,-0.818387925625
1503329544133503198,3635,1503329544133264230,ardrone_base_link,-0.223401367664,0.509355127811,-0.831053078175
1503329544139221226,3636,1503329544139073103,ardrone_base_link,-0.223401367664,0.509355127811,-0.831053078175
1503329544143452841,3637,1503329544143308958,ardrone_base_link,-0.214223638177,0.539843559265,-0.814049839973
1503329544148257468,3638,1503329544148046906,ardrone_base_link,-0.214223638177,0.539843559265,-0.814049839973
1503329544153403865,3639,1503329544153202763,ardrone_base_link,-0.221841707826,0.529007136822,-0.819107830524
1503329544161406055,3640,1503329544161265452,ardrone_base_link,-0.221841707826,0.529007136822,-0.819107830524
1503329544163523657,3641,1503329544163352240,ardrone_base_link,-0.210247412324,0.56346309185,-0.798940181732
1503329544168383965,3642,1503329544168172342,ardrone_base_link,-0.210247412324,0.56346309185,-0.798940181732
1503329544173560538,3643,1503329544173332701,ardrone_base_link,-0.232594460249,0.525491178036,-0.818387925625
1503329544181758151,3644,1503329544181577837,ardrone_base_link,-0.232594460249,0.525491178036,-0.818387925625
1503329544183458286,3645,1503329544183283198,ardrone_base_link,-0.244025111198,0.496464908123,-0.833051264286
1503329544188519111,3646,1503329544188251943,ardrone_base_link,-0.244025111198,0.496464908123,-0.833051264286
1503329544196885771,3647,1503329544196688589,ardrone_base_link,-0.259781658649,0.519563317299,-0.813982486725
1503329544203563378,3648,1503329544203388676,ardrone_base_link,-0.259781658649,0.519563317299,-0.813982486725
1503329544205678227,3649,1503329544205463112,ardrone_base_link,-0.193263664842,0.546179950237,-0.815068542957
1503329544211296082,3650,1503329544211035933,ardrone_base_link,-0.193263664842,0.546179950237,-0.815068542957
1503329544213674324,3651,1503329544213467540,ardrone_base_link,-0.229349523783,0.518160045147,-0.823959350586
1503329544218913293,3652,1503329544218707292,ardrone_base_link,-0.229349523783,0.518160045147,-0.823959350586
1503329544226423226,3653,1503329544226244954,ardrone_base_link,-0.218773394823,0.521690368652,-0.824607372284
1503329544233209740,3654,1503329544233033111,ardrone_base_link,-0.218773394823,0.521690368652,-0.824607372284
1503329544235237074,3655,1503329544235078928,ardrone_base_link,-0.202511563897,0.53709590435,-0.818851113319
1503329544238684828,3656,1503329544238533580,ardrone_base_link,-0.202511563897,0.53709590435,-0.818851113319
1503329544243754440,3657,1503329544243556935,ardrone_base_link,-0.222479447722,0.542849898338,-0.809825241566
1503329544248713804,3658,1503329544248513005,ardrone_base_link,-0.222479447722,0.542849898338,-0.809825241566
1503329544253808098,3659,1503329544253615244,ardrone_base_link,-0.233707115054,0.545316576958,-0.80499112606
1503329544259836392,3660,1503329544259659019,ardrone_base_link,-0.233707115054,0.545316576958,-0.80499112606
1503329544266508235,3661,1503329544266357929,ardrone_base_link,-0.181881248951,0.510999679565,-0.84011811018
1503329544268855522,3662,1503329544268661421,ardrone_base_link,-0.181881248951,0.510999679565,-0.84011811018
1503329544274148715,3663,1503329544273950826,ardrone_base_link,-0.173972249031,0.521916747093,-0.835066795349
1503329544279833119,3664,1503329544279646836,ardrone_base_link,-0.173972249031,0.521916747093,-0.835066795349
1503329544283835990,3665,1503329544283673235,ardrone_base_link,-0.218773394823,0.521690368652,-0.824607372284
1503329544292853347,3666,1503329544292635886,ardrone_base_link,-0.218773394823,0.521690368652,-0.824607372284
1503329544296728028,3667,1503329544296571016,ardrone_base_link,-0.173213750124,0.554283976555,-0.814104616642
1503329544302190540,3668,1503329544301817048,ardrone_base_link,-0.173213750124,0.554283976555,-0.814104616642
1503329544304132949,3669,1503329544303943184,ardrone_base_link,-0.224975451827,0.536479949951,-0.813372790813
1503329544309154548,3670,1503329544308955383,ardrone_base_link,-0.224975451827,0.536479949951,-0.813372790813
1503329544314471629,3671,1503329544314282825,ardrone_base_link,-0.232594460249,0.525491178036,-0.818387925625
1503329544320435958,3672,1503329544320237576,ardrone_base_link,-0.232594460249,0.525491178036,-0.818387925625
1503329544325173470,3673,1503329544325031202,ardrone_base_link,-0.196796953678,0.521939754486,-0.829969763756
1503329544329845352,3674,1503329544329296657,ardrone_base_link,-0.196796953678,0.521939754486,-0.829969763756
1503329544334208998,3675,1503329544334040265,ardrone_base_link,-0.227324590087,0.530424058437,-0.816684663296
1503329544339360296,3676,1503329544339200681,ardrone_base_link,-0.227324590087,0.530424058437,-0.816684663296
1503329544344356604,3677,1503329544344172073,ardrone_base_link,-0.215799227357,0.564397990704,-0.796797156334
1503329544349218865,3678,1503329544348991381,ardrone_base_link,-0.215799227357,0.564397990704,-0.796797156334
1503329544358295188,3679,1503329544358054763,ardrone_base_link,-0.191747069359,0.540378153324,-0.819282948971
1503329544359642872,3680,1503329544359448905,ardrone_base_link,-0.191747069359,0.540378153324,-0.819282948971
1503329544366721062,3681,1503329544366535405,ardrone_base_link,-0.236997157335,0.552993357182,-0.798768222332
1503329544369505636,3682,1503329544369277728,ardrone_base_link,-0.236997157335,0.552993357182,-0.798768222332
1503329544374563103,3683,1503329544374371350,ardrone_base_link,-0.234706476331,0.519707202911,-0.821472644806
1503329544379556866,3684,1503329544379295778,ardrone_base_link,-0.234706476331,0.519707202911,-0.821472644806
1503329544384623839,3685,1503329544384439177,ardrone_base_link,-0.219426855445,0.590764641762,-0.776433467865
1503329544389781320,3686,1503329544389523368,ardrone_base_link,-0.219426855445,0.590764641762,-0.776433467865
1503329544396403153,3687,1503329544396172394,ardrone_base_link,-0.217243522406,0.547453641891,-0.808145880699
1503329544400736509,3688,1503329544400524354,ardrone_base_link,-0.217243522406,0.547453641891,-0.808145880699
1503329544408446070,3689,1503329544408204219,ardrone_base_link,-0.253909260035,0.524745821953,-0.812509655952
1503329544410185870,3690,1503329544409856396,ardrone_base_link,-0.253909260035,0.524745821953,-0.812509655952
1503329544414902728,3691,1503329544414745052,ardrone_base_link,-0.23797275126,0.526939690113,-0.815906584263
1503329544421868474,3692,1503329544421635450,ardrone_base_link,-0.23797275126,0.526939690113,-0.815906584263
1503329544426296295,3693,1503329544426165267,ardrone_base_link,-0.217819318175,0.552925944328,-0.804255902767
1503329544430748717,3694,1503329544430515091,ardrone_base_link,-0.217819318175,0.552925944328,-0.804255902767
1503329544435031094,3695,1503329544434866001,ardrone_base_link,-0.175225257874,0.508987665176,-0.842750072479
1503329544439869768,3696,1503329544439677515,ardrone_base_link,-0.175225257874,0.508987665176,-0.842750072479
1503329544446775273,3697,1503329544446616500,ardrone_base_link,-0.205526456237,0.530943334103,-0.822105824947
1503329544450495384,3698,1503329544450312022,ardrone_base_link,-0.205526456237,0.530943334103,-0.822105824947
1503329544455311179,3699,1503329544455167157,ardrone_base_link,-0.211265921593,0.532390117645,-0.81971180439
1503329544462932214,3700,1503329544462775740,ardrone_base_link,-0.211265921593,0.532390117645,-0.81971180439
1503329544465063761,3701,1503329544464894620,ardrone_base_link,-0.230483174324,0.537794053555,-0.810959339142
1503329544470256690,3702,1503329544470029634,ardrone_base_link,-0.230483174324,0.537794053555,-0.810959339142
1503329544475148451,3703,1503329544474968345,ardrone_base_link,-0.21620118618,0.527530908585,-0.821564495564
1503329544481206435,3704,1503329544481028242,ardrone_base_link,-0.21620118618,0.527530908585,-0.821564495564
1503329544486479942,3705,1503329544486257681,ardrone_base_link,-0.199062183499,0.547421038151,-0.81283724308
1503329544491378895,3706,1503329544491078973,ardrone_base_link,-0.199062183499,0.547421038151,-0.81283724308
1503329544495116027,3707,1503329544494865990,ardrone_base_link,-0.195938140154,0.553738236427,-0.809309720993
1503329544500243545,3708,1503329544500041120,ardrone_base_link,-0.195938140154,0.553738236427,-0.809309720993
1503329544505297926,3709,1503329544505143911,ardrone_base_link,-0.190764203668,0.520265996456,-0.83242559433
1503329544510322605,3710,1503329544510121549,ardrone_base_link,-0.190764203668,0.520265996456,-0.83242559433
1503329544515324708,3711,1503329544515181392,ardrone_base_link,-0.257437229156,0.532036960125,-0.806636691093
1503329544520616636,3712,1503329544520440319,ardrone_base_link,-0.257437229156,0.532036960125,-0.806636691093
1503329544528806755,3713,1503329544528547792,ardrone_base_link,-0.195034354925,0.534224569798,-0.822536230087
1503329544531578540,3714,1503329544531392981,ardrone_base_link,-0.195034354925,0.534224569798,-0.822536230087
1503329544537682604,3715,1503329544537547319,ardrone_base_link,-0.216847449541,0.533778369427,-0.817348062992
1503329544540402232,3716,1503329544540251461,ardrone_base_link,-0.216847449541,0.533778369427,-0.817348062992
1503329544545456320,3717,1503329544545259838,ardrone_base_link,-0.247628182173,0.555028676987,-0.794117987156
1503329544550728530,3718,1503329544550487245,ardrone_base_link,-0.247628182173,0.555028676987,-0.794117987156
1503329544558409902,3719,1503329544555670695,ardrone_base_link,-0.230483174324,0.537794053555,-0.810959339142
1503329544560691274,3720,1503329544560497463,ardrone_base_link,-0.230483174324,0.537794053555,-0.810959339142
1503329544565496987,3721,1503329544565346399,ardrone_base_link,-0.224624410272,0.530113577843,-0.817632853985
1503329544570783082,3722,1503329544570576789,ardrone_base_link,-0.224624410272,0.530113577843,-0.817632853985
1503329544576805861,3723,1503329544576637530,ardrone_base_link,-0.184558793902,0.571253418922,-0.799754738808
1503329544582592877,3724,1503329544582411900,ardrone_base_link,-0.184558793902,0.571253418922,-0.799754738808
1503329544588369951,3725,1503329544587163428,ardrone_base_link,-0.23469388485,0.512849628925,-0.825774788857
1503329544590930428,3726,1503329544590737322,ardrone_base_link,-0.23469388485,0.512849628925,-0.825774788857
1503329544595829727,3727,1503329544595682815,ardrone_base_link,-0.238767445087,0.494589686394,-0.835686028004
1503329544600770316,3728,1503329544600591358,ardrone_base_link,-0.238767445087,0.494589686394,-0.835686028004
1503329544607100157,3729,1503329544606942850,ardrone_base_link,-0.21816803515,0.514876544476,-0.829038500786
1503329544611021563,3730,1503329544610782894,ardrone_base_link,-0.21816803515,0.514876544476,-0.829038500786
1503329544615892929,3731,1503329544615710121,ardrone_base_link,-0.192342400551,0.526850879192,-0.827908575535
1503329544622466459,3732,1503329544622299825,ardrone_base_link,-0.192342400551,0.526850879192,-0.827908575535
1503329544626862726,3733,1503329544626671084,ardrone_base_link,-0.199623003602,0.529434919357,-0.824529767036
1503329544634264974,3734,1503329544634033715,ardrone_base_link,-0.199623003602,0.529434919357,-0.824529767036
1503329544636151176,3735,1503329544635980262,ardrone_base_link,-0.200592413545,0.549448788166,-0.811091065407
1503329544640830223,3736,1503329544640676057,ardrone_base_link,-0.200592413545,0.549448788166,-0.811091065407
1503329544645905359,3737,1503329544645721197,ardrone_base_link,-0.158456608653,0.510582387447,-0.845101892948
1503329544651804593,3738,1503329544651539980,ardrone_base_link,-0.158456608653,0.510582387447,-0.845101892948
1503329544655993093,3739,1503329544655826741,ardrone_base_link,-0.20086671412,0.535644590855,-0.820205748081
1503329544661249493,3740,1503329544661094525,ardrone_base_link,-0.20086671412,0.535644590855,-0.820205748081
1503329544666330376,3741,1503329544666133770,ardrone_base_link,-0.220687940717,0.509279847145,-0.831823766232
1503329544671203480,3742,1503329544670955447,ardrone_base_link,-0.220687940717,0.509279847145,-0.831823766232
1503329544676399084,3743,1503329544676231021,ardrone_base_link,-0.202663376927,0.523547053337,-0.827542126179
1503329544682480760,3744,1503329544682334263,ardrone_base_link,-0.202663376927,0.523547053337,-0.827542126179
1503329544690522918,3745,1503329544690273485,ardrone_base_link,-0.21620118618,0.527530908585,-0.821564495564
1503329544691470531,3746,1503329544691332578,ardrone_base_link,-0.21620118618,0.527530908585,-0.821564495564
1503329544697175228,3747,1503329544697054414,ardrone_base_link,-0.183765649796,0.551296949387,-0.813819348812
1503329544701358195,3748,1503329544701079695,ardrone_base_link,-0.183765649796,0.551296949387,-0.813819348812
1503329544706333116,3749,1503329544706174981,ardrone_base_link,-0.178640931845,0.535922825336,-0.825150966644
1503329544713932070,3750,1503329544713715067,ardrone_base_link,-0.178640931845,0.535922825336,-0.825150966644
1503329544718818090,3751,1503329544718672020,ardrone_base_link,-0.202663376927,0.523547053337,-0.827542126179
1503329544723699443,3752,1503329544723448606,ardrone_base_link,-0.202663376927,0.523547053337,-0.827542126179
1503329544726343077,3753,1503329544726228462,ardrone_base_link,-0.15983325243,0.529973447323,-0.832815349102
1503329544732767931,3754,1503329544732591065,ardrone_base_link,-0.15983325243,0.529973447323,-0.832815349102
1503329544736723551,3755,1503329544736583416,ardrone_base_link,-0.207359373569,0.570238292217,-0.794877588749
1503329544741458934,3756,1503329544741272226,ardrone_base_link,-0.207359373569,0.570238292217,-0.794877588749
1503329544748031683,3757,1503329544747833727,ardrone_base_link,-0.212238177657,0.551819264889,-0.806505084038
1503329544754002215,3758,1503329544753763096,ardrone_base_link,-0.212238177657,0.551819264889,-0.806505084038
1503329544757645714,3759,1503329544757473646,ardrone_base_link,-0.259781658649,0.519563317299,-0.813982486725
1503329544762007033,3760,1503329544761828737,ardrone_base_link,-0.259781658649,0.519563317299,-0.813982486725
1503329544766673725,3761,1503329544766503088,ardrone_base_link,-0.204538851976,0.562481820583,-0.801110506058
1503329544773016362,3762,1503329544772753703,ardrone_base_link,-0.204538851976,0.562481820583,-0.801110506058
1503329544778789011,3763,1503329544778588764,ardrone_base_link,-0.18556317687,0.556689500809,-0.809730231762
1503329544782033188,3764,1503329544781709303,ardrone_base_link,-0.18556317687,0.556689500809,-0.809730231762
1503329544792282702,3765,1503329544791875958,ardrone_base_link,-0.228362992406,0.54976272583,-0.803499400616
1503329544792286420,3766,1503329544791915699,ardrone_base_link,-0.228362992406,0.54976272583,-0.803499400616
1503329544797093845,3767,1503329544796917649,ardrone_base_link,-0.212238177657,0.551819264889,-0.806505084038
1503329544802436780,3768,1503329544802274505,ardrone_base_link,-0.212238177657,0.551819264889,-0.806505084038
1503329544808665706,3769,1503329544808438197,ardrone_base_link,-0.172980353236,0.501643061638,-0.847603738308
1503329544812506517,3770,1503329544812314503,ardrone_base_link,-0.172980353236,0.501643061638,-0.847603738308
1503329544817284923,3771,1503329544817066561,ardrone_base_link,-0.229166090488,0.564101099968,-0.793267190456
1503329544821821619,3772,1503329544821667803,ardrone_base_link,-0.229166090488,0.564101099968,-0.793267190456
1503329544827070508,3773,1503329544826880405,ardrone_base_link,-0.231497570872,0.557308971882,-0.797380506992
1503329544832041503,3774,1503329544831823210,ardrone_base_link,-0.231497570872,0.557308971882,-0.797380506992
1503329544837113708,3775,1503329544836962242,ardrone_base_link,-0.208369508386,0.525091171265,-0.825143277645
1503329544842019260,3776,1503329544841841288,ardrone_base_link,-0.208369508386,0.525091171265,-0.825143277645
1503329544847358085,3777,1503329544847195933,ardrone_base_link,-0.244711861014,0.541862010956,-0.804053246975
1503329544852195059,3778,1503329544851958574,ardrone_base_link,-0.244711861014,0.541862010956,-0.804053246975
1503329544858534684,3779,1503329544858338869,ardrone_base_link,-0.227059081197,0.523982465267,-0.820905864239
1503329544862242029,3780,1503329544862064445,ardrone_base_link,-0.227059081197,0.523982465267,-0.820905864239
1503329544867245197,3781,1503329544867089020,ardrone_base_link,-0.261150449514,0.513876676559,-0.817148208618
1503329544872175296,3782,1503329544871917750,ardrone_base_link,-0.261150449514,0.513876676559,-0.817148208618
1503329544879896805,3783,1503329544879709894,ardrone_base_link,-0.2065410465,0.537006735802,-0.817902565002
1503329544884566514,3784,1503329544884364795,ardrone_base_link,-0.2065410465,0.537006735802,-0.817902565002
1503329544887291730,3785,1503329544887137195,ardrone_base_link,-0.233713164926,0.539338111877,-0.809007108212
1503329544894279267,3786,1503329544894107345,ardrone_base_link,-0.233713164926,0.539338111877,-0.809007108212
1503329544897269022,3787,1503329544897153265,ardrone_base_link,-0.179264694452,0.503648400307,-0.84510499239
1503329544902279560,3788,1503329544902079013,ardrone_base_link,-0.179264694452,0.503648400307,-0.84510499239
1503329544908787438,3789,1503329544908497863,ardrone_base_link,-0.228362992406,0.54976272583,-0.803499400616
1503329544912855889,3790,1503329544912670242,ardrone_base_link,-0.228362992406,0.54976272583,-0.803499400616
1503329544918060030,3791,1503329544917657792,ardrone_base_link,-0.242437824607,0.493854820728,-0.835063636303
1503329544922669651,3792,1503329544922504065,ardrone_base_link,-0.242437824607,0.493854820728,-0.835063636303
1503329544927545528,3793,1503329544927361540,ardrone_base_link,-0.224975451827,0.536479949951,-0.813372790813
1503329544932584020,3794,1503329544932383243,ardrone_base_link,-0.224975451827,0.536479949951,-0.813372790813
1503329544937323447,3795,1503329544937188447,ardrone_base_link,-0.182871609926,0.531198501587,-0.827276349068
1503329544942665587,3796,1503329544942495216,ardrone_base_link,-0.182871609926,0.531198501587,-0.827276349068
1503329544947856627,3797,1503329544947686652,ardrone_base_link,-0.206497937441,0.550661146641,-0.808783590794
1503329544952798178,3798,1503329544952577778,ardrone_base_link,-0.206497937441,0.550661146641,-0.808783590794
1503329544958507430,3799,1503329544958320983,ardrone_base_link,-0.205463632941,0.544925332069,-0.812921345234
1503329544962909992,3800,1503329544962732122,ardrone_base_link,-0.205463632941,0.544925332069,-0.812921345234
1503329544967674746,3801,1503329544967496135,ardrone_base_link,-0.178640931845,0.535922825336,-0.825150966644
1503329544972928819,3802,1503329544972683109,ardrone_base_link,-0.178640931845,0.535922825336,-0.825150966644
1503329544977823267,3803,1503329544977648517,ardrone_base_link,-0.191747069359,0.540378153324,-0.819282948971
1503329544988598624,3804,1503329544988396500,ardrone_base_link,-0.191747069359,0.540378153324,-0.819282948971
1503329544989270978,3805,1503329544989059529,ardrone_base_link,-0.150289550424,0.521593153477,-0.839853346348
1503329544993140578,3806,1503329544992927527,ardrone_base_link,-0.150289550424,0.521593153477,-0.839853346348
1503329544998195273,3807,1503329544998003448,ardrone_base_link,-0.223838701844,0.516550838947,-0.82648140192
1503329545003749797,3808,1503329545003636177,ardrone_base_link,-0.223838701844,0.516550838947,-0.82648140192
1503329545008360721,3809,1503329545008126334,ardrone_base_link,-0.207459926605,0.532179832458,-0.820819735527
1503329545013199067,3810,1503329545013014802,ardrone_base_link,-0.207459926605,0.532179832458,-0.820819735527
1503329545023634050,3811,1503329545023450363,ardrone_base_link,-0.207449227571,0.555963933468,-0.804903030396
1503329545024674188,3812,1503329545024517496,ardrone_base_link,-0.207449227571,0.555963933468,-0.804903030396
1503329545028588736,3813,1503329545028258726,ardrone_base_link,-0.165959432721,0.53281712532,-0.829797148705
1503329545033122939,3814,1503329545032920578,ardrone_base_link,-0.165959432721,0.53281712532,-0.829797148705
1503329545041134403,3815,1503329545040898896,ardrone_base_link,-0.222588390112,0.496543318033,-0.838986992836
1503329545043424054,3816,1503329545043283581,ardrone_base_link,-0.222588390112,0.496543318033,-0.838986992836
1503329545048268967,3817,1503329545048106845,ardrone_base_link,-0.203460156918,0.557303905487,-0.80499458313
1503329545053745695,3818,1503329545053551084,ardrone_base_link,-0.203460156918,0.557303905487,-0.80499458313
1503329545058319546,3819,1503329545058145484,ardrone_base_link,-0.199861258268,0.516308248043,-0.832755208015
1503329545064741430,3820,1503329545064521175,ardrone_base_link,-0.199861258268,0.516308248043,-0.832755208015
1503329545068477491,3821,1503329545068311340,ardrone_base_link,-0.227059081197,0.523982465267,-0.820905864239
1503329545074915026,3822,1503329545074728061,ardrone_base_link,-0.227059081197,0.523982465267,-0.820905864239
1503329545081997623,3823,1503329545081815958,ardrone_base_link,-0.243199944496,0.528330922127,-0.813461899757
1503329545084441813,3824,1503329545084120766,ardrone_base_link,-0.243199944496,0.528330922127,-0.813461899757
1503329545088480107,3825,1503329545088244107,ardrone_base_link,-0.215046301484,0.507509291172,-0.8343796134
1503329545093429316,3826,1503329545093260295,ardrone_base_link,-0.215046301484,0.507509291172,-0.8343796134
1503329545099110462,3827,1503329545098950964,ardrone_base_link,-0.224975451827,0.536479949951,-0.813372790813
1503329545106463082,3828,1503329545106275951,ardrone_base_link,-0.224975451827,0.536479949951,-0.813372790813
1503329545111738491,3829,1503329545111447775,ardrone_base_link,-0.211993873119,0.500305533409,-0.839495718479
1503329545116252527,3830,1503329545116038091,ardrone_base_link,-0.211993873119,0.500305533409,-0.839495718479
1503329545119511941,3831,1503329545119373744,ardrone_base_link,-0.180265814066,0.523629248142,-0.832656383514
1503329545123448910,3832,1503329545123351508,ardrone_base_link,-0.180265814066,0.523629248142,-0.832656383514
1503329545128190898,3833,1503329545127994096,ardrone_base_link,-0.175371840596,0.559519648552,-0.810050845146
1503329545133783321,3834,1503329545133612771,ardrone_base_link,-0.175371840596,0.559519648552,-0.810050845146
1503329545138818009,3835,1503329545138683198,ardrone_base_link,-0.22617316246,0.51098382473,-0.829301595688
1503329545143851501,3836,1503329545143679290,ardrone_base_link,-0.22617316246,0.51098382473,-0.829301595688
1503329545150334877,3837,1503329545150102733,ardrone_base_link,-0.184282779694,0.485836416483,-0.854402005672
1503329545154037146,3838,1503329545153841761,ardrone_base_link,-0.184282779694,0.485836416483,-0.854402005672
1503329545159105423,3839,1503329545158904387,ardrone_base_link,-0.241039767861,0.540261566639,-0.806236505508
1503329545167319333,3840,1503329545167061883,ardrone_base_link,-0.241039767861,0.540261566639,-0.806236505508
1503329545170744186,3841,1503329545170490970,ardrone_base_link,-0.159348204732,0.531160712242,-0.832151770592
1503329545174168758,3842,1503329545173961467,ardrone_base_link,-0.159348204732,0.531160712242,-0.832151770592
1503329545180333497,3843,1503329545180086834,ardrone_base_link,-0.22528962791,0.542363882065,-0.809373855591
1503329545183845396,3844,1503329545183738658,ardrone_base_link,-0.22528962791,0.542363882065,-0.809373855591
1503329545189470359,3845,1503329545188891818,ardrone_base_link,-0.208451479673,0.538499653339,-0.816434979439
1503329545193934155,3846,1503329545193775580,ardrone_base_link,-0.208451479673,0.538499653339,-0.816434979439
1503329545201064466,3847,1503329545200901549,ardrone_base_link,-0.249972134829,0.543042898178,-0.801634788513
1503329545204592138,3848,1503329545204370094,ardrone_base_link,-0.249972134829,0.543042898178,-0.801634788513
1503329545212787563,3849,1503329545212579743,ardrone_base_link,-0.178640931845,0.535922825336,-0.825150966644
1503329545217191177,3850,1503329545216979130,ardrone_base_link,-0.178640931845,0.535922825336,-0.825150966644
1503329545219508511,3851,1503329545219346101,ardrone_base_link,-0.223838701844,0.516550838947,-0.82648140192
1503329545224211714,3852,1503329545223947035,ardrone_base_link,-0.223838701844,0.516550838947,-0.82648140192
1503329545229189140,3853,1503329545228965293,ardrone_base_link,-0.213100001216,0.571108043194,-0.792732000351
1503329545235727979,3854,1503329545235539635,ardrone_base_link,-0.213100001216,0.571108043194,-0.792732000351
1503329545239615739,3855,1503329545239481233,ardrone_base_link,-0.191747069359,0.540378153324,-0.819282948971
1503329545244386139,3856,1503329545244263654,ardrone_base_link,-0.191747069359,0.540378153324,-0.819282948971
1503329545249540487,3857,1503329545249215786,ardrone_base_link,-0.193549215794,0.527861535549,-0.826983034611
1503329545254741189,3858,1503329545254551166,ardrone_base_link,-0.193549215794,0.527861535549,-0.826983034611
1503329545260427231,3859,1503329545260252880,ardrone_base_link,-0.23238761723,0.576665580273,-0.783232331276
1503329545265789733,3860,1503329545265588448,ardrone_base_link,-0.23238761723,0.576665580273,-0.783232331276
1503329545270137948,3861,1503329545269895141,ardrone_base_link,-0.209401443601,0.558403849602,-0.802705526352
1503329545275447259,3862,1503329545275260042,ardrone_base_link,-0.209401443601,0.558403849602,-0.802705526352
1503329545279694118,3863,1503329545279504538,ardrone_base_link,-0.162285491824,0.584227800369,-0.795198917389
1503329545285902532,3864,1503329545285696086,ardrone_base_link,-0.162285491824,0.584227800369,-0.795198917389
1503329545291407156,3865,1503329545291164057,ardrone_base_link,-0.20086671412,0.535644590855,-0.820205748081
1503329545294721492,3866,1503329545294508108,ardrone_base_link,-0.20086671412,0.535644590855,-0.820205748081
1503329545303640696,3867,1503329545303451569,ardrone_base_link,-0.209360852838,0.544338226318,-0.812320113182
1503329545306400772,3868,1503329545306224318,ardrone_base_link,-0.209360852838,0.544338226318,-0.812320113182
1503329545310810591,3869,1503329545310575128,ardrone_base_link,-0.199062183499,0.547421038151,-0.81283724308
1503329545314854642,3870,1503329545314608301,ardrone_base_link,-0.199062183499,0.547421038151,-0.81283724308
1503329545319856657,3871,1503329545319700151,ardrone_base_link,-0.252609759569,0.505219519138,-0.825191855431
1503329545324501167,3872,1503329545324361120,ardrone_base_link,-0.252609759569,0.505219519138,-0.825191855431
1503329545329933419,3873,1503329545329742801,ardrone_base_link,-0.181175917387,0.543527722359,-0.819605350494
1503329545369401534,3874,1503329545369146563,ardrone_base_link,-0.179264694452,0.503648400307,-0.84510499239
1503329545369407312,3875,1503329545369199787,ardrone_base_link,-0.179264694452,0.503648400307,-0.84510499239
1503329545374795138,3876,1503329545374601997,ardrone_base_link,-0.201452344656,0.516769051552,-0.83208578825
1503329545375446874,3877,1503329545375276776,ardrone_base_link,-0.201452344656,0.516769051552,-0.83208578825
1503329545380333224,3878,1503329545380023753,ardrone_base_link,-0.172980353236,0.501643061638,-0.847603738308
1503329545385143124,3879,1503329545385034680,ardrone_base_link,-0.172980353236,0.501643061638,-0.847603738308
1503329545390127614,3880,1503329545389940661,ardrone_base_link,-0.216916158795,0.49456885457,-0.841634690762
1503329545395247701,3881,1503329545395055143,ardrone_base_link,-0.216916158795,0.49456885457,-0.841634690762
1503329545402115780,3882,1503329545401920156,ardrone_base_link,-0.247628182173,0.555028676987,-0.794117987156
1503329545408669552,3883,1503329545408493913,ardrone_base_link,-0.247628182173,0.555028676987,-0.794117987156
1503329545410184043,3884,1503329545410000705,ardrone_base_link,-0.220687940717,0.509279847145,-0.831823766232
1503329545415388326,3885,1503329545415202326,ardrone_base_link,-0.220687940717,0.509279847145,-0.831823766232
1503329545420188732,3886,1503329545420071315,ardrone_base_link,-0.214223638177,0.539843559265,-0.814049839973
1503329545425239351,3887,1503329545425118937,ardrone_base_link,-0.214223638177,0.539843559265,-0.814049839973
1503329545431005176,3888,1503329545430786814,ardrone_base_link,-0.247483879328,0.503501653671,-0.827790915966
1503329545435723010,3889,1503329545435558197,ardrone_base_link,-0.247483879328,0.503501653671,-0.827790915966
1503329545444151676,3890,1503329545443962874,ardrone_base_link,-0.151997536421,0.540435671806,-0.827542126179
1503329545445508785,3891,1503329545445330827,ardrone_base_link,-0.151997536421,0.540435671806,-0.827542126179
1503329545450673788,3892,1503329545450387725,ardrone_base_link,-0.18507412076,0.484717905521,-0.854866147041
1503329545455357696,3893,1503329545455178960,ardrone_base_link,-0.18507412076,0.484717905521,-0.854866147041
1503329545460603643,3894,1503329545460423173,ardrone_base_link,-0.21816803515,0.514876544476,-0.829038500786
1503329545465800929,3895,1503329545465591200,ardrone_base_link,-0.21816803515,0.514876544476,-0.829038500786
1503329545471942657,3896,1503329545471716268,ardrone_base_link,-0.195034354925,0.534224569798,-0.822536230087
1503329545476407879,3897,1503329545476206453,ardrone_base_link,-0.195034354925,0.534224569798,-0.822536230087
1503329545482946353,3898,1503329545482763586,ardrone_base_link,-0.218724787235,0.528584897518,-0.820217907429
1503329545487080870,3899,1503329545486837951,ardrone_base_link,-0.218724787235,0.528584897518,-0.820217907429
1503329545491398022,3900,1503329545491171611,ardrone_base_link,-0.14208664,0.543272435665,-0.827445745468
1503329545496008909,3901,1503329545495881279,ardrone_base_link,-0.14208664,0.543272435665,-0.827445745468
1503329545500987441,3902,1503329545500759885,ardrone_base_link,-0.26946336031,0.495464891195,-0.825774788857
1503329545509755193,3903,1503329545509506855,ardrone_base_link,-0.26946336031,0.495464891195,-0.825774788857
1503329545515454952,3904,1503329545515254094,ardrone_base_link,-0.161301016808,0.568798303604,-0.806505084038
1503329545515478029,3905,1503329545515283817,ardrone_base_link,-0.161301016808,0.568798303604,-0.806505084038
1503329545521324247,3906,1503329545521076222,ardrone_base_link,-0.180265814066,0.523629248142,-0.832656383514
1503329545525944609,3907,1503329545525801896,ardrone_base_link,-0.180265814066,0.523629248142,-0.832656383514
1503329545531729825,3908,1503329545531528389,ardrone_base_link,-0.231497570872,0.557308971882,-0.797380506992
1503329545536023975,3909,1503329545535841489,ardrone_base_link,-0.231497570872,0.557308971882,-0.797380506992
1503329545546074747,3910,1503329545545867550,ardrone_base_link,-0.215491607785,0.520771384239,-0.826051175594
1503329545546099874,3911,1503329545545892267,ardrone_base_link,-0.215491607785,0.520771384239,-0.826051175594
1503329545551755752,3912,1503329545551503625,ardrone_base_link,-0.18812353909,0.564370632172,-0.803800582886
1503329545556679498,3913,1503329545556496980,ardrone_base_link,-0.18812353909,0.564370632172,-0.803800582886
1503329545561403475,3914,1503329545561207639,ardrone_base_link,-0.194032385945,0.514607667923,-0.835182905197
1503329545567335118,3915,1503329545567064106,ardrone_base_link,-0.194032385945,0.514607667923,-0.835182905197
1503329545575977999,3916,1503329545575779925,ardrone_base_link,-0.170796737075,0.54654955864,-0.819824397564
1503329545577031479,3917,1503329545576848876,ardrone_base_link,-0.170796737075,0.54654955864,-0.819824397564
1503329545581925880,3918,1503329545581678254,ardrone_base_link,-0.23369063437,0.550842225552,-0.80122500658
1503329545586259780,3919,1503329545586108939,ardrone_base_link,-0.23369063437,0.550842225552,-0.80122500658
1503329545591519351,3920,1503329545591332679,ardrone_base_link,-0.214490994811,0.554101765156,-0.804341256618
1503329545596578845,3921,1503329545596412505,ardrone_base_link,-0.214490994811,0.554101765156,-0.804341256618
1503329545603208612,3922,1503329545602959398,ardrone_base_link,-0.209360852838,0.544338226318,-0.812320113182
1503329545606903541,3923,1503329545606707646,ardrone_base_link,-0.209360852838,0.544338226318,-0.812320113182
1503329545612628420,3924,1503329545612444924,ardrone_base_link,-0.230595260859,0.54354596138,-0.807083427906
1503329545617135990,3925,1503329545617015300,ardrone_base_link,-0.230595260859,0.54354596138,-0.807083427906
1503329545621525672,3926,1503329545621356630,ardrone_base_link,-0.148899555206,0.534286677837,-0.83208578825
1503329545626462654,3927,1503329545626312578,ardrone_base_link,-0.148899555206,0.534286677837,-0.83208578825
1503329545632269889,3928,1503329545632059946,ardrone_base_link,-0.190764203668,0.520265996456,-0.83242559433
1503329545636733902,3929,1503329545636556913,ardrone_base_link,-0.190764203668,0.520265996456,-0.83242559433
1503329545641862459,3930,1503329545641685051,ardrone_base_link,-0.191747069359,0.540378153324,-0.819282948971
1503329545646790365,3931,1503329545646628443,ardrone_base_link,-0.191747069359,0.540378153324,-0.819282948971
1503329545651749878,3932,1503329545651445605,ardrone_base_link,-0.215046301484,0.507509291172,-0.8343796134
1503329545658861078,3933,1503329545658587413,ardrone_base_link,-0.215046301484,0.507509291172,-0.8343796134
1503329545664484995,3934,1503329545664251661,ardrone_base_link,-0.169913813472,0.525923728943,-0.833386778831
1503329545670361474,3935,1503329545670097650,ardrone_base_link,-0.169913813472,0.525923728943,-0.833386778831
1503329545677062891,3936,1503329545676876478,ardrone_base_link,-0.207981333137,0.485289782286,-0.849257111549
1503329545677093285,3937,1503329545676919569,ardrone_base_link,-0.207981333137,0.485289782286,-0.849257111549
1503329545682257800,3938,1503329545681997792,ardrone_base_link,-0.213161960244,0.520115196705,-0.827068388462
1503329545687793267,3939,1503329545687565947,ardrone_base_link,-0.213161960244,0.520115196705,-0.827068388462
1503329545692415828,3940,1503329545692116360,ardrone_base_link,-0.183765649796,0.551296949387,-0.813819348812
1503329545697045739,3941,1503329545696789243,ardrone_base_link,-0.183765649796,0.551296949387,-0.813819348812
1503329545703263536,3942,1503329545703104922,ardrone_base_link,-0.178773194551,0.503815352917,-0.845109641552
1503329545708249103,3943,1503329545708047718,ardrone_base_link,-0.178773194551,0.503815352917,-0.845109641552
1503329545713706222,3944,1503329545713518214,ardrone_base_link,-0.192342400551,0.526850879192,-0.827908575535
1503329545717115000,3945,1503329545716873904,ardrone_base_link,-0.192342400551,0.526850879192,-0.827908575535
1503329545722154435,3946,1503329545722018140,ardrone_base_link,-0.212331190705,0.513133704662,-0.831630527973
1503329545727402799,3947,1503329545727180031,ardrone_base_link,-0.212331190705,0.513133704662,-0.831630527973
1503329545735897209,3948,1503329545735602734,ardrone_base_link,-0.227059081197,0.523982465267,-0.820905864239
1503329545738799444,3949,1503329545738200511,ardrone_base_link,-0.227059081197,0.523982465267,-0.820905864239
1503329545742342285,3950,1503329545742116773,ardrone_base_link,-0.194087639451,0.565385758877,-0.80166631937
1503329545747130932,3951,1503329545746942879,ardrone_base_link,-0.194087639451,0.565385758877,-0.80166631937
1503329545752476094,3952,1503329545752228909,ardrone_base_link,-0.181881248951,0.510999679565,-0.84011811018
1503329545757372679,3953,1503329545757166403,ardrone_base_link,-0.181881248951,0.510999679565,-0.84011811018
1503329545764002549,3954,1503329545763821890,ardrone_base_link,-0.196796953678,0.521939754486,-0.829969763756
1503329545769333928,3955,1503329545769062074,ardrone_base_link,-0.196796953678,0.521939754486,-0.829969763756
1503329545772310447,3956,1503329545772124010,ardrone_base_link,-0.221841707826,0.529007136822,-0.819107830524
1503329545777696687,3957,1503329545777534887,ardrone_base_link,-0.221841707826,0.529007136822,-0.819107830524
1503329545782402949,3958,1503329545782191954,ardrone_base_link,-0.163580492139,0.525179505348,-0.835121512413
1503329545787538466,3959,1503329545787262791,ardrone_base_link,-0.163580492139,0.525179505348,-0.835121512413
1503329545794032038,3960,1503329545793774764,ardrone_base_link,-0.243524312973,0.521837770939,-0.817545890808
1503329545798739283,3961,1503329545798551485,ardrone_base_link,-0.243524312973,0.521837770939,-0.817545890808
1503329545802676160,3962,1503329545802492598,ardrone_base_link,-0.212238177657,0.551819264889,-0.806505084038
1503329545807556947,3963,1503329545807278697,ardrone_base_link,-0.212238177657,0.551819264889,-0.806505084038
1503329545812695966,3964,1503329545812496175,ardrone_base_link,-0.177717387676,0.516226708889,-0.837810575962
1503329545817725695,3965,1503329545817422031,ardrone_base_link,-0.177717387676,0.516226708889,-0.837810575962
1503329545822875954,3966,1503329545822692817,ardrone_base_link,-0.218773394823,0.521690368652,-0.824607372284
1503329545827665829,3967,1503329545827469868,ardrone_base_link,-0.218773394823,0.521690368652,-0.824607372284
1503329545832701031,3968,1503329545832445992,ardrone_base_link,-0.230483174324,0.537794053555,-0.810959339142
1503329545837714638,3969,1503329545837533337,ardrone_base_link,-0.230483174324,0.537794053555,-0.810959339142
1503329545842944941,3970,1503329545842755327,ardrone_base_link,-0.188041061163,0.512839257717,-0.837637424469
1503329545848234822,3971,1503329545848011442,ardrone_base_link,-0.188041061163,0.512839257717,-0.837637424469
1503329545854050038,3972,1503329545853848890,ardrone_base_link,-0.208451479673,0.538499653339,-0.816434979439
1503329545858589328,3973,1503329545858314844,ardrone_base_link,-0.208451479673,0.538499653339,-0.816434979439
1503329545866268467,3974,1503329545866100763,ardrone_base_link,-0.178986057639,0.553229629993,-0.813573002815
1503329545867803208,3975,1503329545867632676,ardrone_base_link,-0.178986057639,0.553229629993,-0.813573002815
1503329545872931408,3976,1503329545872750818,ardrone_base_link,-0.263919919729,0.610786139965,-0.746516346931
1503329545879974910,3977,1503329545879703538,ardrone_base_link,-0.263919919729,0.610786139965,-0.746516346931
1503329545886104313,3978,1503329545885937148,ardrone_base_link,-0.327643722296,0.583365619183,-0.743191838264
1503329545890190755,3979,1503329545889983770,ardrone_base_link,-0.327643722296,0.583365619183,-0.743191838264
1503329545896306319,3980,1503329545896086418,ardrone_base_link,-0.264783233404,0.521025061607,-0.811432480812
1503329545897994396,3981,1503329545897866044,ardrone_base_link,-0.264783233404,0.521025061607,-0.811432480812
1503329545903057813,3982,1503329545902834904,ardrone_base_link,-0.386587649584,0.525759220123,-0.75771176815
1503329545908026545,3983,1503329545907851082,ardrone_base_link,-0.386587649584,0.525759220123,-0.75771176815
1503329545913238111,3984,1503329545913039776,ardrone_base_link,-0.33545678854,0.603822231293,-0.723095715046
1503329545918374119,3985,1503329545918172112,ardrone_base_link,-0.33545678854,0.603822231293,-0.723095715046
1503329545923637216,3986,1503329545923457600,ardrone_base_link,-0.409184843302,0.606199800968,-0.681974768639
1503329545928305742,3987,1503329545928106117,ardrone_base_link,-0.409184843302,0.606199800968,-0.681974768639
1503329545933387532,3988,1503329545933161919,ardrone_base_link,-0.423417001963,0.499027192593,-0.75610178709
1503329545939001516,3989,1503329545938803499,ardrone_base_link,-0.423417001963,0.499027192593,-0.75610178709
1503329545943297492,3990,1503329545943145795,ardrone_base_link,-0.294198662043,0.50186830759,-0.813372790813
1503329545948330492,3991,1503329545948162834,ardrone_base_link,-0.294198662043,0.50186830759,-0.813372790813
1503329545953546636,3992,1503329545953339375,ardrone_base_link,-0.109764255583,0.481274068356,-0.869670689106
1503329545962673886,3993,1503329545962463240,ardrone_base_link,-0.109764255583,0.481274068356,-0.869670689106
1503329545964769334,3994,1503329545964626169,ardrone_base_link,-0.12815181911,0.51260727644,-0.849005818367
1503329545969764684,3995,1503329545969539789,ardrone_base_link,-0.12815181911,0.51260727644,-0.849005818367
1503329545973810408,3996,1503329545973296211,ardrone_base_link,-0.347565501928,0.563828468323,-0.749196708202
1503329545978536946,3997,1503329545978337840,ardrone_base_link,-0.347565501928,0.563828468323,-0.749196708202
1503329545984419793,3998,1503329545984235039,ardrone_base_link,-0.269641637802,0.52243065834,-0.808924913406
1503329545990082123,3999,1503329545989891855,ardrone_base_link,-0.269641637802,0.52243065834,-0.808924913406
1503329545993652704,4000,1503329545993486279,ardrone_base_link,-0.142605602741,0.511702477932,-0.84724509716
1503329545998538066,4001,1503329545998352887,ardrone_base_link,-0.142605602741,0.511702477932,-0.84724509716
1503329546005128559,4002,1503329546004956683,ardrone_base_link,-0.290890693665,0.581781387329,-0.759547889233
1503329546010317372,4003,1503329546010088563,ardrone_base_link,-0.290890693665,0.581781387329,-0.759547889233
1503329546013579280,4004,1503329546013387778,ardrone_base_link,-0.312823444605,0.526860535145,-0.790290772915
1503329546020749182,4005,1503329546020579127,ardrone_base_link,-0.312823444605,0.526860535145,-0.790290772915
1503329546024062169,4006,1503329546023901740,ardrone_base_link,-0.252572119236,0.536715745926,-0.805073618889
1503329546028780002,4007,1503329546028608379,ardrone_base_link,-0.252572119236,0.536715745926,-0.805073618889
1503329546033755259,4008,1503329546033553983,ardrone_base_link,-0.388412088156,0.531094074249,-0.753043830395
1503329546038748323,4009,1503329546038594180,ardrone_base_link,-0.388412088156,0.531094074249,-0.753043830395
1503329546044078786,4010,1503329546043927727,ardrone_base_link,-0.143374428153,0.531328737736,-0.834945201874
1503329546050240483,4011,1503329546050025395,ardrone_base_link,-0.143374428153,0.531328737736,-0.834945201874
1503329546055581886,4012,1503329546055404016,ardrone_base_link,-0.391674250364,0.519567906857,-0.759368479252
1503329546058906896,4013,1503329546058690027,ardrone_base_link,-0.391674250364,0.519567906857,-0.759368479252
1503329546063998601,4014,1503329546063780517,ardrone_base_link,-0.133453443646,0.52596360445,-0.839971661568
1503329546069276122,4015,1503329546068899725,ardrone_base_link,-0.133453443646,0.52596360445,-0.839971661568
1503329546074060750,4016,1503329546073948039,ardrone_base_link,-0.378013372421,0.522784411907,-0.76406955719
1503329546080898614,4017,1503329546080595376,ardrone_base_link,-0.378013372421,0.522784411907,-0.76406955719
1503329546090351618,4018,1503329546090083433,ardrone_base_link,-0.25610652566,0.519973874092,-0.81488442421
1503329546090403416,4019,1503329546090120940,ardrone_base_link,-0.25610652566,0.519973874092,-0.81488442421
1503329546095351170,4020,1503329546095159085,ardrone_base_link,-0.284401834011,0.468426555395,-0.836476027966
1503329546099237239,4021,1503329546098897376,ardrone_base_link,-0.284401834011,0.468426555395,-0.836476027966
1503329546108031788,4022,1503329546107826858,ardrone_base_link,-0.388006299734,0.56584250927,-0.727511763573
1503329546109262705,4023,1503329546109054151,ardrone_base_link,-0.388006299734,0.56584250927,-0.727511763573
1503329546115591857,4024,1503329546115438601,ardrone_base_link,-0.225075736642,0.594843029976,-0.771688222885
1503329546119390516,4025,1503329546119282562,ardrone_base_link,-0.225075736642,0.594843029976,-0.771688222885
1503329546126742285,4026,1503329546126582697,ardrone_base_link,-0.245736598969,0.491473197937,-0.835504412651
1503329546129711569,4027,1503329546129136183,ardrone_base_link,-0.245736598969,0.491473197937,-0.835504412651
1503329546134353841,4028,1503329546134177614,ardrone_base_link,-0.42321524024,0.519037544727,-0.742622971535
1503329546139464029,4029,1503329546139272265,ardrone_base_link,-0.42321524024,0.519037544727,-0.742622971535
1503329546144507403,4030,1503329546144297625,ardrone_base_link,-0.338313877583,0.57996660471,-0.741068482399
1503329546149621639,4031,1503329546149400476,ardrone_base_link,-0.338313877583,0.57996660471,-0.741068482399
1503329546156076578,4032,1503329546155864406,ardrone_base_link,-0.215257272124,0.538143217564,-0.814902544022
1503329546162778116,4033,1503329546162586414,ardrone_base_link,-0.215257272124,0.538143217564,-0.814902544022
1503329546164906535,4034,1503329546164705593,ardrone_base_link,-0.210969686508,0.554772138596,-0.804810285568
1503329546169677038,4035,1503329546169424822,ardrone_base_link,-0.210969686508,0.554772138596,-0.804810285568
1503329546174658587,4036,1503329546174453952,ardrone_base_link,-0.311430603266,0.513439655304,-0.799619138241
1503329546179729122,4037,1503329546179547409,ardrone_base_link,-0.311430603266,0.513439655304,-0.799619138241
1503329546186238398,4038,1503329546186076359,ardrone_base_link,-0.349466502666,0.515879094601,-0.7821393013
1503329546192405695,4039,1503329546192196806,ardrone_base_link,-0.349466502666,0.515879094601,-0.7821393013
1503329546194721471,4040,1503329546194490255,ardrone_base_link,-0.339151114225,0.532951712608,-0.775202512741
1503329546199829312,4041,1503329546199534105,ardrone_base_link,-0.339151114225,0.532951712608,-0.775202512741
1503329546205351069,4042,1503329546204858051,ardrone_base_link,-0.388721913099,0.554135501385,-0.736090421677
1503329546209779072,4043,1503329546209546514,ardrone_base_link,-0.388721913099,0.554135501385,-0.736090421677
1503329546215060815,4044,1503329546214927953,ardrone_base_link,-0.346377193928,0.582927465439,-0.734995484352
1503329546219977710,4045,1503329546219803413,ardrone_base_link,-0.346377193928,0.582927465439,-0.734995484352
1503329546225579780,4046,1503329546225413723,ardrone_base_link,-0.353303104639,0.572014570236,-0.740254163742
1503329546230091215,4047,1503329546229841881,ardrone_base_link,-0.353303104639,0.572014570236,-0.740254163742
1503329546234927735,4048,1503329546234741033,ardrone_base_link,-0.348674237728,0.552776277065,-0.756878256798
1503329546241167091,4049,1503329546240976233,ardrone_base_link,-0.348674237728,0.552776277065,-0.756878256798
1503329546250233199,4050,1503329546249997583,ardrone_base_link,-0.360094070435,0.54871481657,-0.754482865334
1503329546253972134,4051,1503329546253813135,ardrone_base_link,-0.360094070435,0.54871481657,-0.754482865334
1503329546256352449,4052,1503329546256087913,ardrone_base_link,-0.400015115738,0.504366874695,-0.765246331692
1503329546260341936,4053,1503329546260173638,ardrone_base_link,-0.400015115738,0.504366874695,-0.765246331692
1503329546265328209,4054,1503329546265117182,ardrone_base_link,-0.336146324873,0.537834107876,-0.773136556149
1503329546270146729,4055,1503329546269936987,ardrone_base_link,-0.336146324873,0.537834107876,-0.773136556149
1503329546275844613,4056,1503329546275672279,ardrone_base_link,-0.302311778069,0.525067806244,-0.795557260513
1503329546280355478,4057,1503329546280225818,ardrone_base_link,-0.302311778069,0.525067806244,-0.795557260513
1503329546290296116,4058,1503329546290039411,ardrone_base_link,-0.206480205059,0.512376785278,-0.833568274975
1503329546292607665,4059,1503329546292425349,ardrone_base_link,-0.206480205059,0.512376785278,-0.833568274975
1503329546298388341,4060,1503329546298188085,ardrone_base_link,-0.247327417135,0.541028738022,-0.80381411314
1503329546300737817,4061,1503329546300547433,ardrone_base_link,-0.247327417135,0.541028738022,-0.80381411314
1503329546305298840,4062,1503329546305076443,ardrone_base_link,-0.275616377592,0.568458795547,-0.775171101093
1503329546313657451,4063,1503329546313497786,ardrone_base_link,-0.275616377592,0.568458795547,-0.775171101093
1503329546315671926,4064,1503329546315560578,ardrone_base_link,-0.320205628872,0.533676028252,-0.78272485733
1503329546322387201,4065,1503329546322214311,ardrone_base_link,-0.320205628872,0.533676028252,-0.78272485733
1503329546327894195,4066,1503329546327708491,ardrone_base_link,-0.288176625967,0.470182925463,-0.834195494652
1503329546333369025,4067,1503329546333168498,ardrone_base_link,-0.288176625967,0.470182925463,-0.834195494652
1503329546335598273,4068,1503329546335424785,ardrone_base_link,-0.216429814696,0.521034777164,-0.825639665127
1503329546340554207,4069,1503329546340383076,ardrone_base_link,-0.216429814696,0.521034777164,-0.825639665127
1503329546345907687,4070,1503329546345731631,ardrone_base_link,-0.334612190723,0.569745063782,-0.750616550446
1503329546356238441,4071,1503329546355997535,ardrone_base_link,-0.334612190723,0.569745063782,-0.750616550446
1503329546358459725,4072,1503329546358230809,ardrone_base_link,-0.264461815357,0.476031243801,-0.838721692562
1503329546361578564,4073,1503329546361389084,ardrone_base_link,-0.264461815357,0.476031243801,-0.838721692562
1503329546370852098,4074,1503329546370629228,ardrone_base_link,-0.326237082481,0.560458540916,-0.761219859123
1503329546371995478,4075,1503329546371809080,ardrone_base_link,-0.326237082481,0.560458540916,-0.761219859123
1503329546377475638,4076,1503329546377296393,ardrone_base_link,-0.322311788797,0.559804677963,-0.763370037079
1503329546380911249,4077,1503329546380724325,ardrone_base_link,-0.322311788797,0.559804677963,-0.763370037079
1503329546385833006,4078,1503329546385661956,ardrone_base_link,-0.244056403637,0.465925872326,-0.85049957037
1503329546393299882,4079,1503329546393129550,ardrone_base_link,-0.244056403637,0.465925872326,-0.85049957037
1503329546396456534,4080,1503329546396308738,ardrone_base_link,-0.285727679729,0.545480072498,-0.787915706635
1503329546401003259,4081,1503329546400848385,ardrone_base_link,-0.285727679729,0.545480072498,-0.787915706635
1503329546405996441,4082,1503329546405813443,ardrone_base_link,-0.292885571718,0.51818215847,-0.803557872772
1503329546414394175,4083,1503329546414180074,ardrone_base_link,-0.292885571718,0.51818215847,-0.803557872772
1503329546416014081,4084,1503329546415839924,ardrone_base_link,-0.241400524974,0.568459331989,-0.786498486996
1503329546420987043,4085,1503329546420804288,ardrone_base_link,-0.241400524974,0.568459331989,-0.786498486996
1503329546426117982,4086,1503329546425960470,ardrone_base_link,-0.259587049484,0.571091532707,-0.778761148453
1503329546431852581,4087,1503329546431600800,ardrone_base_link,-0.259587049484,0.571091532707,-0.778761148453
1503329546436013194,4088,1503329546435824525,ardrone_base_link,-0.31606978178,0.474104642868,-0.821781396866
1503329546445286131,4089,1503329546445079894,ardrone_base_link,-0.31606978178,0.474104642868,-0.821781396866
1503329546449725552,4090,1503329546449370297,ardrone_base_link,-0.307017296553,0.523735404015,-0.794633030891
1503329546452185351,4091,1503329546451985636,ardrone_base_link,-0.307017296553,0.523735404015,-0.794633030891
1503329546456405970,4092,1503329546455932134,ardrone_base_link,-0.308864176273,0.509625911713,-0.803046882153
1503329546461576898,4093,1503329546461396596,ardrone_base_link,-0.308864176273,0.509625911713,-0.803046882153
1503329546466184891,4094,1503329546465994705,ardrone_base_link,-0.292337179184,0.592575311661,-0.750595450401
1503329546476200052,4095,1503329546476076296,ardrone_base_link,-0.292337179184,0.592575311661,-0.750595450401
1503329546479918534,4096,1503329546479741087,ardrone_base_link,-0.37657764554,0.427929133177,-0.821623921394
1503329546481758966,4097,1503329546481593422,ardrone_base_link,-0.37657764554,0.427929133177,-0.821623921394
1503329546487678098,4098,1503329546486941170,ardrone_base_link,-0.290171653032,0.515860676765,-0.8060323596
1503329546494436548,4099,1503329546494284648,ardrone_base_link,-0.290171653032,0.515860676765,-0.8060323596
1503329546496258611,4100,1503329546496112621,ardrone_base_link,-0.261418372393,0.539175391197,-0.800593733788
1503329546501246428,4101,1503329546501033691,ardrone_base_link,-0.261418372393,0.539175391197,-0.800593733788
1503329546509026974,4102,1503329546508840340,ardrone_base_link,-0.231570601463,0.566948711872,-0.790534079075
1503329546512449166,4103,1503329546512276901,ardrone_base_link,-0.231570601463,0.566948711872,-0.790534079075
1503329546516550693,4104,1503329546516408073,ardrone_base_link,-0.273081898689,0.554439008236,-0.786144852638
1503329546521699209,4105,1503329546521538187,ardrone_base_link,-0.273081898689,0.554439008236,-0.786144852638
1503329546526822302,4106,1503329546526707386,ardrone_base_link,-0.26591399312,0.514100372791,-0.815469563007
1503329546534007468,4107,1503329546533711708,ardrone_base_link,-0.26591399312,0.514100372791,-0.815469563007
1503329546539358624,4108,1503329546539174770,ardrone_base_link,-0.277141988277,0.450355738401,-0.848747313023
1503329546547322764,4109,1503329546547051513,ardrone_base_link,-0.277141988277,0.450355738401,-0.848747313023
1503329546547337073,4110,1503329546547095962,ardrone_base_link,-0.302105307579,0.419590681791,-0.855965018272
1503329546551744295,4111,1503329546551456391,ardrone_base_link,-0.302105307579,0.419590681791,-0.855965018272
1503329546557966025,4112,1503329546557778535,ardrone_base_link,-0.287201523781,0.47866922617,-0.829693317413
1503329546561721148,4113,1503329546561551484,ardrone_base_link,-0.287201523781,0.47866922617,-0.829693317413
1503329546569737098,4114,1503329546569551551,ardrone_base_link,-0.245674207807,0.573239803314,-0.781690657139
1503329546571816094,4115,1503329546571685448,ardrone_base_link,-0.245674207807,0.573239803314,-0.781690657139
1503329546578392362,4116,1503329546578220200,ardrone_base_link,-0.2667979002,0.6225284338,-0.735715448856
1503329546583610702,4117,1503329546583400535,ardrone_base_link,-0.2667979002,0.6225284338,-0.735715448856
1503329546586827016,4118,1503329546586652762,ardrone_base_link,-0.250459015369,0.610493838787,-0.751377046108
1503329546591867159,4119,1503329546591687106,ardrone_base_link,-0.250459015369,0.610493838787,-0.751377046108
1503329546596908979,4120,1503329546596767823,ardrone_base_link,-0.276137083769,0.543366491795,-0.792780637741
1503329546601770676,4121,1503329546601564350,ardrone_base_link,-0.276137083769,0.543366491795,-0.792780637741
1503329546607088608,4122,1503329546606894134,ardrone_base_link,-0.337475806475,0.458620995283,-0.822056472301
1503329546612087076,4123,1503329546611867086,ardrone_base_link,-0.337475806475,0.458620995283,-0.822056472301
1503329546618235208,4124,1503329546618046466,ardrone_base_link,-0.342967182398,0.443347811699,-0.828140258789
1503329546625810726,4125,1503329546625629195,ardrone_base_link,-0.342967182398,0.443347811699,-0.828140258789
1503329546627100912,4126,1503329546626986567,ardrone_base_link,-0.30468416214,0.518786549568,-0.798766613007
1503329546632092863,4127,1503329546631879184,ardrone_base_link,-0.30468416214,0.518786549568,-0.798766613007
1503329546638507336,4128,1503329546638336174,ardrone_base_link,-0.252128869295,0.603581190109,-0.756386578083
1503329546643025449,4129,1503329546642841106,ardrone_base_link,-0.252128869295,0.603581190109,-0.756386578083
1503329546647991015,4130,1503329546647281917,ardrone_base_link,-0.228502348065,0.622471928596,-0.748542189598
1503329546652366528,4131,1503329546652137583,ardrone_base_link,-0.228502348065,0.622471928596,-0.748542189598
1503329546657235714,4132,1503329546657045456,ardrone_base_link,-0.262151241302,0.559255957603,-0.786453723907
1503329546662248161,4133,1503329546662080271,ardrone_base_link,-0.262151241302,0.559255957603,-0.786453723907
1503329546667883511,4134,1503329546667725514,ardrone_base_link,-0.308652073145,0.445830762386,-0.840219557285
1503329546672748533,4135,1503329546672541183,ardrone_base_link,-0.308652073145,0.445830762386,-0.840219557285
1503329546677443417,4136,1503329546677233625,ardrone_base_link,-0.31448546052,0.459632605314,-0.830564141273
1503329546684571181,4137,1503329546684387737,ardrone_base_link,-0.31448546052,0.459632605314,-0.830564141273
1503329546688486518,4138,1503329546688297804,ardrone_base_link,-0.268350929022,0.529034733772,-0.805052816868
1503329546694150749,4139,1503329546693992884,ardrone_base_link,-0.268350929022,0.529034733772,-0.805052816868
1503329546699481312,4140,1503329546699337864,ardrone_base_link,-0.265343248844,0.630190193653,-0.729693949223
1503329546705134437,4141,1503329546704919999,ardrone_base_link,-0.265343248844,0.630190193653,-0.729693949223
1503329546707900145,4142,1503329546707732006,ardrone_base_link,-0.294763624668,0.547418177128,-0.78322905302
1503329546713013577,4143,1503329546712847917,ardrone_base_link,-0.294763624668,0.547418177128,-0.78322905302
1503329546717700857,4144,1503329546717437043,ardrone_base_link,-0.340134948492,0.444791853428,-0.828533887863
1503329546722604493,4145,1503329546722461468,ardrone_base_link,-0.340134948492,0.444791853428,-0.828533887863
1503329546727693479,4146,1503329546727549627,ardrone_base_link,-0.28924793005,0.492503225803,-0.820838689804
1503329546732412746,4147,1503329546732166139,ardrone_base_link,-0.28924793005,0.492503225803,-0.820838689804
1503329546738016801,4148,1503329546737762464,ardrone_base_link,-0.225979477167,0.617677271366,-0.753264904022
1503329546748413090,4149,1503329546748241002,ardrone_base_link,-0.225979477167,0.617677271366,-0.753264904022
1503329546750054219,4150,1503329546749834611,ardrone_base_link,-0.2279933393,0.605361640453,-0.762598395348
1503329546752813771,4151,1503329546752574802,ardrone_base_link,-0.2279933393,0.605361640453,-0.762598395348
1503329546758675581,4152,1503329546758509006,ardrone_base_link,-0.269799888134,0.521613121033,-0.809399604797
1503329546762736583,4153,1503329546762552762,ardrone_base_link,-0.269799888134,0.521613121033,-0.809399604797
1503329546768340837,4154,1503329546768196836,ardrone_base_link,-0.285213440657,0.431894630194,-0.855640292168
1503329546776995777,4155,1503329546776800147,ardrone_base_link,-0.285213440657,0.431894630194,-0.855640292168
1503329546778971188,4156,1503329546778780945,ardrone_base_link,-0.246885374188,0.58635276556,-0.771516799927
1503329546782593121,4157,1503329546782402912,ardrone_base_link,-0.246885374188,0.58635276556,-0.771516799927
1503329546788197940,4158,1503329546787931473,ardrone_base_link,-0.249806523323,0.613161444664,-0.749419569969
