%time,field.linear.x,field.linear.y,field.linear.z,field.angular.x,field.angular.y,field.angular.z
1505356812449995717,0.395810902119,0.466485977173,0.395810902119,0.466485977173,0.0,3.04404731068
1505356812454511913,0.395805865526,0.466480791569,0.395805865526,0.466480791569,0.0,3.04404731068
1505356812465073827,0.395806103945,0.466480344534,0.395806103945,0.466480344534,0.0,3.04401486671
1505356812465179188,0.395806103945,0.466480344534,0.395806103945,0.466480344534,0.0,3.04401486671
1505356812469925992,0.395806103945,0.466480344534,0.395806103945,0.466480344534,0.0,3.04401486671
1505356812474827785,0.395810335875,0.46648851037,0.395810335875,0.46648851037,0.0,3.04401486671
1505356812479746187,0.395810335875,0.46648851037,0.395810335875,0.46648851037,0.0,3.04401486671
1505356812485329482,0.395808935165,0.466475069523,0.395808935165,0.466475069523,0.0,3.04401486671
1505356812489826663,0.395808935165,0.466475069523,0.395808935165,0.466475069523,0.0,3.04401486671
1505356812498481791,0.395808935165,0.466475069523,0.395808935165,0.466475069523,0.0,3.04401486671
1505356812499793647,0.395808935165,0.466475069523,0.395808935165,0.466475069523,0.0,3.04401486671
1505356812504684319,0.395800322294,0.466516464949,0.395800322294,0.466516464949,0.0,3.04401486671
1505356812512280173,0.395809829235,0.466476351023,0.395809829235,0.466476351023,0.0,3.04403680003
1505356812516456628,0.395809829235,0.466476351023,0.395809829235,0.466476351023,0.0,3.04403680003
1505356812519905191,0.395809829235,0.466476351023,0.395809829235,0.466476351023,0.0,3.04403680003
1505356812524766051,0.395809829235,0.466476351023,0.395809829235,0.466476351023,0.0,3.04403680003
1505356812537170586,0.39580899477,0.466523677111,0.39580899477,0.466523677111,0.0,3.04403680003
1505356812539946429,0.39580899477,0.466523677111,0.39580899477,0.466523677111,0.0,3.04403680003
1505356812545099525,0.39581400156,0.466451019049,0.39581400156,0.466451019049,0.0,3.04403680003
1505356812550182631,0.39581400156,0.466451019049,0.39581400156,0.466451019049,0.0,3.04403680003
1505356812554912686,0.395816296339,0.466490924358,0.395816296339,0.466490924358,0.0,3.04403680003
1505356812563935070,0.395814448595,0.466479688883,0.395814448595,0.466479688883,0.0,3.04403992397
1505356812564854613,0.395814448595,0.466479688883,0.395814448595,0.466479688883,0.0,3.04403992397
1505356812571775031,0.395814448595,0.466479688883,0.395814448595,0.466479688883,0.0,3.04403992397
1505356812579299458,0.395814448595,0.466479688883,0.395814448595,0.466479688883,0.0,3.04403992397
1505356812579930572,0.395814448595,0.466479688883,0.395814448595,0.466479688883,0.0,3.04403992397
1505356812585607036,0.3958157897,0.466509670019,0.3958157897,0.466509670019,0.0,3.04403992397
1505356812590431335,0.3958157897,0.466509670019,0.3958157897,0.466509670019,0.0,3.04403992397
1505356812597712824,0.395814716816,0.466481566429,0.395814716816,0.466481566429,0.0,3.04403992397
1505356812599987886,0.395814716816,0.466481566429,0.395814716816,0.466481566429,0.0,3.04403992397
1505356812605291931,0.395814716816,0.466481566429,0.395814716816,0.466481566429,0.0,3.04403992397
1505356812611789850,0.395815104246,0.466524004936,0.395815104246,0.466524004936,0.0,3.04405312127
1505356812615270780,0.395815104246,0.466524004936,0.395815104246,0.466524004936,0.0,3.04405312127
1505356812620427833,0.395817190409,0.466458648443,0.395817190409,0.466458648443,0.0,3.04405312127
1505356812625191957,0.395817190409,0.466458648443,0.395817190409,0.466458648443,0.0,3.04405312127
1505356812632457944,0.395822495222,0.466475129128,0.395822495222,0.466475129128,0.0,3.04405312127
1505356812639233248,0.395822495222,0.466475129128,0.395822495222,0.466475129128,0.0,3.04405312127
1505356812642445804,0.395811229944,0.466512560844,0.395811229944,0.466512560844,0.0,3.04405312127
1505356812645571730,0.395811229944,0.466512560844,0.395811229944,0.466512560844,0.0,3.04405312127
1505356812652157644,0.3958119452,0.466483443975,0.3958119452,0.466483443975,0.0,3.04405312127
1505356812655337040,0.3958119452,0.466483443975,0.3958119452,0.466483443975,0.0,3.04405312127
1505356812665846442,0.395812034607,0.466463387012,0.395812034607,0.466463387012,0.0,3.04402024826
1505356812671001646,0.395813316107,0.466496407986,0.395813316107,0.466496407986,0.0,3.04402024826
1505356812677395823,0.395813316107,0.466496407986,0.395813316107,0.466496407986,0.0,3.04402024826
1505356812683097857,0.395813554525,0.466475188732,0.395813554525,0.466475188732,0.0,3.04402024826
1505356812685692371,0.395813554525,0.466475188732,0.395813554525,0.466475188732,0.0,3.04402024826
1505356812690611807,0.395813554525,0.466475188732,0.395813554525,0.466475188732,0.0,3.04402024826
1505356812695615875,0.395813554525,0.466475188732,0.395813554525,0.466475188732,0.0,3.04402024826
1505356812700548331,0.395813554525,0.466475188732,0.395813554525,0.466475188732,0.0,3.04402024826
1505356812708119126,0.395819842815,0.466485798359,0.395819842815,0.466485798359,0.0,3.04405144113
1505356812711392007,0.395817786455,0.466526627541,0.395817786455,0.466526627541,0.0,3.04405144113
1505356812715590789,0.395817786455,0.466526627541,0.395817786455,0.466526627541,0.0,3.04405144113
1505356812720869271,0.395817786455,0.466526627541,0.395817786455,0.466526627541,0.0,3.04405144113
1505356812725847912,0.395817786455,0.466526627541,0.395817786455,0.466526627541,0.0,3.04405144113
1505356812731112427,0.395815044641,0.466494202614,0.395815044641,0.466494202614,0.0,3.04405144113
1505356812741352770,0.395814448595,0.466432452202,0.395814448595,0.466432452202,0.0,3.04405144113
1505356812741666886,0.395814448595,0.466432452202,0.395814448595,0.466432452202,0.0,3.04405144113
1505356812745724315,0.395814448595,0.466432452202,0.395814448595,0.466432452202,0.0,3.04405144113
1505356812751216291,0.39581438899,0.466488957405,0.39581438899,0.466488957405,0.0,3.04405144113
1505356812756147408,0.39581438899,0.466488957405,0.39581438899,0.466488957405,0.0,3.04405144113
1505356812764478456,0.395806968212,0.466489613056,0.395806968212,0.466489613056,0.0,3.04403535121
1505356812771226138,0.395818501711,0.466483622789,0.395818501711,0.466483622789,0.0,3.04403535121
1505356812775911041,0.395818501711,0.466483622789,0.395818501711,0.466483622789,0.0,3.04403535121
1505356812780792236,0.395826280117,0.46648183465,0.395826280117,0.46648183465,0.0,3.04403535121
1505356812790102542,0.395826280117,0.46648183465,0.395826280117,0.46648183465,0.0,3.04403535121
1505356812790941390,0.395823448896,0.466462284327,0.395823448896,0.466462284327,0.0,3.04403535121
1505356812798710311,0.395823448896,0.466462284327,0.395823448896,0.466462284327,0.0,3.04403535121
1505356812804903764,0.395822674036,0.46647337079,0.395822674036,0.46647337079,0.0,3.04403535121
1505356812806264932,0.395822674036,0.46647337079,0.395822674036,0.46647337079,0.0,3.04403535121
1505356812811592666,0.395822674036,0.46647337079,0.395822674036,0.46647337079,0.0,3.04401050087
1505356812815884479,0.395822674036,0.46647337079,0.395822674036,0.46647337079,0.0,3.04401050087
1505356812821996053,0.395822674036,0.46647337079,0.395822674036,0.46647337079,0.0,3.04401050087
1505356812825957210,0.395822674036,0.46647337079,0.395822674036,0.46647337079,0.0,3.04401050087
1505356812831126961,0.395822674036,0.46647337079,0.395822674036,0.46647337079,0.0,3.04401050087
1505356812836875984,0.395822674036,0.46647337079,0.395822674036,0.46647337079,0.0,3.04401050087
1505356812843089961,0.395822674036,0.46647337079,0.395822674036,0.46647337079,0.0,3.04401050087
1505356812846137276,0.395822674036,0.46647337079,0.395822674036,0.46647337079,0.0,3.04401050087
1505356812851644798,0.395822674036,0.46647337079,0.395822674036,0.46647337079,0.0,3.04401050087
1505356812857755935,0.395822674036,0.46647337079,0.395822674036,0.46647337079,0.0,3.04401050087
1505356812865050993,0.395821452141,0.466484874487,0.395821452141,0.466484874487,0.0,3.04401050087
1505356812868276122,0.395821452141,0.466484874487,0.395821452141,0.466484874487,0.0,3.04401050087
1505356812871720643,0.39581951499,0.466486632824,0.39581951499,0.466486632824,0.0,3.04401050087
1505356812876472254,0.39581951499,0.466486632824,0.39581951499,0.466486632824,0.0,3.04401050087
1505356812881370064,0.395815402269,0.466457664967,0.395815402269,0.466457664967,0.0,3.04401050087
1505356812886744817,0.395815402269,0.466457664967,0.395815402269,0.466457664967,0.0,3.04401050087
1505356812892655741,0.395812988281,0.466478735209,0.395812988281,0.466478735209,0.0,3.04401050087
1505356812897712002,0.395812988281,0.466478735209,0.395812988281,0.466478735209,0.0,3.04401050087
1505356812902855830,0.395829439163,0.466457158327,0.395829439163,0.466457158327,0.0,3.04401050087
1505356812906765983,0.395829439163,0.466457158327,0.395829439163,0.466457158327,0.0,3.04401050087
1505356812911935368,0.395829439163,0.466457158327,0.395829439163,0.466457158327,0.0,3.04402001402
1505356812916621266,0.395829439163,0.466457158327,0.395829439163,0.466457158327,0.0,3.04402001402
1505356812921487831,0.395818591118,0.466519027948,0.395818591118,0.466519027948,0.0,3.04402001402
1505356812929604448,0.395818591118,0.466519027948,0.395818591118,0.466519027948,0.0,3.04402001402
1505356812935502881,0.395820766687,0.46646553278,0.395820766687,0.46646553278,0.0,3.04402001402
1505356812936949024,0.395820766687,0.46646553278,0.395820766687,0.46646553278,0.0,3.04402001402
1505356812945793826,0.395820766687,0.46646553278,0.395820766687,0.46646553278,0.0,3.04402001402
1505356812946715629,0.395820766687,0.46646553278,0.395820766687,0.46646553278,0.0,3.04402001402
1505356812951871135,0.395824044943,0.466486126184,0.395824044943,0.466486126184,0.0,3.04402001402
1505356812956723117,0.395824044943,0.466486126184,0.395824044943,0.466486126184,0.0,3.0440328259
1505356812964866666,0.39581823349,0.466478258371,0.39581823349,0.466478258371,0.0,3.0440328259
1505356812967786134,0.39581823349,0.466478258371,0.39581823349,0.466478258371,0.0,3.0440328259
1505356812972001963,0.395813465118,0.466486781836,0.395813465118,0.466486781836,0.0,3.0440328259
1505356812976618031,0.395813465118,0.466486781836,0.395813465118,0.466486781836,0.0,3.0440328259
1505356812981785892,0.395813524723,0.466472893953,0.395813524723,0.466472893953,0.0,3.0440328259
1505356812987022797,0.395813524723,0.466472893953,0.395813524723,0.466472893953,0.0,3.0440328259
1505356812997650614,0.395811676979,0.466486632824,0.395811676979,0.466486632824,0.0,3.0440328259
1505356812998438076,0.395811676979,0.466486632824,0.395811676979,0.466486632824,0.0,3.0440328259
1505356813002114310,0.395811676979,0.466486632824,0.395811676979,0.466486632824,0.0,3.0440328259
1505356813007145117,0.395811676979,0.466486632824,0.395811676979,0.466486632824,0.0,3.04401966798
1505356813012337473,0.395810455084,0.466498851776,0.395810455084,0.466498851776,0.0,3.04401966798
1505356813017892919,0.395810455084,0.466498851776,0.395810455084,0.466498851776,0.0,3.04401966798
1505356813021715721,0.395816504955,0.466490358114,0.395816504955,0.466490358114,0.0,3.04401966798
1505356813031018943,0.395816504955,0.466490358114,0.395816504955,0.466490358114,0.0,3.04401966798
1505356813032322442,0.395816504955,0.466490358114,0.395816504955,0.466490358114,0.0,3.04401966798
1505356813037397020,0.395816504955,0.466490358114,0.395816504955,0.466490358114,0.0,3.04401966798
1505356813042098566,0.395811289549,0.46650660038,0.395811289549,0.46650660038,0.0,3.04401966798
1505356813047970898,0.395811289549,0.46650660038,0.395811289549,0.46650660038,0.0,3.04401966798
1505356813052118477,0.395812213421,0.466463983059,0.395812213421,0.466463983059,0.0,3.04401966798
1505356813057092550,0.395812213421,0.466463983059,0.395812213421,0.466463983059,0.0,3.04402173613
1505356813064348657,0.395812213421,0.466463983059,0.395812213421,0.466463983059,0.0,3.04402173613
1505356813069586328,0.395812213421,0.466463983059,0.395812213421,0.466463983059,0.0,3.04402173613
1505356813072388957,0.395812213421,0.466463983059,0.395812213421,0.466463983059,0.0,3.04402173613
1505356813079062571,0.395812213421,0.466463983059,0.395812213421,0.466463983059,0.0,3.04402173613
1505356813082238148,0.395812213421,0.466463983059,0.395812213421,0.466463983059,0.0,3.04402173613
1505356813087359166,0.395812213421,0.466463983059,0.395812213421,0.466463983059,0.0,3.04402173613
1505356813092223914,0.395812213421,0.466463983059,0.395812213421,0.466463983059,0.0,3.04402173613
1505356813099213194,0.395812213421,0.466463983059,0.395812213421,0.466463983059,0.0,3.04402173613
1505356813102181404,0.395812213421,0.466463983059,0.395812213421,0.466463983059,0.0,3.04402173613
1505356813107472236,0.395812213421,0.466463983059,0.395812213421,0.466463983059,0.0,3.04402173613
1505356813112434819,0.395813256502,0.466468125582,0.395813256502,0.466468125582,0.0,3.04402173613
1505356813117239219,0.395813256502,0.466468125582,0.395813256502,0.466468125582,0.0,3.04402173613
1505356813122101407,0.395809203386,0.466516703367,0.395809203386,0.466516703367,0.0,3.04402173613
1505356813130469467,0.395809203386,0.466516703367,0.395809203386,0.466516703367,0.0,3.04402173613
1505356813132593088,0.395814985037,0.466481477022,0.395814985037,0.466481477022,0.0,3.04402173613
1505356813137309814,0.395814985037,0.466481477022,0.395814985037,0.466481477022,0.0,3.04402173613
1505356813143637045,0.395814985037,0.466481477022,0.395814985037,0.466481477022,0.0,3.04402173613
1505356813151930910,0.395816832781,0.466503411531,0.395816832781,0.466503411531,0.0,3.04402173613
1505356813152280502,0.395816832781,0.466503411531,0.395816832781,0.466503411531,0.0,3.04402173613
1505356813157242825,0.395816832781,0.466503411531,0.395816832781,0.466503411531,0.0,3.04405214747
1505356813164353266,0.395802795887,0.466492950916,0.395802795887,0.466492950916,0.0,3.04405214747
1505356813167646408,0.395802795887,0.466492950916,0.395802795887,0.466492950916,0.0,3.04405214747
1505356813173951323,0.395811259747,0.466497927904,0.395811259747,0.466497927904,0.0,3.04405214747
1505356813177454692,0.395811259747,0.466497927904,0.395811259747,0.466497927904,0.0,3.04405214747
1505356813182531248,0.395811259747,0.466497927904,0.395811259747,0.466497927904,0.0,3.04405214747
1505356813188056720,0.395811259747,0.466497927904,0.395811259747,0.466497927904,0.0,3.04405214747
1505356813193027301,0.395813345909,0.466454446316,0.395813345909,0.466454446316,0.0,3.04405214747
1505356813198252896,0.395813345909,0.466454446316,0.395813345909,0.466454446316,0.0,3.04405214747
1505356813203904774,0.395802170038,0.466502487659,0.395802170038,0.466502487659,0.0,3.04405214747
1505356813207742850,0.395802170038,0.466502487659,0.395802170038,0.466502487659,0.0,3.0440176764
1505356813212645272,0.395809352398,0.466448962688,0.395809352398,0.466448962688,0.0,3.0440176764
1505356813217723463,0.395809352398,0.466448962688,0.395809352398,0.466448962688,0.0,3.0440176764
1505356813222784411,0.395809352398,0.466448962688,0.395809352398,0.466448962688,0.0,3.0440176764
1505356813231337080,0.395803719759,0.466496676207,0.395803719759,0.466496676207,0.0,3.0440176764
1505356813232830735,0.395803719759,0.466496676207,0.395803719759,0.466496676207,0.0,3.0440176764
1505356813237753913,0.395803719759,0.466496676207,0.395803719759,0.466496676207,0.0,3.0440176764
1505356813242799669,0.395818293095,0.466465622187,0.395818293095,0.466465622187,0.0,3.0440176764
1505356813254108306,0.395818144083,0.466498941183,0.395818144083,0.466498941183,0.0,3.0440176764
1505356813254125058,0.395818144083,0.466498941183,0.395818144083,0.466498941183,0.0,3.0440176764
1505356813261971774,0.395818144083,0.466498941183,0.395818144083,0.466498941183,0.0,3.04403142843
1505356813267618216,0.395818144083,0.466498941183,0.395818144083,0.466498941183,0.0,3.04403142843
1505356813268755019,0.395818144083,0.466498941183,0.395818144083,0.466498941183,0.0,3.04403142843
1505356813273162886,0.39581105113,0.466473639011,0.39581105113,0.466473639011,0.0,3.04403142843
1505356813278144426,0.39581105113,0.466473639011,0.39581105113,0.466473639011,0.0,3.04403142843
1505356813283054017,0.395810961723,0.46649312973,0.395810961723,0.46649312973,0.0,3.04403142843
1505356813288124734,0.395810961723,0.46649312973,0.395810961723,0.46649312973,0.0,3.04403142843
1505356813297920583,0.395810216665,0.466479003429,0.395810216665,0.466479003429,0.0,3.04403142843
1505356813300076131,0.395810216665,0.466479003429,0.395810216665,0.466479003429,0.0,3.04403142843
1505356813305803486,0.395810216665,0.466479003429,0.395810216665,0.466479003429,0.0,3.04403142843
1505356813308217229,0.395810216665,0.466479003429,0.395810216665,0.466479003429,0.0,3.04403510366
1505356813313313373,0.39580515027,0.466493278742,0.39580515027,0.466493278742,0.0,3.04403510366
1505356813317960392,0.39580515027,0.466493278742,0.39580515027,0.466493278742,0.0,3.04403510366
1505356813323390773,0.395808517933,0.466494470835,0.395808517933,0.466494470835,0.0,3.04403510366
1505356813329903843,0.395808517933,0.466494470835,0.395808517933,0.466494470835,0.0,3.04403510366
1505356813333171151,0.395808309317,0.466469854116,0.395808309317,0.466469854116,0.0,3.04403510366
1505356813338247469,0.395808309317,0.466469854116,0.395808309317,0.466469854116,0.0,3.04403510366
1505356813343119900,0.395813465118,0.466489702463,0.395813465118,0.466489702463,0.0,3.04403510366
1505356813348225893,0.395813465118,0.466489702463,0.395813465118,0.466489702463,0.0,3.04403510366
1505356813356993618,0.395809710026,0.466469943523,0.395809710026,0.466469943523,0.0,3.04401607979
1505356813360577505,0.395809710026,0.466469943523,0.395809710026,0.466469943523,0.0,3.04401607979
1505356813364131462,0.395809710026,0.466469943523,0.395809710026,0.466469943523,0.0,3.04401607979
1505356813372059152,0.395807743073,0.466503173113,0.395807743073,0.466503173113,0.0,3.04401607979
1505356813373302386,0.395807743073,0.466503173113,0.395807743073,0.466503173113,0.0,3.04401607979
1505356813378238789,0.395807743073,0.466503173113,0.395807743073,0.466503173113,0.0,3.04401607979
1505356813384504458,0.395807743073,0.466503173113,0.395807743073,0.466503173113,0.0,3.04401607979
1505356813388533341,0.395807743073,0.466503173113,0.395807743073,0.466503173113,0.0,3.04401607979
1505356813396929386,0.395811080933,0.466467380524,0.395811080933,0.466467380524,0.0,3.04401607979
1505356813399178711,0.395811080933,0.466467380524,0.395811080933,0.466467380524,0.0,3.04401607979
1505356813403407799,0.395813584328,0.466481566429,0.395813584328,0.466481566429,0.0,3.04401607979
1505356813408383430,0.395813584328,0.466481566429,0.395813584328,0.466481566429,0.0,3.04401230363
1505356813413384571,0.395813584328,0.466481566429,0.395813584328,0.466481566429,0.0,3.04401230363
1505356813418475216,0.395813584328,0.466481566429,0.395813584328,0.466481566429,0.0,3.04401230363
1505356813423827765,0.395807057619,0.466468840837,0.395807057619,0.466468840837,0.0,3.04401230363
1505356813430904491,0.395806074142,0.466520398855,0.395806074142,0.466520398855,0.0,3.04401230363
1505356813433819435,0.395806074142,0.466520398855,0.395806074142,0.466520398855,0.0,3.04401230363
1505356813438710728,0.395806074142,0.466520398855,0.395806074142,0.466520398855,0.0,3.04401230363
1505356813444895698,0.39581143856,0.46649351716,0.39581143856,0.46649351716,0.0,3.04401230363
1505356813448719399,0.39581143856,0.46649351716,0.39581143856,0.46649351716,0.0,3.04401230363
1505356813457612422,0.39581143856,0.46649351716,0.39581143856,0.46649351716,0.0,3.04399781392
1505356813458727147,0.39581143856,0.46649351716,0.39581143856,0.46649351716,0.0,3.04399781392
1505356813464515006,0.395810008049,0.466504096985,0.395810008049,0.466504096985,0.0,3.04399781392
1505356813470978610,0.395811021328,0.466460347176,0.395811021328,0.466460347176,0.0,3.04399781392
1505356813473875198,0.395811021328,0.466460347176,0.395811021328,0.466460347176,0.0,3.04399781392
1505356813478916501,0.395811021328,0.466460347176,0.395811021328,0.466460347176,0.0,3.04399781392
1505356813483940662,0.395795792341,0.466505020857,0.395795792341,0.466505020857,0.0,3.04399781392
1505356813493260035,0.395809322596,0.466527253389,0.395809322596,0.466527253389,0.0,3.04399781392
1505356813493856014,0.395809322596,0.466527253389,0.395809322596,0.466527253389,0.0,3.04399781392
1505356813500457895,0.395809322596,0.466527253389,0.395809322596,0.466527253389,0.0,3.04399781392
1505356813503727722,0.395812511444,0.466474592686,0.395812511444,0.466474592686,0.0,3.04399781392
1505356813508782250,0.395812511444,0.466474592686,0.395812511444,0.466474592686,0.0,3.04403186217
1505356813513950201,0.395814865828,0.466501235962,0.395814865828,0.466501235962,0.0,3.04403186217
1505356813520351122,0.395814865828,0.466501235962,0.395814865828,0.466501235962,0.0,3.04403186217
1505356813532253497,0.395803004503,0.46649608016,0.395803004503,0.46649608016,0.0,3.04403186217
1505356813534150061,0.395803004503,0.46649608016,0.395803004503,0.46649608016,0.0,3.04403186217
1505356813539073342,0.395803004503,0.46649608016,0.395803004503,0.46649608016,0.0,3.04403186217
1505356813543827629,0.395816534758,0.466507583857,0.395816534758,0.466507583857,0.0,3.04403186217
1505356813550545363,0.395816534758,0.466507583857,0.395816534758,0.466507583857,0.0,3.04403186217
1505356813556884819,0.395808637142,0.466502070427,0.395808637142,0.466502070427,0.0,3.04401952273
1505356813562719384,0.395805299282,0.466533958912,0.395805299282,0.466533958912,0.0,3.04401952273
1505356813564174500,0.395805299282,0.466533958912,0.395805299282,0.466533958912,0.0,3.04401952273
1505356813569433610,0.395805299282,0.466533958912,0.395805299282,0.466533958912,0.0,3.04401952273
1505356813574190395,0.395805299282,0.466533958912,0.395805299282,0.466533958912,0.0,3.04401952273
1505356813584852636,0.395807027817,0.466478466988,0.395807027817,0.466478466988,0.0,3.04401952273
1505356813589270145,0.395807027817,0.466478466988,0.395807027817,0.466478466988,0.0,3.04401952273
1505356813597619817,0.395801663399,0.466484546661,0.395801663399,0.466484546661,0.0,3.04401952273
1505356813599683869,0.395801663399,0.466484546661,0.395801663399,0.466484546661,0.0,3.04401952273
1505356813604177718,0.395801335573,0.466524362564,0.395801335573,0.466524362564,0.0,3.04401952273
1505356813609193661,0.395801335573,0.466524362564,0.395801335573,0.466524362564,0.0,3.04401659963
1505356813614321978,0.395803630352,0.466488093138,0.395803630352,0.466488093138,0.0,3.04401659963
1505356813619530788,0.395803630352,0.466488093138,0.395803630352,0.466488093138,0.0,3.04401659963
1505356813624440962,0.395802289248,0.466492325068,0.395802289248,0.466492325068,0.0,3.04401659963
1505356813630761848,0.395799636841,0.466518878937,0.395799636841,0.466518878937,0.0,3.04401659963
1505356813634649284,0.395799636841,0.466518878937,0.395799636841,0.466518878937,0.0,3.04401659963
1505356813639300988,0.395799636841,0.466518878937,0.395799636841,0.466518878937,0.0,3.04401659963
1505356813645676425,0.395803242922,0.466503053904,0.395803242922,0.466503053904,0.0,3.04401659963
1505356813649846337,0.395803242922,0.466503053904,0.395803242922,0.466503053904,0.0,3.04401659963
1505356813655987023,0.395799726248,0.466504007578,0.395799726248,0.466504007578,0.0,3.04401659963
1505356813665758668,0.395803242922,0.466494053602,0.395803242922,0.466494053602,0.0,3.04400856742
1505356813667279274,0.395803242922,0.466494053602,0.395803242922,0.466494053602,0.0,3.04400856742
1505356813669819629,0.395803242922,0.466494053602,0.395803242922,0.466494053602,0.0,3.04400856742
1505356813675974233,0.395801186562,0.466481000185,0.395801186562,0.466481000185,0.0,3.04400856742
1505356813679603727,0.395801186562,0.466481000185,0.395801186562,0.466481000185,0.0,3.04400856742
1505356813686488908,0.395803570747,0.466505229473,0.395803570747,0.466505229473,0.0,3.04400856742
1505356813689843315,0.395803570747,0.466505229473,0.395803570747,0.466505229473,0.0,3.04400856742
1505356813696812664,0.395800560713,0.466488867998,0.395800560713,0.466488867998,0.0,3.04400856742
1505356813700201561,0.395800560713,0.466488867998,0.395800560713,0.466488867998,0.0,3.04400856742
1505356813704522038,0.395800560713,0.466488867998,0.395800560713,0.466488867998,0.0,3.04400856742
1505356813709876763,0.395800560713,0.466488867998,0.395800560713,0.466488867998,0.0,3.04403583614
1505356813715144944,0.395801246166,0.466502010822,0.395801246166,0.466502010822,0.0,3.04403583614
1505356813719876385,0.395801246166,0.466502010822,0.395801246166,0.466502010822,0.0,3.04403583614
1505356813724995135,0.39578962326,0.466517776251,0.39578962326,0.466517776251,0.0,3.04403583614
1505356813733303119,0.395792961121,0.466488838196,0.395792961121,0.466488838196,0.0,3.04403583614
1505356813734668202,0.395792961121,0.466488838196,0.395792961121,0.466488838196,0.0,3.04403583614
1505356813739772214,0.395792961121,0.466488838196,0.395792961121,0.466488838196,0.0,3.04403583614
1505356813749963489,0.395796209574,0.466514706612,0.395796209574,0.466514706612,0.0,3.04403583614
1505356813751016382,0.395800709724,0.466499119997,0.395800709724,0.466499119997,0.0,3.04403583614
1505356813755126398,0.395800709724,0.466499119997,0.395800709724,0.466499119997,0.0,3.04403583614
1505356813763498443,0.395808041096,0.466492682695,0.395808041096,0.466492682695,0.0,3.04403318109
1505356813765003904,0.395808041096,0.466492682695,0.395808041096,0.466492682695,0.0,3.04403318109
1505356813771687040,0.39579769969,0.466548323631,0.39579769969,0.466548323631,0.0,3.04403318109
1505356813775826990,0.39579769969,0.466548323631,0.39579769969,0.466548323631,0.0,3.04403318109
1505356813780665965,0.395799219608,0.466495215893,0.395799219608,0.466495215893,0.0,3.04403318109
1505356813785281172,0.395799219608,0.466495215893,0.395799219608,0.466495215893,0.0,3.04403318109
1505356813790198000,0.395799219608,0.466495215893,0.395799219608,0.466495215893,0.0,3.04403318109
1505356813795735403,0.395802438259,0.466492116451,0.395802438259,0.466492116451,0.0,3.04403318109
1505356813800094603,0.395802438259,0.466492116451,0.395802438259,0.466492116451,0.0,3.04403318109
1505356813805253561,0.395804017782,0.466474890709,0.395804017782,0.466474890709,0.0,3.04403318109
1505356813813416381,0.395804017782,0.466474890709,0.395804017782,0.466474890709,0.0,3.0440112793
1505356813815325925,0.395804017782,0.466474890709,0.395804017782,0.466474890709,0.0,3.0440112793
1505356813820304572,0.395804017782,0.466474890709,0.395804017782,0.466474890709,0.0,3.0440112793
1505356813825211024,0.39580398798,0.466512441635,0.39580398798,0.466512441635,0.0,3.0440112793
1505356813831086020,0.395807385445,0.466519355774,0.395807385445,0.466519355774,0.0,3.0440112793
1505356813835142488,0.395807385445,0.466519355774,0.395807385445,0.466519355774,0.0,3.0440112793
1505356813840268029,0.395807385445,0.466519355774,0.395807385445,0.466519355774,0.0,3.0440112793
1505356813845828595,0.395806401968,0.466516941786,0.395806401968,0.466516941786,0.0,3.0440112793
1505356813851769003,0.395806401968,0.466516941786,0.395806401968,0.466516941786,0.0,3.0440112793
1505356813855209646,0.395806401968,0.466516941786,0.395806401968,0.466516941786,0.0,3.0440112793
1505356813863496694,0.395810306072,0.466495037079,0.395810306072,0.466495037079,0.0,3.04402991486
1505356813865755065,0.395810306072,0.466495037079,0.395810306072,0.466495037079,0.0,3.04402991486
1505356813870957884,0.395810306072,0.466495037079,0.395810306072,0.466495037079,0.0,3.04402991486
1505356813876007059,0.395797222853,0.466502130032,0.395797222853,0.466502130032,0.0,3.04402991486
1505356813881027547,0.395796000957,0.466529518366,0.395796000957,0.466529518366,0.0,3.04402991486
1505356813885823429,0.395796000957,0.466529518366,0.395796000957,0.466529518366,0.0,3.04402991486
1505356813890510911,0.395796000957,0.466529518366,0.395796000957,0.466529518366,0.0,3.04402991486
1505356813900613130,0.395805299282,0.466485738754,0.395805299282,0.466485738754,0.0,3.04402991486
1505356813901772927,0.395805299282,0.466485738754,0.395805299282,0.466485738754,0.0,3.04402991486
1505356813905639731,0.395805299282,0.466485738754,0.395805299282,0.466485738754,0.0,3.04402991486
1505356813910921906,0.395804136992,0.466545075178,0.395804136992,0.466545075178,0.0,3.04400970509
1505356813918606695,0.395804136992,0.466545075178,0.395804136992,0.466545075178,0.0,3.04400970509
1505356813920561437,0.395804136992,0.466545075178,0.395804136992,0.466545075178,0.0,3.04400970509
1505356813928605891,0.395809471607,0.466509580612,0.395809471607,0.466509580612,0.0,3.04400970509
1505356813931088764,0.395809471607,0.466509580612,0.395809471607,0.466509580612,0.0,3.04400970509
1505356813935519749,0.395803719759,0.466535568237,0.395803719759,0.466535568237,0.0,3.04400970509
1505356813941874650,0.395803719759,0.466535568237,0.395803719759,0.466535568237,0.0,3.04400970509
1505356813946320405,0.395803719759,0.466535568237,0.395803719759,0.466535568237,0.0,3.04400970509
1505356813954258312,0.395800054073,0.46649774909,0.395800054073,0.46649774909,0.0,3.04400970509
1505356813955823504,0.395800054073,0.46649774909,0.395800054073,0.46649774909,0.0,3.04400970509
1505356813965439537,0.395805478096,0.466523379087,0.395805478096,0.466523379087,0.0,3.04401780832
1505356813966383986,0.395805478096,0.466523379087,0.395805478096,0.466523379087,0.0,3.04401780832
1505356813972204178,0.395809173584,0.466500550508,0.395809173584,0.466500550508,0.0,3.04401780832
1505356813976192491,0.395809173584,0.466500550508,0.395809173584,0.466500550508,0.0,3.04401780832
1505356813983886144,0.395809173584,0.466500550508,0.395809173584,0.466500550508,0.0,3.04401780832
1505356813985744561,0.395809173584,0.466500550508,0.395809173584,0.466500550508,0.0,3.04401780832
1505356813990911825,0.395808130503,0.466532111168,0.395808130503,0.466532111168,0.0,3.04401780832
1505356813997332596,0.395808130503,0.466532111168,0.395808130503,0.466532111168,0.0,3.04401780832
1505356814001061161,0.395808070898,0.466503739357,0.395808070898,0.466503739357,0.0,3.04401780832
1505356814008764307,0.395808070898,0.466503739357,0.395808070898,0.466503739357,0.0,3.04399338769
1505356814011020603,0.395810008049,0.46649608016,0.395810008049,0.46649608016,0.0,3.04399338769
1505356814016528623,0.395810008049,0.46649608016,0.395810008049,0.46649608016,0.0,3.04399338769
1505356814022216304,0.395809471607,0.466537088156,0.395809471607,0.466537088156,0.0,3.04399338769
1505356814029660616,0.395809471607,0.466537088156,0.395809471607,0.466537088156,0.0,3.04399338769
1505356814030784333,0.395799100399,0.466522306204,0.395799100399,0.466522306204,0.0,3.04399338769
1505356814036190189,0.395799100399,0.466522306204,0.395799100399,0.466522306204,0.0,3.04399338769
1505356814041377386,0.395802021027,0.466509312391,0.395802021027,0.466509312391,0.0,3.04399338769
1505356814047559524,0.395802021027,0.466509312391,0.395802021027,0.466509312391,0.0,3.04399338769
1505356814051263853,0.395800828934,0.466537564993,0.395800828934,0.466537564993,0.0,3.04399338769
1505356814056291877,0.395800828934,0.466537564993,0.395800828934,0.466537564993,0.0,3.04399338769
1505356814063578037,0.395800173283,0.466527700424,0.395800173283,0.466527700424,0.0,3.04402438571
1505356814066223172,0.395800173283,0.466527700424,0.395800173283,0.466527700424,0.0,3.04402438571
1505356814074693519,0.395804822445,0.466519147158,0.395804822445,0.466519147158,0.0,3.04402438571
1505356814078443817,0.395804822445,0.466519147158,0.395804822445,0.466519147158,0.0,3.04402438571
1505356814081371580,0.3957939744,0.466551184654,0.3957939744,0.466551184654,0.0,3.04402438571
1505356814086297920,0.3957939744,0.466551184654,0.3957939744,0.466551184654,0.0,3.04402438571
1505356814091244903,0.395797640085,0.466505080462,0.395797640085,0.466505080462,0.0,3.04402438571
1505356814097310944,0.395797640085,0.466505080462,0.395797640085,0.466505080462,0.0,3.04402438571
1505356814101281296,0.395797640085,0.466505080462,0.395797640085,0.466505080462,0.0,3.04402438571
1505356814107628349,0.395797640085,0.466505080462,0.395797640085,0.466505080462,0.0,3.04402299001
1505356814113502055,0.395799934864,0.46655407548,0.395799934864,0.46655407548,0.0,3.04402299001
1505356814116476828,0.395799934864,0.46655407548,0.395799934864,0.46655407548,0.0,3.04402299001
1505356814121414271,0.395800739527,0.466506928205,0.395800739527,0.466506928205,0.0,3.04402299001
1505356814130187871,0.395800739527,0.466506928205,0.395800739527,0.466506928205,0.0,3.04402299001
1505356814131745088,0.395801782608,0.466538369656,0.395801782608,0.466538369656,0.0,3.04402299001
1505356814141047451,0.395798802376,0.466509222984,0.395798802376,0.466509222984,0.0,3.04402299001
1505356814143598624,0.395798802376,0.466509222984,0.395798802376,0.466509222984,0.0,3.04402299001
1505356814147896564,0.395798802376,0.466509222984,0.395798802376,0.466509222984,0.0,3.04402299001
1505356814152243624,0.395793199539,0.46650993824,0.395793199539,0.46650993824,0.0,3.04402299001
1505356814156889487,0.395793199539,0.46650993824,0.395793199539,0.46650993824,0.0,3.04398557413
1505356814163925065,0.395798027515,0.466547816992,0.395798027515,0.466547816992,0.0,3.04398557413
1505356814167971858,0.395798027515,0.466547816992,0.395798027515,0.466547816992,0.0,3.04398557413
1505356814174695712,0.39580014348,0.466504752636,0.39580014348,0.466504752636,0.0,3.04398557413
1505356814179831661,0.39580014348,0.466504752636,0.39580014348,0.466504752636,0.0,3.04398557413
1505356814181526498,0.395799636841,0.466507673264,0.395799636841,0.466507673264,0.0,3.04398557413
1505356814188556257,0.395799636841,0.466507673264,0.395799636841,0.466507673264,0.0,3.04398557413
1505356814191748236,0.395795822144,0.466553628445,0.395795822144,0.466553628445,0.0,3.04398557413
1505356814197049055,0.395795822144,0.466553628445,0.395795822144,0.466553628445,0.0,3.04398557413
1505356814204099858,0.395794183016,0.466528624296,0.395794183016,0.466528624296,0.0,3.04398557413
1505356814207256521,0.395794183016,0.466528624296,0.395794183016,0.466528624296,0.0,3.04400060104
1505356814214570364,0.39579719305,0.46649441123,0.39579719305,0.46649441123,0.0,3.04400060104
1505356814216697475,0.39579719305,0.46649441123,0.39579719305,0.46649441123,0.0,3.04400060104
1505356814221775020,0.395797073841,0.466539025307,0.395797073841,0.466539025307,0.0,3.04400060104
1505356814230232001,0.395789802074,0.466526120901,0.395789802074,0.466526120901,0.0,3.04400060104
1505356814231787985,0.395789802074,0.466526120901,0.395789802074,0.466526120901,0.0,3.04400060104
1505356814237240917,0.395789802074,0.466526120901,0.395789802074,0.466526120901,0.0,3.04400060104
1505356814243169631,0.395793437958,0.466524094343,0.395793437958,0.466524094343,0.0,3.04400060104
1505356814247220961,0.395793437958,0.466524094343,0.395793437958,0.466524094343,0.0,3.04400060104
1505356814251952204,0.39579385519,0.466547101736,0.39579385519,0.466547101736,0.0,3.04400060104
1505356814256958277,0.39579385519,0.466547101736,0.39579385519,0.466547101736,0.0,3.04402717695
1505356814264109409,0.395793527365,0.466519057751,0.395793527365,0.466519057751,0.0,3.04402717695
1505356814270351546,0.39578139782,0.466550379992,0.39578139782,0.466550379992,0.0,3.04402717695
1505356814278627125,0.39578139782,0.466550379992,0.39578139782,0.466550379992,0.0,3.04402717695
1505356814279732701,0.39578139782,0.466550379992,0.39578139782,0.466550379992,0.0,3.04402717695
1505356814282269513,0.395783156157,0.466549396515,0.395783156157,0.466549396515,0.0,3.04402717695
1505356814287199381,0.395783156157,0.466549396515,0.395783156157,0.466549396515,0.0,3.04402717695
1505356814292168871,0.395787894726,0.466482073069,0.395787894726,0.466482073069,0.0,3.04402717695
1505356814297074875,0.395787894726,0.466482073069,0.395787894726,0.466482073069,0.0,3.04402717695
1505356814302273158,0.395786494017,0.46654227376,0.395786494017,0.46654227376,0.0,3.04402717695
1505356814310837280,0.395782738924,0.466543823481,0.395782738924,0.466543823481,0.0,3.04403735594
1505356814312238466,0.395782738924,0.466543823481,0.395782738924,0.466543823481,0.0,3.04403735594
1505356814317502646,0.395782738924,0.466543823481,0.395782738924,0.466543823481,0.0,3.04403735594
1505356814322273512,0.395787090063,0.466504961252,0.395787090063,0.466504961252,0.0,3.04403735594
1505356814330321040,0.395787090063,0.466504961252,0.395787090063,0.466504961252,0.0,3.04403735594
1505356814336838199,0.395796537399,0.466540545225,0.395796537399,0.466540545225,0.0,3.04403735594
1505356814338820189,0.395796537399,0.466540545225,0.395796537399,0.466540545225,0.0,3.04403735594
1505356814342376365,0.395797222853,0.466539353132,0.395797222853,0.466539353132,0.0,3.04403735594
1505356814347678561,0.395797222853,0.466539353132,0.395797222853,0.466539353132,0.0,3.04403735594
1505356814352533902,0.395790159702,0.466524153948,0.395790159702,0.466524153948,0.0,3.04403735594
1505356814357475476,0.395790159702,0.466524153948,0.395790159702,0.466524153948,0.0,3.04399908103
1505356814365596313,0.395792037249,0.466535568237,0.395792037249,0.466535568237,0.0,3.04399908103
1505356814367877519,0.395792037249,0.466535568237,0.395792037249,0.466535568237,0.0,3.04399908103
1505356814375561619,0.395796090364,0.466495543718,0.395796090364,0.466495543718,0.0,3.04399908103
1505356814379133164,0.395796090364,0.466495543718,0.395796090364,0.466495543718,0.0,3.04399908103
1505356814382522380,0.395794093609,0.466534912586,0.395794093609,0.466534912586,0.0,3.04399908103
1505356814387510212,0.395794093609,0.466534912586,0.395794093609,0.466534912586,0.0,3.04399908103
1505356814395484923,0.395792990923,0.466564595699,0.395792990923,0.466564595699,0.0,3.04399908103
1505356814399132800,0.395792990923,0.466564595699,0.395792990923,0.466564595699,0.0,3.04399908103
1505356814402924162,0.395800888538,0.466499209404,0.395800888538,0.466499209404,0.0,3.04399908103
1505356814407916705,0.395800888538,0.466499209404,0.395800888538,0.466499209404,0.0,3.0439999813
1505356814412659957,0.395796060562,0.466513603926,0.395796060562,0.466513603926,0.0,3.0439999813
1505356814417646238,0.395796060562,0.466513603926,0.395796060562,0.466513603926,0.0,3.0439999813
1505356814424066995,0.395788729191,0.466540813446,0.395788729191,0.466540813446,0.0,3.0439999813
1505356814430739465,0.395788729191,0.466540813446,0.395788729191,0.466540813446,0.0,3.0439999813
1505356814432828366,0.395796835423,0.466511547565,0.395796835423,0.466511547565,0.0,3.0439999813
1505356814438033097,0.395796835423,0.466511547565,0.395796835423,0.466511547565,0.0,3.0439999813
1505356814442618161,0.395792752504,0.466542512178,0.395792752504,0.466542512178,0.0,3.0439999813
1505356814447851007,0.395792752504,0.466542512178,0.395792752504,0.466542512178,0.0,3.0439999813
1505356814454233361,0.39579719305,0.466525703669,0.39579719305,0.466525703669,0.0,3.0439999813
1505356814458345476,0.39579719305,0.466525703669,0.39579719305,0.466525703669,0.0,3.04398853007
1505356814466221823,0.39579731226,0.466479599476,0.39579731226,0.466479599476,0.0,3.04398853007
1505356814468540704,0.39579731226,0.466479599476,0.39579731226,0.466479599476,0.0,3.04398853007
1505356814473718371,0.39578923583,0.466552555561,0.39578923583,0.466552555561,0.0,3.04398853007
1505356814480216864,0.39578923583,0.466552555561,0.395793497562,0.466531693935,0.0,3.04398853007
1505356814483013629,0.395793497562,0.466531693935,0.395793497562,0.466531693935,0.0,3.04398853007
1505356814488099587,0.395793497562,0.466531693935,0.395793497562,0.466531693935,0.0,3.04398853007
1505356814497070033,0.395792633295,0.466500759125,0.395792633295,0.466500759125,0.0,3.04398853007
1505356814498136433,0.395792633295,0.466500759125,0.395792633295,0.466500759125,0.0,3.04398853007
1505356814511082478,0.39579564333,0.466516375542,0.39579564333,0.466516375542,0.0,3.04399822421
1505356814513962417,0.39579564333,0.466516375542,0.39579564333,0.466516375542,0.0,3.04399822421
1505356814515193184,0.39579564333,0.466516375542,0.39579564333,0.466516375542,0.0,3.04399822421
1505356814518076076,0.39579564333,0.466516375542,0.39579564333,0.466516375542,0.0,3.04399822421
1505356814524567651,0.395792126656,0.466519594193,0.395792126656,0.466519594193,0.0,3.04399822421
1505356814529725022,0.395792126656,0.466519594193,0.395792126656,0.466519594193,0.0,3.04399822421
1505356814536616329,0.395801842213,0.466531395912,0.395801842213,0.466531395912,0.0,3.04399822421
1505356814538192789,0.395801842213,0.466531395912,0.395801842213,0.466531395912,0.0,3.04399822421
1505356814543073170,0.395792990923,0.466516941786,0.395792990923,0.466516941786,0.0,3.04399822421
1505356814548402097,0.395792990923,0.466516941786,0.395792990923,0.466516941786,0.0,3.04399822421
1505356814553311497,0.395792961121,0.466553062201,0.395792961121,0.466553062201,0.0,3.04399822421
1505356814560339900,0.395794451237,0.466547101736,0.395794451237,0.466547101736,0.0,3.04400917246
1505356814566061645,0.395794451237,0.466547101736,0.395794451237,0.466547101736,0.0,3.04400917246
1505356814568291088,0.395794451237,0.466547101736,0.395794451237,0.466547101736,0.0,3.04400917246
1505356814573247948,0.395789563656,0.466509222984,0.395789563656,0.466509222984,0.0,3.04400917246
1505356814579266834,0.395789563656,0.466509222984,0.395789563656,0.466509222984,0.0,3.04400917246
1505356814584071156,0.395791590214,0.466537863016,0.395791590214,0.466537863016,0.0,3.04400917246
1505356814588433691,0.395791590214,0.466537863016,0.395791590214,0.466537863016,0.0,3.04400917246
1505356814597834269,0.39579218626,0.466564595699,0.39579218626,0.466564595699,0.0,3.04400917246
1505356814600569357,0.39579218626,0.466564595699,0.39579218626,0.466564595699,0.0,3.04400917246
1505356814603478385,0.395788729191,0.466522336006,0.395788729191,0.466522336006,0.0,3.04400917246
1505356814608451286,0.395788729191,0.466522336006,0.395788729191,0.466522336006,0.0,3.04400303825
1505356814613410741,0.395799487829,0.466533601284,0.395799487829,0.466533601284,0.0,3.04400303825
1505356814618439738,0.395799487829,0.466533601284,0.395799487829,0.466533601284,0.0,3.04400303825
1505356814623193564,0.395790427923,0.46656242013,0.395790427923,0.46656242013,0.0,3.04400303825
1505356814630952761,0.395789712667,0.466505616903,0.395789712667,0.466505616903,0.0,3.04400303825
1505356814635006630,0.395789712667,0.466505616903,0.395789712667,0.466505616903,0.0,3.04400303825
1505356814638381022,0.395789712667,0.466505616903,0.395789712667,0.466505616903,0.0,3.04400303825
1505356814643860772,0.395786136389,0.466564565897,0.395786136389,0.466564565897,0.0,3.04400303825
1505356814650268593,0.395786494017,0.466547101736,0.395786494017,0.466547101736,0.0,3.04400303825
1505356814653654895,0.395786494017,0.466547101736,0.395786494017,0.466547101736,0.0,3.04400303825
1505356814658736005,0.395786494017,0.466547101736,0.395786494017,0.466547101736,0.0,3.04402397162
1505356814665766653,0.395792514086,0.466503322124,0.395792514086,0.466503322124,0.0,3.04402397162
1505356814669083180,0.395792514086,0.466503322124,0.395792514086,0.466503322124,0.0,3.04402397162
1505356814673815973,0.395794391632,0.466564029455,0.395794391632,0.466564029455,0.0,3.04402397162
1505356814686080049,0.39579257369,0.466530829668,0.39579257369,0.466530829668,0.0,3.04402397162
1505356814686193615,0.39579257369,0.466530829668,0.39579257369,0.466530829668,0.0,3.04402397162
1505356814692508124,0.395786046982,0.466540426016,0.395786046982,0.466540426016,0.0,3.04402397162
1505356814695155026,0.395786046982,0.466540426016,0.395786046982,0.466540426016,0.0,3.04402397162
1505356814701941678,0.395783483982,0.466571599245,0.395783483982,0.466571599245,0.0,3.04402397162
1505356814705439811,0.395783483982,0.466571599245,0.395783483982,0.466571599245,0.0,3.04402397162
1505356814711880716,0.395787745714,0.466504782438,0.395787745714,0.466504782438,0.0,3.04403536105
1505356814716953778,0.395787745714,0.466504782438,0.395787745714,0.466504782438,0.0,3.04403536105
1505356814718797853,0.395787745714,0.466504782438,0.395787745714,0.466504782438,0.0,3.04403536105
1505356814728044571,0.395788162947,0.466543793678,0.395788162947,0.466543793678,0.0,3.04403536105
1505356814731435785,0.395788043737,0.466554552317,0.395788043737,0.466554552317,0.0,3.04403536105
1505356814734003452,0.395788043737,0.466554552317,0.395788043737,0.466554552317,0.0,3.04403536105
1505356814739729630,0.395788043737,0.466554552317,0.395788043737,0.466554552317,0.0,3.04403536105
1505356814746778732,0.395792841911,0.466513305902,0.395792841911,0.466513305902,0.0,3.04403536105
1505356814749484974,0.395792841911,0.466513305902,0.395792841911,0.466513305902,0.0,3.04403536105
1505356814755330604,0.395792663097,0.466550052166,0.395792663097,0.466550052166,0.0,3.04403536105
1505356814759229422,0.395792663097,0.466550052166,0.395792663097,0.466550052166,0.0,3.04401101299
1505356814764024617,0.395791530609,0.466560542583,0.395791530609,0.466560542583,0.0,3.04401101299
1505356814769649456,0.395791530609,0.466560542583,0.395791530609,0.466560542583,0.0,3.04401101299
1505356814775232894,0.39579346776,0.466511815786,0.39579346776,0.466511815786,0.0,3.04401101299
1505356814779105298,0.39579346776,0.466511815786,0.39579346776,0.466511815786,0.0,3.04401101299
1505356814788568355,0.395790547132,0.466560602188,0.395790547132,0.466560602188,0.0,3.04401101299
1505356814792115956,0.395786166191,0.466546982527,0.395786166191,0.466546982527,0.0,3.04401101299
1505356814794536997,0.395786166191,0.466546982527,0.395786166191,0.466546982527,0.0,3.04401101299
1505356814803333147,0.395792454481,0.466505050659,0.395792454481,0.466505050659,0.0,3.04401101299
1505356814804305954,0.395792454481,0.466505050659,0.395792454481,0.466505050659,0.0,3.04401101299
1505356814809539921,0.395792454481,0.466505050659,0.395792454481,0.466505050659,0.0,3.04397630008
1505356814814022722,0.395787835121,0.466557681561,0.395787835121,0.466557681561,0.0,3.04397630008
1505356814819341207,0.395787835121,0.466557681561,0.395787835121,0.466557681561,0.0,3.04397630008
1505356814832599415,0.39578589797,0.466538250446,0.39578589797,0.466538250446,0.0,3.04397630008
1505356814835177572,0.39578589797,0.466538250446,0.39578589797,0.466538250446,0.0,3.04397630008
1505356814840044635,0.39578589797,0.466538250446,0.39578589797,0.466538250446,0.0,3.04397630008
1505356814844791282,0.395792663097,0.466547638178,0.395792663097,0.466547638178,0.0,3.04397630008
1505356814849433258,0.395792663097,0.466547638178,0.395792663097,0.466547638178,0.0,3.04397630008
1505356814854475663,0.395788818598,0.466508746147,0.395788818598,0.466508746147,0.0,3.04397630008
1505356814864197915,0.395783722401,0.466541618109,0.395783722401,0.466541618109,0.0,3.04397956597
1505356814867268829,0.395783722401,0.466541618109,0.395783722401,0.466541618109,0.0,3.04397956597
1505356814869805655,0.395783722401,0.466541618109,0.395783722401,0.466541618109,0.0,3.04397956597
1505356814874582830,0.395794808865,0.466535836458,0.395794808865,0.466535836458,0.0,3.04397956597
1505356814879503975,0.395794808865,0.466535836458,0.395794808865,0.466535836458,0.0,3.04397956597
1505356814884445869,0.395787030458,0.4665107131,0.395787030458,0.4665107131,0.0,3.04397956597
1505356814891526625,0.395791202784,0.466531813145,0.395791202784,0.466531813145,0.0,3.04397956597
1505356814897059045,0.395791202784,0.466531813145,0.395791202784,0.466531813145,0.0,3.04397956597
1505356814900956617,0.395789921284,0.466544181108,0.395789921284,0.466544181108,0.0,3.04397956597
1505356814904932987,0.395789921284,0.466544181108,0.395789921284,0.466544181108,0.0,3.04397956597
1505356814909840374,0.395789921284,0.466544181108,0.395789921284,0.466544181108,0.0,3.04398925913
1505356814914359227,0.395784407854,0.466515034437,0.395784407854,0.466515034437,0.0,3.04398925913
1505356814921298770,0.395787924528,0.466526061296,0.395787924528,0.466526061296,0.0,3.04398925913
1505356814925515701,0.395787924528,0.466526061296,0.395787924528,0.466526061296,0.0,3.04398925913
1505356814932159105,0.395792275667,0.46652919054,0.395792275667,0.46652919054,0.0,3.04398925913
1505356814934895587,0.395792275667,0.46652919054,0.395792275667,0.46652919054,0.0,3.04398925913
1505356814940045426,0.395792275667,0.46652919054,0.395792275667,0.46652919054,0.0,3.04398925913
1505356814944842052,0.395788520575,0.466506421566,0.395788520575,0.466506421566,0.0,3.04398925913
1505356814951090257,0.395793497562,0.466551035643,0.395793497562,0.466551035643,0.0,3.04398925913
1505356814956044319,0.395793497562,0.466551035643,0.395793497562,0.466551035643,0.0,3.04398925913
1505356814962114421,0.395788192749,0.466548413038,0.395788192749,0.466548413038,0.0,3.04398567217
1505356814967657217,0.395788192749,0.466548413038,0.395788192749,0.466548413038,0.0,3.04398567217
1505356814971876790,0.395790189505,0.466499954462,0.395790189505,0.466499954462,0.0,3.04398567217
1505356814974919917,0.395790189505,0.466499954462,0.395790189505,0.466499954462,0.0,3.04398567217
1505356814979739681,0.395790189505,0.466499954462,0.395790189505,0.466499954462,0.0,3.04398567217
1505356814985055124,0.395789086819,0.466557949781,0.395789086819,0.466557949781,0.0,3.04398567217
1505356814996942460,0.395781427622,0.466545253992,0.395781427622,0.466545253992,0.0,3.04398567217
1505356814998473842,0.395781427622,0.466545253992,0.395781427622,0.466545253992,0.0,3.04398567217
1505356815000217739,0.395781427622,0.466545253992,0.395781427622,0.466545253992,0.0,3.04398567217
1505356815007649821,0.395785391331,0.466537117958,0.395785391331,0.466537117958,0.0,3.04400543047
1505356815010303104,0.395791292191,0.466554194689,0.395791292191,0.466554194689,0.0,3.04400543047
1505356815015334284,0.395791292191,0.466554194689,0.395791292191,0.466554194689,0.0,3.04400543047
1505356815020320282,0.395791292191,0.466554194689,0.395791292191,0.466554194689,0.0,3.04400543047
1505356815033587758,0.39578461647,0.466549903154,0.39578461647,0.466549903154,0.0,3.04400543047
1505356815034509590,0.39578461647,0.466549903154,0.39578461647,0.466549903154,0.0,3.04400543047
1505356815038963597,0.39578461647,0.466549903154,0.39578461647,0.466549903154,0.0,3.04400543047
1505356815040409330,0.39578461647,0.466549903154,0.39578461647,0.466549903154,0.0,3.04400543047
1505356815045367449,0.39578011632,0.466584205627,0.39578011632,0.466584205627,0.0,3.04400543047
1505356815050680687,0.395790606737,0.466508507729,0.395790606737,0.466508507729,0.0,3.04400543047
1505356815057078915,0.395790606737,0.466508507729,0.395790606737,0.466508507729,0.0,3.04399338182
1505356815063621042,0.395787715912,0.466558218002,0.395787715912,0.466558218002,0.0,3.04399338182
1505356815065716594,0.395787715912,0.466558218002,0.395787715912,0.466558218002,0.0,3.04399338182
1505356815070592735,0.395787715912,0.466558218002,0.395787715912,0.466558218002,0.0,3.04399338182
1505356815075296637,0.395779430866,0.466581195593,0.395779430866,0.466581195593,0.0,3.04399338182
1505356815086371029,0.395778179169,0.466520011425,0.395778179169,0.466520011425,0.0,3.04399338182
1505356815087003173,0.395778179169,0.466520011425,0.395778179169,0.466520011425,0.0,3.04399338182
1505356815097097658,0.395780175924,0.466563016176,0.395780175924,0.466563016176,0.0,3.04399338182
1505356815097700518,0.395780175924,0.466563016176,0.395780175924,0.466563016176,0.0,3.04399338182
1505356815100803801,0.395777225494,0.466577321291,0.395777225494,0.466577321291,0.0,3.04399338182
1505356815105922939,0.395777225494,0.466577321291,0.395777225494,0.466577321291,0.0,3.04399338182
1505356815110805734,0.395775467157,0.466540724039,0.395775467157,0.466540724039,0.0,3.04399346309
1505356815117847930,0.395775467157,0.466540724039,0.395775467157,0.466540724039,0.0,3.04399346309
1505356815123326697,0.395781606436,0.466576248407,0.395781606436,0.466576248407,0.0,3.04399346309
1505356815126012108,0.395781606436,0.466576248407,0.395781606436,0.466576248407,0.0,3.04399346309
1505356815130835637,0.395781606436,0.466576248407,0.395781606436,0.466576248407,0.0,3.04399346309
1505356815135690881,0.395765930414,0.466523081064,0.395765930414,0.466523081064,0.0,3.04399346309
1505356815140586326,0.395771145821,0.466536819935,0.395771145821,0.466536819935,0.0,3.04399346309
1505356815154997824,0.395764440298,0.466599851847,0.395764440298,0.466599851847,0.0,3.04399346309
1505356815174853207,0.395766198635,0.466561645269,0.395766198635,0.466561645269,0.0,3.04400372615
1505356815175459938,0.395766198635,0.466561645269,0.395766198635,0.466561645269,0.0,3.04400372615
1505356815176325701,0.395766198635,0.466561645269,0.395766198635,0.466561645269,0.0,3.04400372615
1505356815177274712,0.395766198635,0.466561645269,0.395766198635,0.466561645269,0.0,3.04400372615
1505356815177939408,0.395766198635,0.466561645269,0.395766198635,0.466561645269,0.0,3.04400372615
1505356815184785806,0.395772457123,0.466583698988,0.395772457123,0.466583698988,0.0,3.04400372615
1505356815185987856,0.395772457123,0.466583698988,0.395772457123,0.466583698988,0.0,3.04400372615
1505356815191139135,0.395769625902,0.466542303562,0.395769625902,0.466542303562,0.0,3.04400372615
1505356815196010563,0.395769625902,0.466542303562,0.395769625902,0.466542303562,0.0,3.04400372615
1505356815201046413,0.395768553019,0.466578811407,0.395768553019,0.466578811407,0.0,3.04400372615
1505356815207359447,0.395768553019,0.466578811407,0.395768553019,0.466578811407,0.0,3.04400539772
1505356815212319917,0.395770668983,0.466563969851,0.395770668983,0.466563969851,0.0,3.04400539772
1505356815216146118,0.395770668983,0.466563969851,0.395770668983,0.466563969851,0.0,3.04400539772
1505356815222250502,0.395767301321,0.466530829668,0.395767301321,0.466530829668,0.0,3.04400539772
1505356815226524593,0.395767301321,0.466530829668,0.395767301321,0.466530829668,0.0,3.04400539772
1505356815231068236,0.39577049017,0.466559618711,0.39577049017,0.466559618711,0.0,3.04400539772
1505356815235761399,0.39577049017,0.466559618711,0.39577049017,0.466559618711,0.0,3.04400539772
1505356815241149377,0.395768851042,0.466571122408,0.395768851042,0.466571122408,0.0,3.04400539772
1505356815246258567,0.395768851042,0.466571122408,0.395768851042,0.466571122408,0.0,3.04400539772
1505356815252714418,0.395771116018,0.466546952724,0.395771116018,0.466546952724,0.0,3.04400539772
1505356815256323158,0.395771116018,0.466546952724,0.395771116018,0.466546952724,0.0,3.04400539772
1505356815263226829,0.395775079727,0.466561764479,0.395775079727,0.466561764479,0.0,3.04398530875
1505356815266119320,0.395775079727,0.466561764479,0.395775079727,0.466561764479,0.0,3.04398530875
1505356815271193663,0.395772844553,0.466555893421,0.395772844553,0.466555893421,0.0,3.04398530875
1505356815277342239,0.395772844553,0.466555893421,0.395772844553,0.466555893421,0.0,3.04398530875
1505356815281423502,0.395765930414,0.466528564692,0.395765930414,0.466528564692,0.0,3.04398530875
1505356815286797645,0.395765930414,0.466528564692,0.395765930414,0.466528564692,0.0,3.04398530875
1505356815291329540,0.3957695961,0.466581285,0.3957695961,0.466581285,0.0,3.04398530875
1505356815301897277,0.395768940449,0.466554015875,0.395768940449,0.466554015875,0.0,3.04398530875
1505356815306054033,0.395768940449,0.466554015875,0.395768940449,0.466554015875,0.0,3.04398530875
1505356815311329028,0.395767152309,0.466526269913,0.395767152309,0.466526269913,0.0,3.04396401361
1505356815316531846,0.395767152309,0.466526269913,0.395767152309,0.466526269913,0.0,3.04396401361
1505356815321646319,0.395765990019,0.466586440802,0.395765990019,0.466586440802,0.0,3.04396401361
1505356815330505150,0.395765990019,0.466586440802,0.395765990019,0.466586440802,0.0,3.04396401361
1505356815331343227,0.395766526461,0.466538369656,0.395766526461,0.466538369656,0.0,3.04396401361
1505356815336335599,0.395766526461,0.466538369656,0.395766526461,0.466538369656,0.0,3.04396401361
1505356815346451059,0.395773410797,0.466531336308,0.395773410797,0.466531336308,0.0,3.04396401361
1505356815349234174,0.395773410797,0.466531336308,0.395773410797,0.466531336308,0.0,3.04396401361
1505356815351709097,0.395763576031,0.466580986977,0.395763576031,0.466580986977,0.0,3.04396401361
1505356815356691119,0.395763576031,0.466580986977,0.395763576031,0.466580986977,0.0,3.04396401361
1505356815363508689,0.395775079727,0.466533213854,0.395775079727,0.466533213854,0.0,3.04401594354
1505356815366711483,0.395775079727,0.466533213854,0.395775079727,0.466533213854,0.0,3.04401594354
1505356815372864149,0.395775347948,0.46655279398,0.395775347948,0.46655279398,0.0,3.04401594354
1505356815377173927,0.395775347948,0.46655279398,0.395775347948,0.46655279398,0.0,3.04401594354
1505356815381945846,0.395768672228,0.466565281153,0.395768672228,0.466565281153,0.0,3.04401594354
1505356815389008710,0.395768672228,0.466565281153,0.395768672228,0.466565281153,0.0,3.04401594354
1505356815391592728,0.395763039589,0.466544449329,0.395763039589,0.466544449329,0.0,3.04401594354
1505356815396627132,0.395763039589,0.466544449329,0.395763039589,0.466544449329,0.0,3.04401594354
1505356815403209086,0.395770996809,0.466578572989,0.395770996809,0.466578572989,0.0,3.04401594354
1505356815407220266,0.395770996809,0.466578572989,0.395770996809,0.466578572989,0.0,3.04400991566
1505356815411962652,0.395773351192,0.466561645269,0.395773351192,0.466561645269,0.0,3.04400991566
1505356815417861816,0.395773351192,0.466561645269,0.395773351192,0.466561645269,0.0,3.04400991566
1505356815421778907,0.395777851343,0.466520905495,0.395777851343,0.466520905495,0.0,3.04400991566
1505356815427367529,0.395777851343,0.466520905495,0.395777851343,0.466520905495,0.0,3.04400991566
1505356815431746444,0.395776391029,0.466579586267,0.395776391029,0.466579586267,0.0,3.04400991566
1505356815436597096,0.395776391029,0.466579586267,0.395776391029,0.466579586267,0.0,3.04400991566
1505356815442701971,0.395778030157,0.466549903154,0.395778030157,0.466549903154,0.0,3.04400991566
1505356815448353597,0.395778030157,0.466549903154,0.395778030157,0.466549903154,0.0,3.04400991566
1505356815452837177,0.395778179169,0.466530531645,0.395778179169,0.466530531645,0.0,3.04400991566
1505356815457034291,0.395778179169,0.466530531645,0.395778179169,0.466530531645,0.0,3.04399477392
1505356815463535206,0.39578166604,0.466594904661,0.39578166604,0.466594904661,0.0,3.04399477392
1505356815467088685,0.39578166604,0.466594904661,0.39578166604,0.466594904661,0.0,3.04399477392
1505356815472231745,0.395784705877,0.466551780701,0.395784705877,0.466551780701,0.0,3.04399477392
1505356815477178478,0.395784705877,0.466551780701,0.395784705877,0.466551780701,0.0,3.04399477392
1505356815482368568,0.395794540644,0.466541528702,0.395794540644,0.466541528702,0.0,3.04399477392
1505356815487531685,0.395794540644,0.466541528702,0.395794540644,0.466541528702,0.0,3.04399477392
1505356815497102075,0.395786255598,0.466571748257,0.395786255598,0.466571748257,0.0,3.04399477392
1505356815506037476,0.395790219307,0.46653598547,0.395790219307,0.46653598547,0.0,3.04399477392
1505356815508696252,0.395790219307,0.46653598547,0.395790219307,0.46653598547,0.0,3.04398087734
1505356815512558039,0.395789474249,0.466565608978,0.395789474249,0.466565608978,0.0,3.04398087734
1505356815519358687,0.395789474249,0.466565608978,0.395789474249,0.466565608978,0.0,3.04398087734
1505356815522294378,0.395801872015,0.466558039188,0.395801872015,0.466558039188,0.0,3.04398087734
1505356815530690438,0.395792841911,0.466535806656,0.395792841911,0.466535806656,0.0,3.04398087734
1505356815532757001,0.395792841911,0.466535806656,0.395792841911,0.466535806656,0.0,3.04398087734
1505356815539356607,0.395792841911,0.466535806656,0.395792841911,0.466535806656,0.0,3.04398087734
1505356815543354689,0.395789444447,0.466593921185,0.395789444447,0.466593921185,0.0,3.04398087734
1505356815547342589,0.395789444447,0.466593921185,0.395789444447,0.466593921185,0.0,3.04398087734
1505356815552286693,0.395787596703,0.466547250748,0.395787596703,0.466547250748,0.0,3.04398087734
1505356815557140718,0.395787596703,0.466547250748,0.395787596703,0.466547250748,0.0,3.04401104463
1505356815563489687,0.395793110132,0.46652507782,0.395793110132,0.46652507782,0.0,3.04401104463
1505356815567808618,0.395793110132,0.46652507782,0.395793110132,0.46652507782,0.0,3.04401104463
1505356815572449233,0.395798921585,0.466573387384,0.395798921585,0.466573387384,0.0,3.04401104463
