%time,field.header.seq,field.header.stamp,field.header.frame_id,field.vector.x,field.vector.y,field.vector.z
1503103875426876555,159243,1503103875426642176,ardrone_base_link,-0.412890404463,0.398894101381,-0.818782627583
1503103875431680286,159244,1503103875431505328,ardrone_base_link,-0.41930192709,0.432827800512,-0.798026263714
1503103875438173809,159245,1503103875438017863,ardrone_base_link,-0.41930192709,0.432827800512,-0.798026263714
1503103875441857630,159246,1503103875441534052,ardrone_base_link,-0.396813750267,0.410496979952,-0.820993959904
1503103875446493448,159247,1503103875446304748,ardrone_base_link,-0.396813750267,0.410496979952,-0.820993959904
1503103875451939029,159248,1503103875451780873,ardrone_base_link,-0.405951559544,0.405951559544,-0.818783640862
1503103875456747678,159249,1503103875456557820,ardrone_base_link,-0.405951559544,0.405951559544,-0.818783640862
1503103875461747564,159250,1503103875461509361,ardrone_base_link,-0.415028661489,0.428862959146,-0.802388727665
1503103875468684840,159251,1503103875468541843,ardrone_base_link,-0.415028661489,0.428862959146,-0.802388727665
1503103875471677309,159252,1503103875471523910,ardrone_base_link,-0.441414803267,0.401286184788,-0.802572369576
1503103875478050003,159253,1503103875477888359,ardrone_base_link,-0.441414803267,0.401286184788,-0.802572369576
1503103875484860123,159254,1503103875484636818,ardrone_base_link,-0.403362840414,0.444382786751,-0.799889028072
1503103875487573877,159255,1503103875487347791,ardrone_base_link,-0.403362840414,0.444382786751,-0.799889028072
1503103875492241576,159256,1503103875491997563,ardrone_base_link,-0.415147900581,0.401309639215,-0.816457509995
1503103875496756398,159257,1503103875496621736,ardrone_base_link,-0.415147900581,0.401309639215,-0.816457509995
1503103875502009978,159258,1503103875501818034,ardrone_base_link,-0.392393827438,0.405924648046,-0.825380146503
1503103875508600163,159259,1503103875508441820,ardrone_base_link,-0.392393827438,0.405924648046,-0.825380146503
1503103875513720419,159260,1503103875513498442,ardrone_base_link,-0.412809550762,0.426803082228,-0.804628789425
1503103875518876618,159261,1503103875518327424,ardrone_base_link,-0.412809550762,0.426803082228,-0.804628789425
1503103875522396666,159262,1503103875522014650,ardrone_base_link,-0.421586275101,0.408202588558,-0.809713304043
1503103875527020005,159263,1503103875526836880,ardrone_base_link,-0.421586275101,0.408202588558,-0.809713304043
1503103875533314448,159264,1503103875533098817,ardrone_base_link,-0.408202588558,0.421586275101,-0.809713304043
1503103875537081341,159265,1503103875536904176,ardrone_base_link,-0.408202588558,0.421586275101,-0.809713304043
1503103875542013064,159266,1503103875541792804,ardrone_base_link,-0.399058759212,0.385531336069,-0.831936061382
1503103875547165213,159267,1503103875547024029,ardrone_base_link,-0.399058759212,0.385531336069,-0.831936061382
1503103875552445307,159268,1503103875552278019,ardrone_base_link,-0.427900224924,0.401567906141,-0.809718906879
1503103875557571418,159269,1503103875557393423,ardrone_base_link,-0.427900224924,0.401567906141,-0.809718906879
1503103875562921148,159270,1503103875562687108,ardrone_base_link,-0.41717043519,0.41717043519,-0.807426631451
1503103875567397868,159271,1503103875567204685,ardrone_base_link,-0.41717043519,0.41717043519,-0.807426631451
1503103875572232869,159272,1503103875572062010,ardrone_base_link,-0.394135832787,0.380306512117,-0.836674332619
1503103875577556737,159273,1503103875577355793,ardrone_base_link,-0.394135832787,0.380306512117,-0.836674332619
1503103875584488462,159274,1503103875584272265,ardrone_base_link,-0.394606888294,0.381230384111,-0.836031556129
1503103875591014721,159275,1503103875590783237,ardrone_base_link,-0.394606888294,0.381230384111,-0.836031556129
1503103875592299400,159276,1503103875592136433,ardrone_base_link,-0.398986011744,0.42650231719,-0.811730206013
1503103875597568790,159277,1503103875597342197,ardrone_base_link,-0.398986011744,0.42650231719,-0.811730206013
1503103875602722916,159278,1503103875602439295,ardrone_base_link,-0.392286092043,0.432867437601,-0.811626434326
1503103875607810388,159279,1503103875607602984,ardrone_base_link,-0.392286092043,0.432867437601,-0.811626434326
1503103875612592828,159280,1503103875612421328,ardrone_base_link,-0.408202588558,0.394818872213,-0.823096990585
1503103875617764895,159281,1503103875617605807,ardrone_base_link,-0.408202588558,0.394818872213,-0.823096990585
1503103875624843887,159282,1503103875624641527,ardrone_base_link,-0.403596073389,0.403596073389,-0.821109235287
1503103875632463041,159283,1503103875632219831,ardrone_base_link,-0.403596073389,0.403596073389,-0.821109235287
1503103875637329992,159284,1503103875637176200,ardrone_base_link,-0.386796802282,0.443058133125,-0.808756947517
1503103875638345037,159285,1503103875638205090,ardrone_base_link,-0.386796802282,0.443058133125,-0.808756947517
1503103875646386524,159286,1503103875646213814,ardrone_base_link,-0.405882328749,0.419878274202,-0.811764657497
1503103875647818150,159287,1503103875647661444,ardrone_base_link,-0.405882328749,0.419878274202,-0.811764657497
1503103875654897010,159288,1503103875654725967,ardrone_base_link,-0.426191627979,0.412661731243,-0.805028617382
1503103875658049613,159289,1503103875657875683,ardrone_base_link,-0.426191627979,0.412661731243,-0.805028617382
1503103875662853085,159290,1503103875662654202,ardrone_base_link,-0.410265415907,0.437168061733,-0.800353825092
1503103875667698661,159291,1503103875667529047,ardrone_base_link,-0.410265415907,0.437168061733,-0.800353825092
1503103875674570141,159292,1503103875674417292,ardrone_base_link,-0.401341974735,0.428551584482,-0.809486329556
1503103875679553997,159293,1503103875679396108,ardrone_base_link,-0.401341974735,0.428551584482,-0.809486329556
1503103875683561487,159294,1503103875683293523,ardrone_base_link,-0.38804885745,0.401429861784,-0.829621732235
1503103875687876482,159295,1503103875687679978,ardrone_base_link,-0.38804885745,0.401429861784,-0.829621732235
1503103875692890125,159296,1503103875692720857,ardrone_base_link,-0.403664797544,0.417348355055,-0.814171373844
1503103875697975621,159297,1503103875697794819,ardrone_base_link,-0.403664797544,0.417348355055,-0.814171373844
1503103875704225944,159298,1503103875704021028,ardrone_base_link,-0.398737937212,0.384747117758,-0.832452893257
1503103875708739609,159299,1503103875708587529,ardrone_base_link,-0.398737937212,0.384747117758,-0.832452893257
1503103875713379483,159300,1503103875712966358,ardrone_base_link,-0.435623824596,0.421794474125,-0.795186340809
1503103875719124760,159301,1503103875718944201,ardrone_base_link,-0.435623824596,0.421794474125,-0.795186340809
1503103875723429196,159302,1503103875723110294,ardrone_base_link,-0.387323051691,0.428821951151,-0.816145002842
1503103875728164995,159303,1503103875727983042,ardrone_base_link,-0.387323051691,0.428821951151,-0.816145002842
1503103875733233067,159304,1503103875733066233,ardrone_base_link,-0.405882716179,0.43249797821,-0.805111646652
1503103875738361604,159305,1503103875738207141,ardrone_base_link,-0.405882716179,0.43249797821,-0.805111646652
1503103875744960341,159306,1503103875744694620,ardrone_base_link,-0.42386290431,0.437535911798,-0.793033838272
1503103875748366519,159307,1503103875748208641,ardrone_base_link,-0.42386290431,0.437535911798,-0.793033838272
1503103875753167137,159308,1503103875752982337,ardrone_base_link,-0.430549561977,0.403640210629,-0.807280421257
1503103875758710889,159309,1503103875758515046,ardrone_base_link,-0.430549561977,0.403640210629,-0.807280421257
1503103875763555331,159310,1503103875763329420,ardrone_base_link,-0.431304991245,0.403478860855,-0.80695772171
1503103875769419790,159311,1503103875769190259,ardrone_base_link,-0.431304991245,0.403478860855,-0.80695772171
1503103875773248882,159312,1503103875773058651,ardrone_base_link,-0.394362181425,0.408199459314,-0.823317527771
1503103875779817212,159313,1503103875779619291,ardrone_base_link,-0.394362181425,0.408199459314,-0.823317527771
1503103875785350590,159314,1503103875785004246,ardrone_base_link,-0.41930192709,0.432827800512,-0.798026263714
1503103875788267683,159315,1503103875788086258,ardrone_base_link,-0.41930192709,0.432827800512,-0.798026263714
1503103875793462282,159316,1503103875793243874,ardrone_base_link,-0.392575085163,0.392575085163,-0.831726908684
1503103875798435250,159317,1503103875798290668,ardrone_base_link,-0.392575085163,0.392575085163,-0.831726908684
1503103875803522718,159318,1503103875803324865,ardrone_base_link,-0.41930192709,0.432827800512,-0.798026263714
1503103875810022351,159319,1503103875809819497,ardrone_base_link,-0.41930192709,0.432827800512,-0.798026263714
1503103875814776142,159320,1503103875814558122,ardrone_base_link,-0.41926458478,0.41926458478,-0.805254220963
1503103875818479394,159321,1503103875818304994,ardrone_base_link,-0.41926458478,0.41926458478,-0.805254220963
1503103875823538295,159322,1503103875823350616,ardrone_base_link,-0.424021482468,0.382987141609,-0.82068669796
1503103875828468733,159323,1503103875828366502,ardrone_base_link,-0.424021482468,0.382987141609,-0.82068669796
1503103875833782187,159324,1503103875833506790,ardrone_base_link,-0.423870176077,0.396957784891,-0.81409984827
1503103875838595784,159325,1503103875838443040,ardrone_base_link,-0.423870176077,0.396957784891,-0.81409984827
1503103875844168330,159326,1503103875843942085,ardrone_base_link,-0.441911101341,0.414716571569,-0.795439958572
1503103875848670927,159327,1503103875848479970,ardrone_base_link,-0.441911101341,0.414716571569,-0.795439958572
1503103875857384161,159328,1503103875857190642,ardrone_base_link,-0.416830867529,0.443723201752,-0.793323278427
1503103875858918074,159329,1503103875858756086,ardrone_base_link,-0.416830867529,0.443723201752,-0.793323278427
1503103875863741278,159330,1503103875863527062,ardrone_base_link,-0.401341974735,0.428551584482,-0.809486329556
1503103875869935450,159331,1503103875869718048,ardrone_base_link,-0.401341974735,0.428551584482,-0.809486329556
1503103875874248175,159332,1503103875874020070,ardrone_base_link,-0.428393036127,0.428393036127,-0.795587062836
1503103875881239229,159333,1503103875880965102,ardrone_base_link,-0.428393036127,0.428393036127,-0.795587062836
1503103875883919633,159334,1503103875883751129,ardrone_base_link,-0.396186947823,0.451792120934,-0.799324512482
1503103875888918058,159335,1503103875888794500,ardrone_base_link,-0.396186947823,0.451792120934,-0.799324512482
1503103875895081062,159336,1503103875894925160,ardrone_base_link,-0.410458534956,0.424140483141,-0.807235121727
1503103875898895445,159337,1503103875898732692,ardrone_base_link,-0.410458534956,0.424140483141,-0.807235121727
1503103875904098804,159338,1503103875903875400,ardrone_base_link,-0.40596178174,0.419493824244,-0.81192356348
1503103875909439331,159339,1503103875909281253,ardrone_base_link,-0.40596178174,0.419493824244,-0.81192356348
1503103875915284871,159340,1503103875915123948,ardrone_base_link,-0.437535911798,0.42386290431,-0.793033838272
1503103875920450275,159341,1503103875920208614,ardrone_base_link,-0.437535911798,0.42386290431,-0.793033838272
1503103875924146876,159342,1503103875923967201,ardrone_base_link,-0.422242164612,0.394092679024,-0.816334843636
1503103875929080453,159343,1503103875928880767,ardrone_base_link,-0.422242164612,0.394092679024,-0.816334843636
1503103875934410644,159344,1503103875933845062,ardrone_base_link,-0.432046741247,0.418954432011,-0.798631846905
1503103875939198335,159345,1503103875938975531,ardrone_base_link,-0.432046741247,0.418954432011,-0.798631846905
1503103875944520982,159346,1503103875944310397,ardrone_base_link,-0.391847968102,0.405842542648,-0.825679659843
1503103875950017491,159347,1503103875949884559,ardrone_base_link,-0.391847968102,0.405842542648,-0.825679659843
1503103875954359321,159348,1503103875954153567,ardrone_base_link,-0.419493824244,0.40596178174,-0.81192356348
1503103875959328056,159349,1503103875959137606,ardrone_base_link,-0.419493824244,0.40596178174,-0.81192356348
1503103875964683780,159350,1503103875964452874,ardrone_base_link,-0.403362840414,0.444382786751,-0.799889028072
1503103875969548133,159351,1503103875969309747,ardrone_base_link,-0.403362840414,0.444382786751,-0.799889028072
1503103875975943130,159352,1503103875975759969,ardrone_base_link,-0.397185564041,0.410425066948,-0.820850133896
1503103875982992406,159353,1503103875982732175,ardrone_base_link,-0.397185564041,0.410425066948,-0.820850133896
1503103875984651586,159354,1503103875984396572,ardrone_base_link,-0.434177458286,0.405706822872,-0.804295957088
1503103875989573086,159355,1503103875989361871,ardrone_base_link,-0.434177458286,0.405706822872,-0.804295957088
1503103875994345866,159356,1503103875994233233,ardrone_base_link,-0.428313821554,0.373924762011,-0.822634518147
1503103875999499767,159357,1503103875999337697,ardrone_base_link,-0.428313821554,0.373924762011,-0.822634518147
1503103876006313227,159358,1503103876006128986,ardrone_base_link,-0.410564571619,0.410564571619,-0.81417042017
1503103876010285926,159359,1503103876010152435,ardrone_base_link,-0.410564571619,0.410564571619,-0.81417042017
1503103876014601439,159360,1503103876014378291,ardrone_base_link,-0.428551584482,0.401341974735,-0.809486329556
1503103876020779553,159361,1503103876020546538,ardrone_base_link,-0.428551584482,0.401341974735,-0.809486329556
1503103876024521611,159362,1503103876024389425,ardrone_base_link,-0.385191470385,0.412705123425,-0.825410246849
1503103876029403075,159363,1503103876029219811,ardrone_base_link,-0.385191470385,0.412705123425,-0.825410246849
1503103876034629734,159364,1503103876034472013,ardrone_base_link,-0.385531336069,0.399058759212,-0.831936061382
1503103876040052263,159365,1503103876039852973,ardrone_base_link,-0.385531336069,0.399058759212,-0.831936061382
1503103876045475202,159366,1503103876045284315,ardrone_base_link,-0.382581472397,0.410405606031,-0.827767193317
1503103876049805716,159367,1503103876049636416,ardrone_base_link,-0.382581472397,0.410405606031,-0.827767193317
1503103876054903626,159368,1503103876054731501,ardrone_base_link,-0.366365373135,0.405618816614,-0.83740657568
1503103876059617185,159369,1503103876059474642,ardrone_base_link,-0.366365373135,0.405618816614,-0.83740657568
1503103876066293298,159370,1503103876066018044,ardrone_base_link,-0.396957784891,0.423870176077,-0.81409984827
1503103876070650355,159371,1503103876070487744,ardrone_base_link,-0.396957784891,0.423870176077,-0.81409984827
1503103876075207101,159372,1503103876074803415,ardrone_base_link,-0.437088996172,0.383293420076,-0.813657939434
1503103876083520112,159373,1503103876083295156,ardrone_base_link,-0.437088996172,0.383293420076,-0.813657939434
1503103876085076110,159374,1503103876084899840,ardrone_base_link,-0.415147900581,0.401309639215,-0.816457509995
1503103876089965537,159375,1503103876089797654,ardrone_base_link,-0.415147900581,0.401309639215,-0.816457509995
1503103876094740332,159376,1503103876094598831,ardrone_base_link,-0.418954432011,0.432046741247,-0.798631846905
1503103876099998892,159377,1503103876099792349,ardrone_base_link,-0.418954432011,0.432046741247,-0.798631846905
1503103876105392493,159378,1503103876105177308,ardrone_base_link,-0.430549561977,0.403640210629,-0.807280421257
1503103876114769178,159379,1503103876114611123,ardrone_base_link,-0.430549561977,0.403640210629,-0.807280421257
1503103876120552803,159380,1503103876120297359,ardrone_base_link,-0.410488307476,0.410488307476,-0.814247310162
1503103876120556298,159381,1503103876120340577,ardrone_base_link,-0.410488307476,0.410488307476,-0.814247310162
1503103876125352855,159382,1503103876125119122,ardrone_base_link,-0.403749883175,0.403749883175,-0.820958077908
1503103876130061760,159383,1503103876129945955,ardrone_base_link,-0.403749883175,0.403749883175,-0.820958077908
1503103876135349128,159384,1503103876135157115,ardrone_base_link,-0.422036707401,0.408199459314,-0.809480249882
1503103876140370504,159385,1503103876140119371,ardrone_base_link,-0.422036707401,0.408199459314,-0.809480249882
1503103876147527843,159386,1503103876147374044,ardrone_base_link,-0.439560562372,0.398985743523,-0.804733991623
1503103876150248804,159387,1503103876150062565,ardrone_base_link,-0.439560562372,0.398985743523,-0.804733991623
1503103876156563661,159388,1503103876156370733,ardrone_base_link,-0.387737154961,0.414946764708,-0.82309114933
1503103876162269922,159389,1503103876162057462,ardrone_base_link,-0.387737154961,0.414946764708,-0.82309114933
1503103876168470477,159390,1503103876168267754,ardrone_base_link,-0.3896035254,0.417432337999,-0.820950269699
1503103876170440993,159391,1503103876170331647,ardrone_base_link,-0.3896035254,0.417432337999,-0.820950269699
1503103876176154729,159392,1503103876175140365,ardrone_base_link,-0.412822335958,0.412822335958,-0.811883926392
1503103876180565908,159393,1503103876180357170,ardrone_base_link,-0.412822335958,0.412822335958,-0.811883926392
1503103876185569254,159394,1503103876185367709,ardrone_base_link,-0.408202588558,0.421586275101,-0.809713304043
1503103876190266257,159395,1503103876190118145,ardrone_base_link,-0.408202588558,0.421586275101,-0.809713304043
1503103876195545143,159396,1503103876195375738,ardrone_base_link,-0.418893694878,0.445490121841,-0.791243672371
1503103876203599111,159397,1503103876203391592,ardrone_base_link,-0.418893694878,0.445490121841,-0.791243672371
1503103876211352516,159398,1503103876211137873,ardrone_base_link,-0.401040941477,0.442527920008,-0.802081882954
1503103876211357491,159399,1503103876211162577,ardrone_base_link,-0.401040941477,0.442527920008,-0.802081882954
1503103876215583456,159400,1503103876215371583,ardrone_base_link,-0.385531336069,0.426113605499,-0.818408668041
1503103876220734824,159401,1503103876220429161,ardrone_base_link,-0.385531336069,0.426113605499,-0.818408668041
1503103876225497390,159402,1503103876225342020,ardrone_base_link,-0.419493824244,0.40596178174,-0.81192356348
1503103876234220664,159403,1503103876234039677,ardrone_base_link,-0.419493824244,0.40596178174,-0.81192356348
1503103876235967761,159404,1503103876235756851,ardrone_base_link,-0.406026542187,0.406026542187,-0.818709254265
1503103876244031934,159405,1503103876243741520,ardrone_base_link,-0.406026542187,0.406026542187,-0.818709254265
1503103876245912111,159406,1503103876245770364,ardrone_base_link,-0.405951559544,0.405951559544,-0.818783640862
1503103876251119825,159407,1503103876250646321,ardrone_base_link,-0.405951559544,0.405951559544,-0.818783640862
1503103876257356236,159408,1503103876257209880,ardrone_base_link,-0.405951559544,0.405951559544,-0.818783640862
1503103876262046608,159409,1503103876261867228,ardrone_base_link,-0.405951559544,0.405951559544,-0.818783640862
1503103876266956827,159410,1503103876266745919,ardrone_base_link,-0.406026542187,0.406026542187,-0.818709254265
1503103876272200182,159411,1503103876271948988,ardrone_base_link,-0.406026542187,0.406026542187,-0.818709254265
1503103876275848725,159412,1503103876275731432,ardrone_base_link,-0.403749883175,0.403749883175,-0.820958077908
1503103876281445168,159413,1503103876280700023,ardrone_base_link,-0.403749883175,0.403749883175,-0.820958077908
1503103876286064980,159414,1503103876285900078,ardrone_base_link,-0.401194363832,0.387360095978,-0.830057322979
1503103876290892884,159415,1503103876290778353,ardrone_base_link,-0.401194363832,0.387360095978,-0.830057322979
1503103876297355195,159416,1503103876297115976,ardrone_base_link,-0.394677519798,0.434814214706,-0.809423387051
1503103876301375760,159417,1503103876301126363,ardrone_base_link,-0.394677519798,0.434814214706,-0.809423387051
1503103876307337811,159418,1503103876307170652,ardrone_base_link,-0.423627436161,0.410389095545,-0.807539820671
1503103876312393773,159419,1503103876312235699,ardrone_base_link,-0.423627436161,0.410389095545,-0.807539820671
1503103876316155058,159420,1503103876315966524,ardrone_base_link,-0.392286092043,0.432867437601,-0.811626434326
1503103876321008986,159421,1503103876320814752,ardrone_base_link,-0.392286092043,0.432867437601,-0.811626434326
1503103876326287922,159422,1503103876326134515,ardrone_base_link,-0.428191840649,0.414810866117,-0.802859723568
1503103876331404782,159423,1503103876331232508,ardrone_base_link,-0.428191840649,0.414810866117,-0.802859723568
1503103876339507415,159424,1503103876339281755,ardrone_base_link,-0.430549561977,0.403640210629,-0.807280421257
1503103876341330966,159425,1503103876341100208,ardrone_base_link,-0.430549561977,0.403640210629,-0.807280421257
1503103876346383947,159426,1503103876346181696,ardrone_base_link,-0.40596178174,0.419493824244,-0.81192356348
1503103876354106953,159427,1503103876353917235,ardrone_base_link,-0.40596178174,0.419493824244,-0.81192356348
1503103876359651779,159428,1503103876359494293,ardrone_base_link,-0.41273728013,0.399204909801,-0.818708360195
1503103876365436735,159429,1503103876365221681,ardrone_base_link,-0.41273728013,0.399204909801,-0.818708360195
1503103876366589046,159430,1503103876366482990,ardrone_base_link,-0.405924648046,0.392393827438,-0.825380146503
1503103876374914528,159431,1503103876374714348,ardrone_base_link,-0.405924648046,0.392393827438,-0.825380146503
1503103876376277965,159432,1503103876376140507,ardrone_base_link,-0.387522041798,0.441911101341,-0.809037208557
1503103876381572770,159433,1503103876381375486,ardrone_base_link,-0.387522041798,0.441911101341,-0.809037208557
1503103876386395866,159434,1503103876386252052,ardrone_base_link,-0.414922297001,0.401537716389,-0.81646001339
1503103876391426058,159435,1503103876391292144,ardrone_base_link,-0.414922297001,0.401537716389,-0.81646001339
1503103876400459439,159436,1503103876400146903,ardrone_base_link,-0.414734065533,0.38840174675,-0.822885036469
1503103876402562028,159437,1503103876402417749,ardrone_base_link,-0.414734065533,0.38840174675,-0.822885036469
1503103876407070208,159438,1503103876406916637,ardrone_base_link,-0.412661731243,0.426191627979,-0.805028617382
1503103876411562545,159439,1503103876411394279,ardrone_base_link,-0.412661731243,0.426191627979,-0.805028617382
1503103876416533799,159440,1503103876416361234,ardrone_base_link,-0.410326212645,0.438144922256,-0.799788355827
1503103876421640536,159441,1503103876421422368,ardrone_base_link,-0.410326212645,0.438144922256,-0.799788355827
1503103876430277953,159442,1503103876430077740,ardrone_base_link,-0.401416301727,0.401416301727,-0.823243618011
1503103876432021520,159443,1503103876431849561,ardrone_base_link,-0.401416301727,0.401416301727,-0.823243618011
1503103876437889964,159444,1503103876437725848,ardrone_base_link,-0.415147900581,0.401309639215,-0.816457509995
1503103876441849372,159445,1503103876441618974,ardrone_base_link,-0.415147900581,0.401309639215,-0.816457509995
1503103876446998394,159446,1503103876446799134,ardrone_base_link,-0.421310782433,0.448492109776,-0.788258910179
1503103876451599929,159447,1503103876451443835,ardrone_base_link,-0.421310782433,0.448492109776,-0.788258910179
1503103876458112609,159448,1503103876457931095,ardrone_base_link,-0.415023624897,0.415023624897,-0.809636235237
1503103876464535901,159449,1503103876464287198,ardrone_base_link,-0.415023624897,0.415023624897,-0.809636235237
1503103876467078223,159450,1503103876466886892,ardrone_base_link,-0.417192161083,0.430870592594,-0.800188243389
1503103876471863434,159451,1503103876471646501,ardrone_base_link,-0.417192161083,0.430870592594,-0.800188243389
1503103876476988571,159452,1503103876476799083,ardrone_base_link,-0.426381289959,0.426381289959,-0.797745645046
1503103876482097945,159453,1503103876481894856,ardrone_base_link,-0.426381289959,0.426381289959,-0.797745645046
1503103876487180828,159454,1503103876487047867,ardrone_base_link,-0.396957784891,0.423870176077,-0.81409984827
1503103876492596910,159455,1503103876492416031,ardrone_base_link,-0.396957784891,0.423870176077,-0.81409984827
1503103876497206555,159456,1503103876497034572,ardrone_base_link,-0.443723201752,0.416830867529,-0.793323278427
1503103876503440013,159457,1503103876503255221,ardrone_base_link,-0.443723201752,0.416830867529,-0.793323278427
1503103876510072528,159458,1503103876509899963,ardrone_base_link,-0.362139821053,0.403136789799,-0.840437710285
1503103876511955685,159459,1503103876511791931,ardrone_base_link,-0.362139821053,0.403136789799,-0.840437710285
1503103876517312343,159460,1503103876517086908,ardrone_base_link,-0.408248275518,0.408248275518,-0.816496551037
1503103876523358400,159461,1503103876523141960,ardrone_base_link,-0.408248275518,0.408248275518,-0.816496551037
1503103876527501981,159462,1503103876527334075,ardrone_base_link,-0.403640210629,0.430549561977,-0.807280421257
1503103876534567838,159463,1503103876534352843,ardrone_base_link,-0.403640210629,0.430549561977,-0.807280421257
1503103876537294390,159464,1503103876537142601,ardrone_base_link,-0.41611674428,0.469809234142,-0.7785410285
1503103876542270289,159465,1503103876542075647,ardrone_base_link,-0.41611674428,0.469809234142,-0.7785410285
1503103876547305613,159466,1503103876547138910,ardrone_base_link,-0.425797045231,0.425797045231,-0.798369467258
1503103876552509034,159467,1503103876552291824,ardrone_base_link,-0.425797045231,0.425797045231,-0.798369467258
1503103876560489063,159468,1503103876560227718,ardrone_base_link,-0.424071520567,0.368455588818,-0.827287077904
1503103876565443730,159469,1503103876565266791,ardrone_base_link,-0.424071520567,0.368455588818,-0.827287077904
1503103876570376060,159470,1503103876570214344,ardrone_base_link,-0.403893768787,0.403893768787,-0.820816397667
1503103876572780865,159471,1503103876572599250,ardrone_base_link,-0.403893768787,0.403893768787,-0.820816397667
1503103876577494742,159472,1503103876577278784,ardrone_base_link,-0.387522041798,0.441911101341,-0.809037208557
1503103876583048578,159473,1503103876582850819,ardrone_base_link,-0.387522041798,0.441911101341,-0.809037208557
1503103876587520073,159474,1503103876587374045,ardrone_base_link,-0.421344518661,0.395010501146,-0.816354990005
1503103876593974135,159475,1503103876593819870,ardrone_base_link,-0.421344518661,0.395010501146,-0.816354990005
1503103876600745298,159476,1503103876600518336,ardrone_base_link,-0.453546643257,0.398571312428,-0.797142624855
1503103876602639478,159477,1503103876602403297,ardrone_base_link,-0.453546643257,0.398571312428,-0.797142624855
1503103876608024645,159478,1503103876607847188,ardrone_base_link,-0.423793464899,0.423793464899,-0.800498783588
1503103876612585684,159479,1503103876612448527,ardrone_base_link,-0.423793464899,0.423793464899,-0.800498783588
1503103876617763385,159480,1503103876617570341,ardrone_base_link,-0.412661731243,0.426191627979,-0.805028617382
1503103876622517382,159481,1503103876622327303,ardrone_base_link,-0.412661731243,0.426191627979,-0.805028617382
1503103876627996372,159482,1503103876627798845,ardrone_base_link,-0.410496979952,0.396813750267,-0.820993959904
1503103876632711342,159483,1503103876632538264,ardrone_base_link,-0.410496979952,0.396813750267,-0.820993959904
1503103876637947674,159484,1503103876637681209,ardrone_base_link,-0.408059418201,0.435263365507,-0.802516818047
1503103876642986030,159485,1503103876642683158,ardrone_base_link,-0.408059418201,0.435263365507,-0.802516818047
1503103876649226476,159486,1503103876648998920,ardrone_base_link,-0.442990362644,0.429766774178,-0.786803781986
1503103876652899549,159487,1503103876652670321,ardrone_base_link,-0.442990362644,0.429766774178,-0.786803781986
1503103876660033287,159488,1503103876659824840,ardrone_base_link,-0.403505086899,0.417663156986,-0.814089179039
1503103876666598858,159489,1503103876666363772,ardrone_base_link,-0.403505086899,0.417663156986,-0.814089179039
1503103876669193730,159490,1503103876668983621,ardrone_base_link,-0.405924648046,0.392393827438,-0.825380146503
1503103876674672915,159491,1503103876674481022,ardrone_base_link,-0.405924648046,0.392393827438,-0.825380146503
1503103876677969198,159492,1503103876677785673,ardrone_base_link,-0.403589248657,0.389908254147,-0.827700018883
1503103876683166903,159493,1503103876682895849,ardrone_base_link,-0.403589248657,0.389908254147,-0.827700018883
1503103876688356124,159494,1503103876688192501,ardrone_base_link,-0.450212299824,0.42333394289,-0.786191642284
1503103876693363676,159495,1503103876693177177,ardrone_base_link,-0.450212299824,0.42333394289,-0.786191642284
1503103876701700218,159496,1503103876701463561,ardrone_base_link,-0.372407615185,0.399008154869,-0.837917149067
1503103876706491000,159497,1503103876706336840,ardrone_base_link,-0.372407615185,0.399008154869,-0.837917149067
1503103876708483083,159498,1503103876708303549,ardrone_base_link,-0.379200309515,0.40581086278,-0.831579625607
1503103876714099581,159499,1503103876713883407,ardrone_base_link,-0.379200309515,0.40581086278,-0.831579625607
1503103876718051832,159500,1503103876717927221,ardrone_base_link,-0.417114108801,0.376086503267,-0.827390313148
1503103876723478804,159501,1503103876723264106,ardrone_base_link,-0.417114108801,0.376086503267,-0.827390313148
1503103876728382375,159502,1503103876728226534,ardrone_base_link,-0.448938250542,0.435124784708,-0.780461907387
1503103876733251450,159503,1503103876733099136,ardrone_base_link,-0.448938250542,0.435124784708,-0.780461907387
1503103876738426449,159504,1503103876738201928,ardrone_base_link,-0.408202588558,0.394818872213,-0.823096990585
1503103876744674654,159505,1503103876744434841,ardrone_base_link,-0.408202588558,0.394818872213,-0.823096990585
1503103876749221718,159506,1503103876749008590,ardrone_base_link,-0.401341974735,0.428551584482,-0.809486329556
1503103876753386072,159507,1503103876753196835,ardrone_base_link,-0.401341974735,0.428551584482,-0.809486329556
1503103876759728124,159508,1503103876758427017,ardrone_base_link,-0.389835298061,0.430870592594,-0.8138666749
1503103876765735740,159509,1503103876765498718,ardrone_base_link,-0.389835298061,0.430870592594,-0.8138666749
1503103876769284559,159510,1503103876769155442,ardrone_base_link,-0.410496979952,0.396813750267,-0.820993959904
1503103876774549572,159511,1503103876774394184,ardrone_base_link,-0.410496979952,0.396813750267,-0.820993959904
1503103876778580294,159512,1503103876778425131,ardrone_base_link,-0.428551584482,0.401341974735,-0.809486329556
1503103876783626146,159513,1503103876783387093,ardrone_base_link,-0.428551584482,0.401341974735,-0.809486329556
1503103876790026104,159514,1503103876789855559,ardrone_base_link,-0.427847266197,0.44121748209,-0.788843393326
1503103876798821982,159515,1503103876798630010,ardrone_base_link,-0.427847266197,0.44121748209,-0.788843393326
1503103876799708526,159516,1503103876799462751,ardrone_base_link,-0.395010501146,0.421344518661,-0.816354990005
1503103876803738892,159517,1503103876803453139,ardrone_base_link,-0.395010501146,0.421344518661,-0.816354990005
1503103876808662736,159518,1503103876808522452,ardrone_base_link,-0.41926458478,0.41926458478,-0.805254220963
1503103876813586390,159519,1503103876813431529,ardrone_base_link,-0.41926458478,0.41926458478,-0.805254220963
1503103876818784332,159520,1503103876818635808,ardrone_base_link,-0.41930192709,0.432827800512,-0.798026263714
1503103876824019432,159521,1503103876823812926,ardrone_base_link,-0.41930192709,0.432827800512,-0.798026263714
1503103876831035794,159522,1503103876830851511,ardrone_base_link,-0.405924648046,0.392393827438,-0.825380146503
1503103876833826446,159523,1503103876833645730,ardrone_base_link,-0.405924648046,0.392393827438,-0.825380146503
1503103876838952222,159524,1503103876838715340,ardrone_base_link,-0.41259393096,0.399495691061,-0.81863874197
1503103876844004576,159525,1503103876843779649,ardrone_base_link,-0.41259393096,0.399495691061,-0.81863874197
1503103876850264353,159526,1503103876850056113,ardrone_base_link,-0.40332275629,0.375507414341,-0.834460914135
1503103876854553879,159527,1503103876854357182,ardrone_base_link,-0.40332275629,0.375507414341,-0.834460914135
1503103876858920509,159528,1503103876858740891,ardrone_base_link,-0.423793464899,0.423793464899,-0.800498783588
1503103876864884701,159529,1503103876864562313,ardrone_base_link,-0.423793464899,0.423793464899,-0.800498783588
1503103876868912441,159530,1503103876868795128,ardrone_base_link,-0.390220880508,0.417132645845,-0.820809423923
1503103876874105634,159531,1503103876873943364,ardrone_base_link,-0.390220880508,0.417132645845,-0.820809423923
1503103876880264886,159532,1503103876880057475,ardrone_base_link,-0.430549561977,0.403640210629,-0.807280421257
1503103876884995269,159533,1503103876884776218,ardrone_base_link,-0.430549561977,0.403640210629,-0.807280421257
1503103876891218602,159534,1503103876890987928,ardrone_base_link,-0.382951289415,0.396628111601,-0.834286749363
1503103876896308247,159535,1503103876896184341,ardrone_base_link,-0.382951289415,0.396628111601,-0.834286749363
1503103876902221130,159536,1503103876902040915,ardrone_base_link,-0.434814214706,0.394677519798,-0.809423387051
1503103876903975815,159537,1503103876903797084,ardrone_base_link,-0.434814214706,0.394677519798,-0.809423387051
1503103876909068981,159538,1503103876908874351,ardrone_base_link,-0.435623824596,0.421794474125,-0.795186340809
1503103876913996208,159539,1503103876913834694,ardrone_base_link,-0.435623824596,0.421794474125,-0.795186340809
1503103876919378382,159540,1503103876919224129,ardrone_base_link,-0.390505880117,0.403743356466,-0.827342987061
1503103876924306864,159541,1503103876924049939,ardrone_base_link,-0.390505880117,0.403743356466,-0.827342987061
1503103876929412075,159542,1503103876929223616,ardrone_base_link,-0.439025461674,0.412417858839,-0.798228144646
1503103876934219582,159543,1503103876933965805,ardrone_base_link,-0.439025461674,0.412417858839,-0.798228144646
1503103876939489073,159544,1503103876939287445,ardrone_base_link,-0.396598905325,0.369710832834,-0.840251922607
1503103876944400294,159545,1503103876944148365,ardrone_base_link,-0.396598905325,0.369710832834,-0.840251922607
1503103876949796206,159546,1503103876949578063,ardrone_base_link,-0.399204909801,0.41273728013,-0.818708360195
1503103876959397111,159547,1503103876959220212,ardrone_base_link,-0.399204909801,0.41273728013,-0.818708360195
1503103876961871099,159548,1503103876961633623,ardrone_base_link,-0.428551584482,0.401341974735,-0.809486329556
1503103876964717643,159549,1503103876964509384,ardrone_base_link,-0.428551584482,0.401341974735,-0.809486329556
1503103876969754790,159550,1503103876969517013,ardrone_base_link,-0.398986011744,0.42650231719,-0.811730206013
1503103876974549265,159551,1503103876974352299,ardrone_base_link,-0.398986011744,0.42650231719,-0.811730206013
1503103876979460620,159552,1503103876979223188,ardrone_base_link,-0.412822335958,0.412822335958,-0.811883926392
1503103876986989897,159553,1503103876986778030,ardrone_base_link,-0.412822335958,0.412822335958,-0.811883926392
1503103876992581381,159554,1503103876992378452,ardrone_base_link,-0.415023624897,0.415023624897,-0.809636235237
1503103876994623148,159555,1503103876994418070,ardrone_base_link,-0.415023624897,0.415023624897,-0.809636235237
1503103876999634332,159556,1503103876999447555,ardrone_base_link,-0.417053967714,0.403814166784,-0.814248204231
1503103877004689574,159557,1503103877004514970,ardrone_base_link,-0.417053967714,0.403814166784,-0.814248204231
1503103877009857256,159558,1503103877009706136,ardrone_base_link,-0.41717043519,0.41717043519,-0.807426631451
1503103877015117724,159559,1503103877014932194,ardrone_base_link,-0.41717043519,0.41717043519,-0.807426631451
1503103877020144720,159560,1503103877019947319,ardrone_base_link,-0.416777998209,0.403954058886,-0.814320087433
1503103877026012226,159561,1503103877025825757,ardrone_base_link,-0.416777998209,0.403954058886,-0.814320087433
1503103877029803459,159562,1503103877029655277,ardrone_base_link,-0.417132645845,0.390220880508,-0.820809423923
1503103877035466719,159563,1503103877035287742,ardrone_base_link,-0.417132645845,0.390220880508,-0.820809423923
1503103877039989769,159564,1503103877039798213,ardrone_base_link,-0.382557928562,0.36889514327,-0.847092568874
1503103877046145061,159565,1503103877045883735,ardrone_base_link,-0.382557928562,0.36889514327,-0.847092568874
1503103877051149216,159566,1503103877050960050,ardrone_base_link,-0.401341974735,0.428551584482,-0.809486329556
1503103877054971681,159567,1503103877054792564,ardrone_base_link,-0.401341974735,0.428551584482,-0.809486329556
1503103877060135555,159568,1503103877059875692,ardrone_base_link,-0.403589248657,0.389908254147,-0.827700018883
1503103877065116734,159569,1503103877064877777,ardrone_base_link,-0.403589248657,0.389908254147,-0.827700018883
1503103877069957971,159570,1503103877069807674,ardrone_base_link,-0.428393036127,0.428393036127,-0.795587062836
1503103877077434194,159571,1503103877077260293,ardrone_base_link,-0.428393036127,0.428393036127,-0.795587062836
1503103877082362669,159572,1503103877082148025,ardrone_base_link,-0.433661907911,0.419672816992,-0.79737830162
1503103877085402220,159573,1503103877085219692,ardrone_base_link,-0.433661907911,0.419672816992,-0.79737830162
1503103877090239409,159574,1503103877090080636,ardrone_base_link,-0.448492109776,0.421310782433,-0.788258910179
1503103877095016274,159575,1503103877094921476,ardrone_base_link,-0.448492109776,0.421310782433,-0.788258910179
1503103877100312268,159576,1503103877100101680,ardrone_base_link,-0.367055058479,0.418571561575,-0.830703556538
1503103877107351852,159577,1503103877107181933,ardrone_base_link,-0.367055058479,0.418571561575,-0.830703556538
1503103877109822720,159578,1503103877109582221,ardrone_base_link,-0.431304991245,0.403478860855,-0.80695772171
1503103877115502003,159579,1503103877115323671,ardrone_base_link,-0.431304991245,0.403478860855,-0.80695772171
1503103877120215031,159580,1503103877120034681,ardrone_base_link,-0.43570715189,0.394211232662,-0.809170424938
1503103877125506481,159581,1503103877125265276,ardrone_base_link,-0.43570715189,0.394211232662,-0.809170424938
1503103877130688458,159582,1503103877130439065,ardrone_base_link,-0.408248305321,0.408248305321,-0.816496610641
1503103877137148333,159583,1503103877136960337,ardrone_base_link,-0.408248305321,0.408248305321,-0.816496610641
1503103877141967000,159584,1503103877141705837,ardrone_base_link,-0.432867437601,0.392286092043,-0.811626434326
1503103877145529005,159585,1503103877145332855,ardrone_base_link,-0.432867437601,0.392286092043,-0.811626434326
1503103877154741212,159586,1503103877154591308,ardrone_base_link,-0.416830867529,0.443723201752,-0.793323278427
1503103877156502548,159587,1503103877156368384,ardrone_base_link,-0.416830867529,0.443723201752,-0.793323278427
1503103877160700859,159588,1503103877160488451,ardrone_base_link,-0.405871331692,0.405871331692,-0.818863213062
1503103877165539421,159589,1503103877165381414,ardrone_base_link,-0.405871331692,0.405871331692,-0.818863213062
1503103877171384983,159590,1503103877171245081,ardrone_base_link,-0.412890404463,0.398894101381,-0.818782627583
1503103877175456001,159591,1503103877175299059,ardrone_base_link,-0.412890404463,0.398894101381,-0.818782627583
1503103877184947762,159592,1503103877184700452,ardrone_base_link,-0.42439982295,0.396570324898,-0.814012765884
1503103877188007216,159593,1503103877187691705,ardrone_base_link,-0.42439982295,0.396570324898,-0.814012765884
1503103877190304249,159594,1503103877190133876,ardrone_base_link,-0.401341974735,0.428551584482,-0.809486329556
1503103877196101214,159595,1503103877195418096,ardrone_base_link,-0.401341974735,0.428551584482,-0.809486329556
1503103877200801816,159596,1503103877200563855,ardrone_base_link,-0.401341974735,0.428551584482,-0.809486329556
1503103877205483484,159597,1503103877205342017,ardrone_base_link,-0.401341974735,0.428551584482,-0.809486329556
1503103877211135470,159598,1503103877210974744,ardrone_base_link,-0.417348355055,0.403664797544,-0.814171373844
1503103877248791453,159599,1503103877248565097,ardrone_base_link,-0.426191627979,0.412661731243,-0.805028617382
1503103877252948646,159600,1503103877252695897,ardrone_base_link,-0.405951559544,0.405951559544,-0.818783640862
1503103877256135389,159601,1503103877255924170,ardrone_base_link,-0.405951559544,0.405951559544,-0.818783640862
1503103877261374959,159602,1503103877261073581,ardrone_base_link,-0.403664797544,0.417348355055,-0.814171373844
1503103877266246993,159603,1503103877266030075,ardrone_base_link,-0.403664797544,0.417348355055,-0.814171373844
1503103877272341529,159604,1503103877272137753,ardrone_base_link,-0.389973819256,0.443763315678,-0.806842386723
1503103877278249469,159605,1503103877277979982,ardrone_base_link,-0.389973819256,0.443763315678,-0.806842386723
1503103877281544508,159606,1503103877281302886,ardrone_base_link,-0.369032949209,0.437372386456,-0.820073187351
1503103877286244070,159607,1503103877286049722,ardrone_base_link,-0.369032949209,0.437372386456,-0.820073187351
1503103877291393964,159608,1503103877291188017,ardrone_base_link,-0.421586275101,0.408202588558,-0.809713304043
1503103877296127512,159609,1503103877295970952,ardrone_base_link,-0.421586275101,0.408202588558,-0.809713304043
1503103877301225417,159610,1503103877301025102,ardrone_base_link,-0.416907846928,0.430142998695,-0.800727784634
1503103877306115031,159611,1503103877305964969,ardrone_base_link,-0.416907846928,0.430142998695,-0.800727784634
1503103877312057287,159612,1503103877311837965,ardrone_base_link,-0.415147900581,0.401309639215,-0.816457509995
1503103877316386386,159613,1503103877316192459,ardrone_base_link,-0.415147900581,0.401309639215,-0.816457509995
1503103877321382150,159614,1503103877321142003,ardrone_base_link,-0.419493824244,0.40596178174,-0.81192356348
1503103877326481474,159615,1503103877326310961,ardrone_base_link,-0.419493824244,0.40596178174,-0.81192356348
1503103877331596494,159616,1503103877331409379,ardrone_base_link,-0.401416301727,0.401416301727,-0.823243618011
1503103877336525209,159617,1503103877336327890,ardrone_base_link,-0.401416301727,0.401416301727,-0.823243618011
1503103877341663927,159618,1503103877341428611,ardrone_base_link,-0.39043751359,0.430142998695,-0.813962936401
1503103877349073171,159619,1503103877348778847,ardrone_base_link,-0.39043751359,0.430142998695,-0.813962936401
1503103877352862793,159620,1503103877352596869,ardrone_base_link,-0.399326175451,0.399326175451,-0.82527410984
1503103877356541129,159621,1503103877356321119,ardrone_base_link,-0.399326175451,0.399326175451,-0.82527410984
1503103877361779201,159622,1503103877361381470,ardrone_base_link,-0.408199459314,0.422036707401,-0.809480249882
1503103877366435411,159623,1503103877366283356,ardrone_base_link,-0.408199459314,0.422036707401,-0.809480249882
1503103877371531764,159624,1503103877371368250,ardrone_base_link,-0.41926458478,0.41926458478,-0.805254220963
1503103877377879848,159625,1503103877377716346,ardrone_base_link,-0.41926458478,0.41926458478,-0.805254220963
1503103877383689461,159626,1503103877383496586,ardrone_base_link,-0.421359926462,0.434736430645,-0.795902073383
1503103877386779895,159627,1503103877386603236,ardrone_base_link,-0.421359926462,0.434736430645,-0.795902073383
1503103877396491148,159628,1503103877396312909,ardrone_base_link,-0.419633179903,0.419633179903,-0.804870188236
1503103877402217691,159629,1503103877401923513,ardrone_base_link,-0.419633179903,0.419633179903,-0.804870188236
1503103877402645336,159630,1503103877402482031,ardrone_base_link,-0.446811914444,0.391819685698,-0.804261445999
1503103877407485102,159631,1503103877406993205,ardrone_base_link,-0.446811914444,0.391819685698,-0.804261445999
1503103877417004943,159632,1503103877416769578,ardrone_base_link,-0.422036707401,0.408199459314,-0.809480249882
1503103877417010804,159633,1503103877416814688,ardrone_base_link,-0.422036707401,0.408199459314,-0.809480249882
1503103877422084053,159634,1503103877421876739,ardrone_base_link,-0.437005162239,0.450661599636,-0.778415441513
1503103877426828462,159635,1503103877426673233,ardrone_base_link,-0.437005162239,0.450661599636,-0.778415441513
1503103877431928580,159636,1503103877431639696,ardrone_base_link,-0.389908254147,0.403589248657,-0.827700018883
1503103877437241800,159637,1503103877436993665,ardrone_base_link,-0.389908254147,0.403589248657,-0.827700018883
1503103877443168115,159638,1503103877442949273,ardrone_base_link,-0.41259393096,0.399495691061,-0.81863874197
1503103877446884806,159639,1503103877446698086,ardrone_base_link,-0.41259393096,0.399495691061,-0.81863874197
1503103877452285029,159640,1503103877452052670,ardrone_base_link,-0.414946764708,0.387737154961,-0.82309114933
1503103877457200645,159641,1503103877456940247,ardrone_base_link,-0.414946764708,0.387737154961,-0.82309114933
1503103877462499489,159642,1503103877462290688,ardrone_base_link,-0.428191840649,0.414810866117,-0.802859723568
1503103877468190620,159643,1503103877468011974,ardrone_base_link,-0.428191840649,0.414810866117,-0.802859723568
1503103877474500661,159644,1503103877474242608,ardrone_base_link,-0.445490121841,0.418893694878,-0.791243672371
1503103877477238856,159645,1503103877477061110,ardrone_base_link,-0.445490121841,0.418893694878,-0.791243672371
1503103877482244780,159646,1503103877482048010,ardrone_base_link,-0.394677519798,0.434814214706,-0.809423387051
1503103877487447480,159647,1503103877487311255,ardrone_base_link,-0.394677519798,0.434814214706,-0.809423387051
1503103877492406850,159648,1503103877492219490,ardrone_base_link,-0.403893768787,0.403893768787,-0.820816397667
1503103877497249943,159649,1503103877496999324,ardrone_base_link,-0.403893768787,0.403893768787,-0.820816397667
1503103877502101866,159650,1503103877501883454,ardrone_base_link,-0.428862959146,0.415028661489,-0.802388727665
1503103877507526086,159651,1503103877507370303,ardrone_base_link,-0.428862959146,0.415028661489,-0.802388727665
1503103877517609409,159652,1503103877517394348,ardrone_base_link,-0.426220059395,0.371223926544,-0.824942052364
1503103877517617270,159653,1503103877517422631,ardrone_base_link,-0.426220059395,0.371223926544,-0.824942052364
1503103877522527991,159654,1503103877522291997,ardrone_base_link,-0.412673592567,0.412673592567,-0.812035143375
1503103877528502977,159655,1503103877528292471,ardrone_base_link,-0.412673592567,0.412673592567,-0.812035143375
1503103877533366344,159656,1503103877533150670,ardrone_base_link,-0.415023624897,0.415023624897,-0.809636235237
1503103877538404443,159657,1503103877538214290,ardrone_base_link,-0.415023624897,0.415023624897,-0.809636235237
1503103877546541300,159658,1503103877546327456,ardrone_base_link,-0.427751928568,0.427751928568,-0.796276688576
1503103877549479143,159659,1503103877549267034,ardrone_base_link,-0.427751928568,0.427751928568,-0.796276688576
1503103877553263852,159660,1503103877553073544,ardrone_base_link,-0.385531336069,0.426113605499,-0.818408668041
1503103877557505844,159661,1503103877557357874,ardrone_base_link,-0.385531336069,0.426113605499,-0.818408668041
1503103877563033824,159662,1503103877562775189,ardrone_base_link,-0.419493824244,0.40596178174,-0.81192356348
1503103877569284901,159663,1503103877569106679,ardrone_base_link,-0.419493824244,0.40596178174,-0.81192356348
1503103877574332886,159664,1503103877574108389,ardrone_base_link,-0.417348355055,0.403664797544,-0.814171373844
1503103877579149802,159665,1503103877579009204,ardrone_base_link,-0.417348355055,0.403664797544,-0.814171373844
1503103877582734875,159666,1503103877582534262,ardrone_base_link,-0.415023624897,0.415023624897,-0.809636235237
1503103877588533869,159667,1503103877588398985,ardrone_base_link,-0.415023624897,0.415023624897,-0.809636235237
1503103877593068240,159668,1503103877592944990,ardrone_base_link,-0.439399898052,0.425879895687,-0.790919780731
1503103877597565103,159669,1503103877597361201,ardrone_base_link,-0.439399898052,0.425879895687,-0.790919780731
1503103877603084180,159670,1503103877602851944,ardrone_base_link,-0.428862959146,0.415028661489,-0.802388727665
1503103877609856325,159671,1503103877609638520,ardrone_base_link,-0.428862959146,0.415028661489,-0.802388727665
1503103877613391786,159672,1503103877613189651,ardrone_base_link,-0.401341974735,0.428551584482,-0.809486329556
1503103877621721462,159673,1503103877621460208,ardrone_base_link,-0.401341974735,0.428551584482,-0.809486329556
1503103877622876642,159674,1503103877622677124,ardrone_base_link,-0.430549561977,0.403640210629,-0.807280421257
1503103877627887375,159675,1503103877627679997,ardrone_base_link,-0.430549561977,0.403640210629,-0.807280421257
1503103877638663650,159676,1503103877638427036,ardrone_base_link,-0.430870592594,0.389835298061,-0.8138666749
1503103877639658382,159677,1503103877639476817,ardrone_base_link,-0.430870592594,0.389835298061,-0.8138666749
1503103877642930563,159678,1503103877642735239,ardrone_base_link,-0.417348355055,0.403664797544,-0.814171373844
1503103877648111053,159679,1503103877647935213,ardrone_base_link,-0.417348355055,0.403664797544,-0.814171373844
1503103877654425399,159680,1503103877654291859,ardrone_base_link,-0.412673592567,0.412673592567,-0.812035143375
1503103877658020237,159681,1503103877657824760,ardrone_base_link,-0.412673592567,0.412673592567,-0.812035143375
1503103877664698739,159682,1503103877664450266,ardrone_base_link,-0.421359926462,0.434736430645,-0.795902073383
1503103877669623578,159683,1503103877669452992,ardrone_base_link,-0.421359926462,0.434736430645,-0.795902073383
1503103877673378258,159684,1503103877673179193,ardrone_base_link,-0.414716571569,0.441911101341,-0.795439958572
1503103877678088937,159685,1503103877677920141,ardrone_base_link,-0.414716571569,0.441911101341,-0.795439958572
1503103877683934815,159686,1503103877683742918,ardrone_base_link,-0.456797838211,0.376186460257,-0.806113839149
1503103877690487665,159687,1503103877690304759,ardrone_base_link,-0.456797838211,0.376186460257,-0.806113839149
1503103877693174574,159688,1503103877693029878,ardrone_base_link,-0.532456219196,0.391323238611,-0.750570833683
1503103877698615319,159689,1503103877698475061,ardrone_base_link,-0.532456219196,0.391323238611,-0.750570833683
1503103877703620319,159690,1503103877703402426,ardrone_base_link,-0.364555507898,0.378851801157,-0.850629508495
1503103877708572264,159691,1503103877708365768,ardrone_base_link,-0.364555507898,0.378851801157,-0.850629508495
1503103877713631663,159692,1503103877713468019,ardrone_base_link,-0.501260280609,0.340856999159,-0.795332968235
1503103877718454977,159693,1503103877718272704,ardrone_base_link,-0.501260280609,0.340856999159,-0.795332968235
1503103877724771340,159694,1503103877724551205,ardrone_base_link,-0.63350135088,0.313675433397,-0.707307338715
1503103877729806296,159695,1503103877729640408,ardrone_base_link,-0.63350135088,0.313675433397,-0.707307338715
1503103877733920681,159696,1503103877733728517,ardrone_base_link,-0.573560714722,0.363871842623,-0.73391097784
1503103877738920303,159697,1503103877738765888,ardrone_base_link,-0.573560714722,0.363871842623,-0.73391097784
1503103877743482299,159698,1503103877743329149,ardrone_base_link,-0.534182071686,0.351778447628,-0.768701076508
1503103877748429841,159699,1503103877748274120,ardrone_base_link,-0.534182071686,0.351778447628,-0.768701076508
1503103877753526692,159700,1503103877753375791,ardrone_base_link,-0.558853209019,0.289061993361,-0.77725559473
1503103877758555769,159701,1503103877758411310,ardrone_base_link,-0.558853209019,0.289061993361,-0.77725559473
1503103877766348255,159702,1503103877766095626,ardrone_base_link,-0.392042011023,0.392042011023,-0.832229554653
1503103877770165354,159703,1503103877769992067,ardrone_base_link,-0.392042011023,0.392042011023,-0.832229554653
1503103877774974207,159704,1503103877774780019,ardrone_base_link,-0.38662275672,0.400942116976,-0.830522954464
1503103877779960310,159705,1503103877779648982,ardrone_base_link,-0.38662275672,0.400942116976,-0.830522954464
1503103877783737134,159706,1503103877783510163,ardrone_base_link,-0.373382925987,0.41486993432,-0.829739868641
1503103877789252769,159707,1503103877788622475,ardrone_base_link,-0.373382925987,0.41486993432,-0.829739868641
1503103877793716536,159708,1503103877793515307,ardrone_base_link,-0.628344476223,0.25401160121,-0.735296726227
1503103877799019163,159709,1503103877798799454,ardrone_base_link,-0.628344476223,0.25401160121,-0.735296726227
1503103877805274950,159710,1503103877805036706,ardrone_base_link,-0.517500579357,0.338611483574,-0.785834252834
1503103877808878141,159711,1503103877808705982,ardrone_base_link,-0.517500579357,0.338611483574,-0.785834252834
1503103877814148792,159712,1503103877813956576,ardrone_base_link,-0.424561351538,0.382105231285,-0.820818662643
1503103877818921156,159713,1503103877818757431,ardrone_base_link,-0.424561351538,0.382105231285,-0.820818662643
1503103877823921774,159714,1503103877823687801,ardrone_base_link,-0.575125694275,0.29094594717,-0.76457887888
1503103877834035011,159715,1503103877833831974,ardrone_base_link,-0.575125694275,0.29094594717,-0.76457887888
1503103877836107747,159716,1503103877835926367,ardrone_base_link,-0.461738735437,0.347885340452,-0.815949261189
1503103877840839197,159717,1503103877840589838,ardrone_base_link,-0.461738735437,0.347885340452,-0.815949261189
1503103877844296472,159718,1503103877844121314,ardrone_base_link,-0.48267826438,0.386142611504,-0.786076009274
1503103877849218793,159719,1503103877848931972,ardrone_base_link,-0.48267826438,0.386142611504,-0.786076009274
1503103877854303375,159720,1503103877854157537,ardrone_base_link,-0.538263559341,0.262567609549,-0.800831198692
1503103877859529655,159721,1503103877858754477,ardrone_base_link,-0.538263559341,0.262567609549,-0.800831198692
1503103877864721983,159722,1503103877864540124,ardrone_base_link,-0.494203090668,0.412964224815,-0.764999270439
1503103877871291821,159723,1503103877871139147,ardrone_base_link,-0.494203090668,0.412964224815,-0.764999270439
1503103877875428788,159724,1503103877875297443,ardrone_base_link,-0.5047544837,0.227139502764,-0.832844853401
1503103877880653612,159725,1503103877880344196,ardrone_base_link,-0.5047544837,0.227139502764,-0.832844853401
1503103877884308144,159726,1503103877884102555,ardrone_base_link,-0.49141818285,0.424100637436,-0.76068842411
1503103877889182019,159727,1503103877889010163,ardrone_base_link,-0.49141818285,0.424100637436,-0.76068842411
1503103877895835603,159728,1503103877895627841,ardrone_base_link,-0.529842019081,0.268191635609,-0.804574906826
1503103877899560687,159729,1503103877899386152,ardrone_base_link,-0.529842019081,0.268191635609,-0.804574906826
1503103877906747271,159730,1503103877906510357,ardrone_base_link,-0.492960751057,0.347972303629,-0.797436535358
1503103877913144154,159731,1503103877912966887,ardrone_base_link,-0.492960751057,0.347972303629,-0.797436535358
1503103877914526222,159732,1503103877914331271,ardrone_base_link,-0.488920897245,0.361928462982,-0.7937027812
1503103877919623194,159733,1503103877919492791,ardrone_base_link,-0.488920897245,0.361928462982,-0.7937027812
1503103877926374780,159734,1503103877926135145,ardrone_base_link,-0.437047064304,0.284427464008,-0.853282392025
1503103877929781450,159735,1503103877929570245,ardrone_base_link,-0.437047064304,0.284427464008,-0.853282392025
1503103877935947918,159736,1503103877935768490,ardrone_base_link,-0.582330703735,0.343785583973,-0.736683368683
1503103877943062065,159737,1503103877942835208,ardrone_base_link,-0.582330703735,0.343785583973,-0.736683368683
1503103877945043371,159738,1503103877944875574,ardrone_base_link,-0.520397484303,0.353356301785,-0.777383923531
1503103877949560355,159739,1503103877949355428,ardrone_base_link,-0.520397484303,0.353356301785,-0.777383923531
1503103877954503775,159740,1503103877954393477,ardrone_base_link,-0.429383277893,0.315723001957,-0.84613764286
1503103877959766194,159741,1503103877959485656,ardrone_base_link,-0.429383277893,0.315723001957,-0.84613764286
1503103877970152873,159742,1503103877969939558,ardrone_base_link,-0.555361092091,0.246046066284,-0.794377267361
1503103877983593020,159743,1503103877983388476,ardrone_base_link,-0.555361092091,0.246046066284,-0.794377267361
1503103877985658353,159744,1503103877985462093,ardrone_base_link,-0.579600870609,0.33412283659,-0.743252873421
1503103877985661492,159745,1503103877985489240,ardrone_base_link,-0.579600870609,0.33412283659,-0.743252873421
1503103877985672237,159746,1503103877985499954,ardrone_base_link,-0.533810555935,0.395647794008,-0.747334718704
1503103877990937837,159747,1503103877990770071,ardrone_base_link,-0.533810555935,0.395647794008,-0.747334718704
1503103877994979262,159748,1503103877994870394,ardrone_base_link,-0.482763826847,0.365334808826,-0.795907974243
1503103877999764657,159749,1503103877999596530,ardrone_base_link,-0.482763826847,0.365334808826,-0.795907974243
1503103878004929387,159750,1503103878004710192,ardrone_base_link,-0.464144915342,0.368585675955,-0.805427968502
1503103878010148534,159751,1503103878009955404,ardrone_base_link,-0.464144915342,0.368585675955,-0.805427968502
1503103878018454493,159752,1503103878018317080,ardrone_base_link,-0.415724664927,0.337776303291,-0.844440758228
1503103878035650634,159753,1503103878035454918,ardrone_base_link,-0.415724664927,0.337776303291,-0.844440758228
1503103878036962156,159754,1503103878036818630,ardrone_base_link,-0.398682922125,0.347239971161,-0.848808825016
1503103878042670783,159755,1503103878042416575,ardrone_base_link,-0.398682922125,0.347239971161,-0.848808825016
1503103878043441275,159756,1503103878043272037,ardrone_base_link,-0.466119199991,0.30234760046,-0.831455886364
1503103878045338676,159757,1503103878045174444,ardrone_base_link,-0.466119199991,0.30234760046,-0.831455886364
1503103878046609894,159758,1503103878046450304,ardrone_base_link,-0.46954318881,0.263716042042,-0.842604875565
1503103878050210751,159759,1503103878049898932,ardrone_base_link,-0.46954318881,0.263716042042,-0.842604875565
1503103878055408639,159760,1503103878055292738,ardrone_base_link,-0.474234670401,0.289467930794,-0.831450402737
1503103878060573195,159761,1503103878060294096,ardrone_base_link,-0.474234670401,0.289467930794,-0.831450402737
1503103878065119451,159762,1503103878064977780,ardrone_base_link,-0.448287189007,0.286405712366,-0.846764683723
1503103878071218547,159763,1503103878070998086,ardrone_base_link,-0.448287189007,0.286405712366,-0.846764683723
1503103878078502837,159764,1503103878078276581,ardrone_base_link,-0.449047118425,0.305872678757,-0.839522898197
1503103878081096153,159765,1503103878080856450,ardrone_base_link,-0.449047118425,0.305872678757,-0.839522898197
1503103878085228302,159766,1503103878084995793,ardrone_base_link,-0.437740236521,0.346272140741,-0.829746425152
1503103878090329492,159767,1503103878090175043,ardrone_base_link,-0.437740236521,0.346272140741,-0.829746425152
1503103878095613399,159768,1503103878095501925,ardrone_base_link,-0.528917133808,0.359663665295,-0.768692910671
1503103878100561180,159769,1503103878100334933,ardrone_base_link,-0.528917133808,0.359663665295,-0.768692910671
1503103878105463246,159770,1503103878105318433,ardrone_base_link,-0.522364556789,0.302421569824,-0.797293245792
1503103878110502006,159771,1503103878110318623,ardrone_base_link,-0.522364556789,0.302421569824,-0.797293245792
1503103878115423181,159772,1503103878115239236,ardrone_base_link,-0.546861171722,0.320113837719,-0.773608446121
1503103878120477751,159773,1503103878120261456,ardrone_base_link,-0.546861171722,0.320113837719,-0.773608446121
1503103878125906255,159774,1503103878125728282,ardrone_base_link,-0.502321243286,0.306293427944,-0.80861467123
1503103878132412691,159775,1503103878132230578,ardrone_base_link,-0.502321243286,0.306293427944,-0.80861467123
1503103878140876666,159776,1503103878140569056,ardrone_base_link,-0.481128484011,0.312083333731,-0.819218754768
1503103878140918981,159777,1503103878140607851,ardrone_base_link,-0.481128484011,0.312083333731,-0.819218754768
1503103878157177712,159778,1503103878156957692,ardrone_base_link,-0.57184702158,0.363902658224,-0.735231876373
