%time,field.linear.x,field.linear.y,field.linear.z,field.angular.x,field.angular.y,field.angular.z
1503103881357904808,0.0,1.0,0.0,0.0,0.0,0.0
1503103881457870635,1.0,1.0,0.0,0.0,0.0,0.0
1503103881557738015,1.0,1.0,0.0,0.0,0.0,0.0
1503103881657757605,1.0,1.0,0.0,0.0,0.0,0.0
1503103883357826113,0.0,1.0,0.0,0.0,0.0,0.0
1503103883457825829,0.0,1.0,0.0,0.0,0.0,0.0
1503103883557819027,0.0,1.0,0.0,0.0,0.0,0.0
1503103883657757316,0.0,1.0,0.0,0.0,0.0,0.0
1503103884157877140,-1.0,0.0,0.0,0.0,0.0,0.0
1503103884257833744,-1.0,0.0,0.0,0.0,0.0,0.0
1503103885457812180,0.0,-1.0,0.0,0.0,0.0,0.0
1503103886957670740,0.0,1.0,0.0,0.0,0.0,0.0
1503103887057789294,0.0,1.0,0.0,0.0,0.0,0.0
1503103887157798317,0.0,1.0,0.0,0.0,0.0,0.0
1503103887557783713,-1.0,0.0,0.0,0.0,0.0,0.0
1503103887857758469,0.0,-1.0,0.0,0.0,0.0,0.0
1503103888657738643,0.0,1.0,0.0,0.0,0.0,0.0
1503103888757702024,0.0,1.0,0.0,0.0,0.0,0.0
1503103888857713126,0.0,1.0,0.0,0.0,0.0,0.0
1503103889257791002,0.0,1.0,0.0,0.0,0.0,0.0
1503103889857812138,0.0,-1.0,0.0,0.0,0.0,0.0
1503103890357781559,-1.0,0.0,0.0,0.0,0.0,0.0
1503103891057837896,1.0,0.0,0.0,0.0,0.0,0.0
1503103893257980096,-1.0,0.0,0.0,0.0,0.0,0.0
1503103893357924129,-1.0,0.0,0.0,0.0,0.0,0.0
1503103893457745873,-1.0,0.0,0.0,0.0,0.0,0.0
1503103893557851993,-1.0,0.0,0.0,0.0,0.0,0.0
1503103893657651887,-1.0,0.0,0.0,0.0,0.0,0.0
1503103894857858384,0.0,0.0,1.0,0.0,0.0,0.0
1503103894957918888,0.0,0.0,1.0,0.0,0.0,0.0
1503103895057909165,0.0,0.0,1.0,0.0,0.0,0.0
1503103895157937763,0.0,0.0,1.0,0.0,0.0,0.0
1503103895457941812,0.0,1.0,0.0,0.0,0.0,0.0
1503103895557819243,0.0,1.0,0.0,0.0,0.0,0.0
1503103895757827784,-1.0,0.0,0.0,0.0,0.0,0.0
1503103896557701988,0.0,1.0,0.0,0.0,0.0,0.0
1503103896657754672,0.0,1.0,0.0,0.0,0.0,0.0
1503103896757681838,-1.0,1.0,0.0,0.0,0.0,0.0
1503103896857755470,-1.0,1.0,0.0,0.0,0.0,0.0
1503103896957767565,0.0,1.0,0.0,0.0,0.0,0.0
1503103897558627284,1.0,0.0,0.0,0.0,0.0,0.0
1503103897857693925,0.0,-1.0,0.0,0.0,0.0,0.0
1503103897957945070,0.0,-1.0,0.0,0.0,0.0,0.0
1503103898057852233,0.0,-1.0,0.0,0.0,0.0,0.0
1503103898457666348,1.0,0.0,0.0,0.0,0.0,0.0
1503103898557683479,1.0,0.0,0.0,0.0,0.0,0.0
1503103898657687635,1.0,1.0,0.0,0.0,0.0,0.0
1503103898757712643,1.0,1.0,0.0,0.0,0.0,0.0
1503103898867203028,0.00699632644653,-0.0242636311849,0.161028087139,0.1,0.0,-0.126898169518
1503103898914238816,0.0142045084635,-0.0215844039917,0.16113089025,0.1,0.0,-0.128576219082
1503103898955424235,0.0156241836548,-0.0216956075033,0.16234023869,0.1,0.0,-0.126828253269
1503103899257783141,1.0,0.0,0.0,0.0,0.0,0.0
1503103899357786074,1.0,0.0,0.0,0.0,0.0,0.0
1503103899457776779,1.0,0.0,0.0,0.0,0.0,0.0
1503103899857780315,1.0,0.0,0.0,0.0,0.0,0.0
1503103899957837509,1.0,0.0,0.0,0.0,0.0,0.0
1503103900257807047,0.0,-1.0,0.0,0.0,0.0,0.0
1503103900357834414,0.0,-1.0,0.0,0.0,0.0,0.0
1503103900957685995,1.0,0.0,0.0,0.0,0.0,0.0
1503103901557738038,1.0,0.0,0.0,0.0,0.0,0.0
1503103901657844779,1.0,0.0,0.0,0.0,0.0,0.0
1503103901857756304,0.0,-1.0,0.0,0.0,0.0,0.0
1503103902157760046,-1.0,0.0,0.0,0.0,0.0,0.0
1503103902857713777,1.0,0.0,0.0,0.0,0.0,0.0
1503103903057726762,1.0,0.0,0.0,0.0,0.0,0.0
1503103903357779837,0.0,1.0,0.0,0.0,0.0,0.0
1503103903557799040,-1.0,0.0,0.0,0.0,0.0,0.0
1503103903657701004,-1.0,0.0,0.0,0.0,0.0,0.0
1503103904157779868,0.0,1.0,0.0,0.0,0.0,0.0
1503103904257738568,0.0,1.0,0.0,0.0,0.0,0.0
1503103904357912000,0.0,1.0,0.0,0.0,0.0,0.0
1503103904557792798,1.0,0.0,0.0,0.0,0.0,0.0
1503103905457928434,0.0,1.0,0.0,0.0,0.0,0.0
1503103905557837481,0.0,1.0,0.0,0.0,0.0,0.0
1503103906557790289,0.0,-1.0,0.0,0.0,0.0,0.0
1503103907657962574,-1.0,0.0,0.0,0.0,0.0,0.0
1503103907757870679,0.0,1.0,0.0,0.0,0.0,0.0
1503103907857728142,0.0,1.0,0.0,0.0,0.0,0.0
1503103908657858677,-1.0,0.0,0.0,0.0,0.0,0.0
1503103909757939996,1.0,0.0,0.0,0.0,0.0,0.0
1503103910457840341,0.0,-1.0,0.0,0.0,0.0,0.0
1503103910557769478,-1.0,0.0,0.0,0.0,0.0,0.0
1503103910657756905,-1.0,0.0,0.0,0.0,0.0,0.0
1503103911457792407,0.0,-1.0,0.0,0.0,0.0,0.0
1503103911757673323,1.0,0.0,0.0,0.0,0.0,0.0
1503103912257981154,0.0,-1.0,0.0,0.0,0.0,0.0
1503103912357737911,0.0,-1.0,0.0,0.0,0.0,0.0
1503103912457725766,0.0,-1.0,0.0,0.0,0.0,0.0
1503103913257808458,0.0,1.0,0.0,0.0,0.0,0.0
1503103913357703305,0.0,1.0,0.0,0.0,0.0,0.0
1503103913857702806,0.0,-1.0,0.0,0.0,0.0,0.0
1503103913957714726,0.0,-1.0,0.0,0.0,0.0,0.0
1503103914657698848,0.0,1.0,0.0,0.0,0.0,0.0
1503103915151536064,-0.00912107721965,-0.0297049560547,0.149514317513,0.1,0.0,-0.114742547274
1503103915179541354,-0.00839706675212,-0.0271370747884,0.149009421468,0.1,0.0,-0.115379482508
1503103915207435755,-0.00819117101034,-0.0265823669434,0.149195492268,0.1,0.0,-0.115958273411
1503103915257887116,0.0,-1.0,0.0,0.0,0.0,0.0
1503103915377926895,-0.00548708343506,-0.0234116973877,0.147077977657,0.1,0.0,-0.113573610783
1503103915423130167,-0.00512524286906,-0.0230415318807,0.146582707763,0.1,0.0,-0.113801062107
1503103915481198635,-0.00369518470764,-0.0240713628133,0.145153388381,0.1,0.0,-0.113570064306
1503103915525943509,-0.00295549837748,-0.0245579198201,0.150593996048,0.1,0.0,-0.114387154579
1503103915574535806,-0.0010693620046,-0.0273611501058,0.153076320887,0.1,0.0,-0.113635808229
1503103915619117729,-0.000293807983398,-0.0286422526042,0.14961668849,0.1,0.0,-0.112540572882
1503103915661550043,0.000658827463786,-0.0313215357463,0.144712343812,0.1,0.0,-0.111525297165
1503103915709372614,0.00103051503499,-0.0321517359416,0.147516697645,0.1,0.0,-0.108816981316
1503103915770197836,0.00187053807576,-0.0338589324951,0.147567823529,0.1,0.0,-0.107775449753
1503103915814041503,0.00218650372823,-0.0349622599284,0.145504176617,0.1,0.0,-0.106552481651
1503103915856382392,0.0029497051239,-0.0364780629476,0.1459210217,0.1,0.0,-0.105329751968
1503103915905212725,0.00334531974792,-0.037287999471,0.147965908051,0.1,0.0,-0.103823542595
1503103915967243829,0.00446949195862,-0.0390626424154,0.149176999927,0.1,0.0,-0.102975308895
1503103916009393233,0.00462828699748,-0.0393838602702,0.149921879172,0.1,0.0,-0.102355599403
1503103916067959330,0.0049959602356,-0.0407502797445,0.147829696536,0.1,0.0,-0.0984612703323
1503103916098409265,0.00488275973002,-0.0412440083822,0.147571653128,0.1,0.0,-0.0977987647057
1503103916162193749,0.00518428738912,-0.0430614522298,0.145469263196,0.1,0.0,-0.0958846211433
1503103916206740249,0.00563503011068,-0.0439700012207,0.142675608397,0.1,0.0,-0.0942805409431
1503103916265287460,0.00584106826782,-0.0453966166178,0.144888401031,0.1,0.0,-0.0936540365219
1503103916295121313,0.0056159845988,-0.046127146403,0.142998367548,0.1,0.0,-0.0929672122002
1503103916373421549,0.00609975179036,-0.0475702768962,0.143484756351,0.1,0.0,-0.0912455320358
1503103916403039809,0.00617804018656,-0.0482732747396,0.140298843384,0.1,0.0,-0.0899745225906
1503103916471535968,0.00627373059591,-0.0498378753662,0.139319688082,0.1,0.0,-0.0890439748764
1503103916490273935,0.0066342048645,-0.0503671264648,0.13953986764,0.1,0.0,-0.0873670578003
1503103917088469151,0.00443116251628,-0.0589387105306,0.120508402586,0.1,0.0,-0.0659611225128
1503103917137834847,0.00336693954468,-0.0593845011393,0.117121085525,0.1,0.0,-0.062863945961
1503103917168782808,0.00351540311178,-0.0586896514893,0.123296290636,0.1,0.0,-0.0638709068298
1503103917228797853,0.00300774256388,-0.0577808481852,0.124791219831,0.1,0.0,-0.0612890720367
1503103917272809020,0.00267372194926,-0.0587617594401,0.11529096961,0.1,0.0,-0.0608396530151
1503103917335906853,0.0026052309672,-0.0579926350911,0.113851204515,0.1,0.0,-0.0606931447983
1503103917377548166,0.00232442601522,-0.0580341847738,0.113500833511,0.1,0.0,-0.0620414018631
1503103917425506227,0.00148341814677,-0.0566848551432,0.116008266807,0.1,0.0,-0.061604142189
1503103917472162559,0.000906511306763,-0.0564311421712,0.109526008368,0.1,0.0,-0.0592691898346
1503103917531822389,-0.000204652786255,-0.0550735270182,0.113402023911,0.1,0.0,-0.0572449564934
1503103917565040089,-0.000570825576782,-0.055089167277,0.105095952749,0.1,0.0,-0.0593993663788
1503103917621601997,-0.00171206156413,-0.0543947804769,0.106254532933,0.1,0.0,-0.0568611621857
1503103917666214515,-0.00202227210999,-0.0540416107178,0.106483817101,0.1,0.0,-0.0570967793465
1503103917732687191,-0.00329004414876,-0.0525236002604,0.099459990859,0.1,0.0,-0.0552850365639
1503103917758999095,-0.00386428070068,-0.0512190043132,0.105407387018,0.1,0.0,-0.0546845197678
1503103917836806235,-0.00508470535278,-0.0492237141927,0.10578417778,0.1,0.0,-0.0555094480515
1503103917864707782,-0.00649272155762,-0.0492577972412,0.0922405421734,0.1,0.0,-0.0534301996231
1503103917925378627,-0.00759079488118,-0.0470897064209,0.0907993614674,0.1,0.0,-0.0521839261055
1503103917951622296,-0.00832469177246,-0.0454110005697,0.0943866968155,0.1,0.0,-0.05100274086
1503103918013044210,-0.0103734258016,-0.0428875834147,0.0920354872942,0.1,0.0,-0.0488772988319
1503103918047804150,-0.0111408945719,-0.0418121846517,0.090857565403,0.1,0.0,-0.0501109361649
1503103918120925890,-0.0129816792806,-0.0397603581746,0.0811046361923,0.1,0.0,-0.048491358757
1503103918149237524,-0.0144483261108,-0.0380007476807,0.0772028565407,0.1,0.0,-0.0475108027458
1503103918210772210,-0.0163615493774,-0.0338712717692,0.0829892903566,0.1,0.0,-0.0500752925873
1503103918258187075,-0.0183244196574,-0.0335778579712,0.0764672905207,0.1,0.0,-0.0492903888226
1503103918316323460,-0.0201248881022,-0.0298228581746,0.061120249331,0.1,0.0,-0.0490281581879
1503103918345817974,-0.0200682373047,-0.0283687362671,0.0721881315112,0.1,0.0,-0.0519105195999
1503103918408322815,-0.0220149230957,-0.0256715545654,0.062015004456,0.1,0.0,-0.0538137257099
1503103918456809564,-0.0237520090739,-0.023547668457,0.0443953573704,0.1,0.0,-0.0501268282533
1503103918495121149,-0.0258170140584,-0.0193374532064,0.03263451159,0.1,0.0,-0.0456505864859
1503103918561758235,-0.0263729858398,-0.0168306325277,0.0358908697963,0.1,0.0,-0.0497146248817
1503103918601670529,-0.0292807439168,-0.0131889292399,0.0325761511922,0.1,0.0,-0.0447244048119
1503103918632312319,-0.0301870829264,-0.0117735557556,0.029029712081,0.1,0.0,-0.046188518405
1503103918689639015,-0.0313577423096,-0.00783049901326,0.0340490043163,0.1,0.0,-0.0455795526505
1503103918737201234,-0.032292388916,-0.00564485549927,0.0300462245941,0.1,0.0,-0.0445478633046
1503103918796697260,-0.0334139251709,-0.00114896074931,0.0300290286541,0.1,0.0,-0.0481834560633
1503103918829518090,-0.0347330296834,0.00102129046122,0.022488296032,0.1,0.0,-0.0514083057642
1503103918886828060,-0.0373558527629,0.00588036346436,0.0173688232899,0.1,0.0,-0.0501615107059
1503103918929723949,-0.0388680648804,0.00758117993673,0.0146442651749,0.1,0.0,-0.0490294694901
1503103918991433441,-0.0407022298177,0.0110712102254,-0.00269317626953,0.1,0.0,-0.0548937320709
1503103919021896101,-0.0412219543457,0.0147752176921,-0.00395947694778,0.1,0.0,-0.0453553497791
1503103919102379119,-0.0410389709473,0.0190185165405,-0.00398004055023,0.1,0.0,-0.0366394519806
1503103919127889369,-0.0414462178548,0.0211555099487,0.00172233581543,0.1,0.0,-0.0332900285721
1503103919191442060,-0.0404458821615,0.0264658355713,0.0234121084213,0.1,0.0,-0.0192258507013
1503103919216290857,-0.0423783976237,0.028572420756,0.0244833230972,0.1,0.0,-0.0228013247252
1503103919295385200,-0.0427562255859,0.0319387359619,0.0341973304749,0.1,0.0,-0.0192396938801
1503103919328798383,-0.0431797892253,0.0337609354655,0.0528730154037,0.1,0.0,-0.0131875127554
1503103921644633561,-0.0341828715007,0.0979893188477,0.0341793298721,0.1,0.0,0.0256046056747
1503103921676069503,-0.033144144694,0.098672068278,0.0319894552231,0.1,0.0,0.0306998491287
1503103921735633226,-0.02941040802,0.100227071126,0.028341293335,0.1,0.0,0.0316922664642
1503103921765955119,-0.0254754613241,0.101741394043,0.0275653004646,0.1,0.0,0.0362439155579
1503103923391777826,0.0103021373749,0.0992339579264,0.0162502527237,0.1,0.0,0.077637553215
1503103923404173294,0.010048804601,0.0965121663411,0.0130412969738,0.1,0.0,0.0741801261902
1503103923424233348,0.0100829423269,0.0970983784993,0.00524383597076,0.1,0.0,0.0697001218796
1503103923485210886,0.0105415643056,0.0950831298828,0.00853797793388,0.1,0.0,0.06230032444
1503103923513993349,0.0104414450328,0.0936257324219,0.00339813902974,0.1,0.0,0.0583634376526
1503103923589971384,0.0108413798014,0.0903001302083,0.0296647623181,0.1,0.0,0.0938723087311
1503103923622262804,0.0107198549906,0.0900807800293,0.0281438678503,0.1,0.0,0.0931165218353
1503103923732065191,0.0108394724528,0.0886628621419,0.024106040597,0.1,0.0,0.0995483398438
1503103923756986285,0.0108022969564,0.086980875651,0.0330227538943,0.1,0.0,0.098753452301
1503103923821856813,0.00356367683411,0.0854626057943,0.0238192379475,0.1,0.0,0.0726133584976
1503103923847092325,0.00202189127604,0.0845693969727,0.0164546519518,0.1,0.0,0.0706359148026
1503103923924775025,0.000549836476644,0.0833121643066,0.0243590921164,0.1,0.0,0.0714982748032
1503103923956199312,-0.00155311075846,0.0840906982422,0.0108854174614,0.1,0.0,0.0726366043091
1503103924011479453,-0.00381781005859,0.0820404764811,0.00892451405525,0.1,0.0,0.0706927776337
1503103924040490707,-0.00508644549052,0.0806792195638,0.00983646512032,0.1,0.0,0.0719232559204
1503103924121771540,-0.0075210202535,0.0797428080241,0.0269257724285,0.1,0.0,0.0743938684464
1503103924147943246,-0.0088180325826,0.0798996378581,0.0167663991451,0.1,0.0,0.0734935998917
1503103924209025589,-0.0118421198527,0.0789599965413,0.0180506110191,0.1,0.0,0.0783015489578
1503103924237065030,-0.0138138465881,0.0773215535482,0.0146465301514,0.1,0.0,0.0792630910873
1503103924301753006,-0.0173872235616,0.0782821807861,0.00375127792358,0.1,0.0,0.0839697122574
1503103924347194011,-0.0199408543905,0.0765883585612,0.00126022100449,0.1,0.0,0.0848420858383
1503103924410774975,-0.0243671798706,0.0770424092611,-0.000766813755035,0.1,0.0,0.0871433019638
1503103924453698437,-0.0255909805298,0.0767887776693,0.00307524204254,0.1,0.0,0.090894818306
1503103924496168231,-0.0307683741252,0.0755028483073,-0.00971472263336,0.1,0.0,0.0967935323715
1503103924541891693,-0.0341218439738,0.0739336598714,-0.00716686248779,0.1,0.0,0.0990697741508
1503103924599642025,-0.0388426411947,0.0719423014323,0.0012880563736,0.1,0.0,0.102032184601
1503103924647396659,-0.0427656097412,0.0706064097087,0.00627326965332,0.1,0.0,0.105000793934
1503103928957815329,0.0,-1.0,0.0,0.0,0.0,0.0
1503103929057691866,0.0,-1.0,0.0,0.0,0.0,0.0
1503103929357812934,-1.0,0.0,0.0,0.0,0.0,0.0
1503103930457783464,0.0,-1.0,0.0,0.0,0.0,0.0
1503103931457796022,1.0,0.0,0.0,0.0,0.0,0.0
1503103932557729618,-1.0,0.0,0.0,0.0,0.0,0.0
1503103933257805555,1.0,0.0,0.0,0.0,0.0,0.0
1503103933713814865,0.0179814033508,-0.104093851725,0.0343955457211,0.1,0.0,-0.145733833313
1503103933751502164,0.0162570241292,-0.0997598673503,0.0425311326981,0.1,0.0,-0.123801112175
1503103933799523573,0.0122187321981,-0.0931004740397,0.0302799902856,0.1,0.0,-0.0706021785736
1503103933827875847,0.0114122161865,-0.0909635213216,0.0386456698179,0.1,0.0,-0.059344291687
1503103933888254844,0.024232170105,-0.0837039693197,0.0439544320107,0.1,0.0,-0.0916645526886
1503103933918748632,0.0262610346476,-0.080983891805,0.0397145152092,0.1,0.0,-0.0885183811188
1503103934012266715,0.0320567932129,-0.0767107137044,0.022624373436,0.1,0.0,-0.0881445407867
1503103934027791949,0.0318547668457,-0.073889251709,0.0327371060848,0.1,0.0,-0.0857291221619
1503103934086632008,0.0339829737345,-0.0702476755778,0.0316451787949,0.1,0.0,-0.0829707980156
1503103934128722571,0.0353741175334,-0.0679474334717,0.0291437506676,0.1,0.0,-0.0820430517197
1503103934192167965,0.037601348877,-0.065685760498,0.0217263698578,0.1,0.0,-0.0787073969841
1503103934219832852,0.0383827056885,-0.0627509053548,0.028357565403,0.1,0.0,-0.078845500946
1503103934287193673,0.039977297465,-0.0598938598633,0.0163182020187,0.1,0.0,-0.0749409794807
1503103934326475146,0.0423826878866,-0.0585280965169,0.0147553682327,0.1,0.0,-0.0731431245804
1503103934369518262,0.0430398305257,-0.0540717264811,0.0239182114601,0.1,0.0,-0.0658337473869
1503103934412579939,0.045335357666,-0.0529889678955,0.0147036314011,0.1,0.0,-0.0697049498558
1503103934475049115,0.0457761891683,-0.0480332285563,0.0265183448792,0.1,0.0,-0.0626819133759
1503103934520472041,0.0482775472005,-0.0480991923014,0.00681382417679,0.1,0.0,-0.0642467141151
1503103934580143410,0.0479368489583,-0.0439932963053,0.0243643522263,0.1,0.0,-0.0591893494129
1503103934671505003,0.0476998901367,-0.0412942021688,0.0236577987671,0.1,0.0,-0.0577572882175
1503103934702531230,0.0510985514323,-0.0390217285156,0.00227800011635,0.1,0.0,-0.0575834214687
1503103934751678600,0.0538212076823,-0.0389792582194,-0.0179045498371,0.1,0.0,-0.0630376338959
1503103934854840500,0.0509980875651,-0.0361126708984,0.028415709734,0.1,0.0,-0.0515565127134
1503103934867438016,0.0525383961995,-0.0355313771566,0.0179694890976,0.1,0.0,-0.0490211695433
1503103934896196005,0.0555864156087,-0.0345993143717,-0.0165819507092,0.1,0.0,-0.0587286055088
1503103934939285052,0.055715326945,-0.0343994445801,-0.0106968991458,0.1,0.0,-0.0570199042559
1503103935003771433,0.0553620096842,-0.0332364222209,0.00872495770454,0.1,0.0,-0.0477992296219
1503103935052288190,0.0554702453613,-0.0330770772298,0.0133599340916,0.1,0.0,-0.0451908111572
1503103935092782306,0.0582788594564,-0.0335985972087,-0.031179189682,0.1,0.0,-0.0590654909611
1503103935137516918,0.0587937876383,-0.0337541503906,-0.0224812626839,0.1,0.0,-0.0557853281498
1503103935157802503,1.0,0.0,0.0,0.0,0.0,0.0
1503103935289638065,0.0577523040771,-0.0348677622477,0.00524263083935,0.1,0.0,-0.049884468317
1503103935335744063,0.0553600209554,-0.034740910848,0.0124320909381,0.1,0.0,-0.0511501729488
1503103935400870391,0.0562847188314,-0.0348234125773,0.016524553299,0.1,0.0,-0.0585643053055
1503103935427710438,0.0563815714518,-0.0347882588704,0.0248906351626,0.1,0.0,-0.0561659634113
1503103935494510549,0.0593701680501,-0.0352781600952,0.0148797752336,0.1,0.0,-0.0586094260216
1503103935529844570,0.0588439025879,-0.0345271352132,0.0278217289597,0.1,0.0,-0.0607122182846
1503103935629621804,0.0598535054525,-0.035086730957,0.0233315899968,0.1,0.0,-0.0634451508522
1503103935644754347,0.0598596394857,-0.0361326243083,0.028032079339,0.1,0.0,-0.0598253905773
1503103935682499621,0.060578725179,-0.0361058654785,0.0228276699781,0.1,0.0,-0.0657051801682
1503103935712269989,0.0593880106608,-0.0357400309245,0.0290683656931,0.1,0.0,-0.0652353465557
1503103935791336765,0.0593581136068,-0.0372470982869,0.0375008285046,0.1,0.0,-0.0673154592514
1503103935806927341,0.0590422566732,-0.0383706970215,0.0312105417252,0.1,0.0,-0.0658092647791
1503103935877552456,0.0602742513021,-0.0399403025309,0.00931119918823,0.1,0.0,-0.0727337449789
1503103935925349685,0.0578183288574,-0.0395999272664,0.0404488444328,0.1,0.0,-0.0656915158033
1503103935984658234,0.0581819051107,-0.0410699412028,0.0292575955391,0.1,0.0,-0.0690116584301
1503103936027596092,0.0595777791341,-0.0412075678507,0.0233423709869,0.1,0.0,-0.0691958516836
1503103936076380150,0.0586061401367,-0.0428685709635,0.0329358577728,0.1,0.0,-0.0646852701902
1503103936116715090,0.0577092997233,-0.0429488881429,0.0349069237709,0.1,0.0,-0.0645620077848
1503103936179021441,0.0598967590332,-0.0444627380371,0.00847256183624,0.1,0.0,-0.0716309994459
1503103936228321506,0.0586807454427,-0.0448540751139,0.0193551182747,0.1,0.0,-0.0708073526621
1503103936268183643,0.0592461446126,-0.0458893330892,0.0242959856987,0.1,0.0,-0.0688484758139
1503103936297265057,0.0584277954102,-0.0462614949544,0.0304192304611,0.1,0.0,-0.063839122653
1503103936377887114,0.0608646748861,-0.0483286234538,0.0177519917488,0.1,0.0,-0.0677341669798
1503103936404828064,0.0605075734456,-0.0491231028239,0.0390490889549,0.1,0.0,-0.0617567449808
1503103936491438290,0.0610493164062,-0.0517027638753,0.0275351405144,0.1,0.0,-0.0632078647614
1503103936536808799,0.0606541493734,-0.0517646230062,0.0329583287239,0.1,0.0,-0.0631772279739
1503103936570166954,0.0603094431559,-0.0543532409668,0.034309387207,0.1,0.0,-0.0645062625408
1503103936600722289,0.0620455525716,-0.0557869822184,0.0296065807343,0.1,0.0,-0.0664161741734
1503103936660515032,0.0608924458822,-0.0578023783366,0.0268348455429,0.1,0.0,-0.0637712478638
1503103936691997033,0.0618910166423,-0.0584472757975,0.0179698467255,0.1,0.0,-0.0653970837593
1503103936767839373,0.0629356231689,-0.0610519765218,0.0104315280914,0.1,0.0,-0.0668133795261
1503103937381753679,0.0643217569987,-0.0719563751221,0.0207307338715,0.1,0.0,-0.0525094270706
1503103937421198352,0.0654778544108,-0.0731849365234,0.00253009796143,0.1,0.0,-0.051673412323
1503103937444010877,0.0640914916992,-0.0736137135824,-0.0124043226242,0.1,0.0,-0.0521522760391
1503103937475615639,0.061067779541,-0.0709855499268,0.00900638103485,0.1,0.0,-0.0493389964104
1503103937540412551,0.0609170481364,-0.0710666554769,-0.00680720806122,0.1,0.0,-0.0489825606346
1503103937584338301,0.0589463094076,-0.0702001597087,0.00633943080902,0.1,0.0,-0.045944750309
1503103937707380706,0.0574353993734,-0.0705344950358,0.000164151191711,0.1,0.0,-0.0427193641663
1503103937741611968,0.0553707936605,-0.0697337036133,0.00788509845734,0.1,0.0,-0.0416480302811
1503103937752944908,0.0570301615397,-0.069018468221,-0.0126010775566,0.1,0.0,-0.0434971451759
1503103937773798825,0.0540883127848,-0.0672000274658,0.0130564570427,0.1,0.0,-0.0376870632172
1503103937931386187,0.05455418396,-0.0655356140137,-0.00165754556656,0.1,0.0,-0.0376169681549
1503103937944855737,0.0521592407227,-0.0629415181478,-0.0301783084869,0.1,0.0,-0.0387989282608
1503103937970851056,0.0511195983887,-0.0624132995605,-0.0245870947838,0.1,0.0,-0.0373356938362
1503103938031439541,0.0456769714355,-0.0574829101562,0.0123488306999,0.1,0.0,-0.026847422123
1503103938066338376,0.0483128000895,-0.058207804362,-0.0292592048645,0.1,0.0,-0.0313250422478
1503103938123657103,0.0461208648682,-0.0547936808268,-0.0383067727089,0.1,0.0,-0.0314623713493
1503103938152364965,0.0428639119466,-0.0517082316081,-0.00820589065552,0.1,0.0,-0.0271780192852
1503103938228641784,0.0428219604492,-0.0486997172038,-0.0545215010643,0.1,0.0,-0.031910598278
1503103938260471624,0.0388559672038,-0.0447659759521,0.00240117311478,0.1,0.0,-0.0229385793209
1503103938320507028,0.0388524042765,-0.0429329325358,-0.0392026901245,0.1,0.0,-0.0274794697762
1503103938367707109,0.0387158584595,-0.0418946584066,-0.0608965158463,0.1,0.0,-0.027978181839
1503103938428226819,0.0327224451701,-0.0368905105591,-0.0218472480774,0.1,0.0,-0.0227573215961
1503103938470732536,0.032889444987,-0.0361846415202,-0.0307626128197,0.1,0.0,-0.0248533040285
1503103938531584670,0.0285514373779,-0.0318548024495,-0.0152521282434,0.1,0.0,-0.0237756371498
1503103938566835234,0.0302486445109,-0.0307149937948,-0.071310967207,0.1,0.0,-0.0312449783087
1503103938607350180,0.0273345514933,-0.023867767334,-0.0726763308048,0.1,0.0,-0.0271342247725
1503103938649975660,0.0277398834229,-0.0219717559814,-0.0982886776328,0.1,0.0,-0.0317279994488
1503103938711569323,0.0266479568481,-0.0172949829102,-0.108010753989,0.1,0.0,-0.0334721431136
1503103938762974679,0.0260107828776,-0.0150961456299,-0.1177739501,0.1,0.0,-0.0337930768728
1503103938818830357,0.0228009109497,-0.0115583826701,-0.112688273191,0.1,0.0,-0.035248324275
1503103938847427377,0.0209017206828,-0.00867431322734,-0.102638892829,0.1,0.0,-0.0366103947163
1503103938907218753,0.0196988258362,-0.00395318158468,-0.0997483730316,0.1,0.0,-0.0414682328701
1503103938940842338,0.0185289001465,-0.00182610956828,-0.110447779298,0.1,0.0,-0.0433456525207
1503103939015893079,0.0167214698792,0.00201230939229,-0.0991237461567,0.1,0.0,-0.0437172316015
1503103939045638870,0.0152741470337,0.00399378108978,-0.0897555798292,0.1,0.0,-0.0421362891793
1503103939106043797,0.0123855082194,0.00874011230469,-0.0903396755457,0.1,0.0,-0.0448751859367
1503103939152982749,0.0109838460286,0.0101717529297,-0.0936867371202,0.1,0.0,-0.0456010252237
1503103939208746813,0.00845096588135,0.0112612393697,-0.0712517499924,0.1,0.0,-0.0439617335796
1503103939241746001,0.00800626627604,0.0124005063375,-0.069107234478,0.1,0.0,-0.0420617610216
1503103939298423402,0.00780370330811,0.0131775881449,-0.058200314641,0.1,0.0,-0.0395794957876
1503103939344815106,0.00647627512614,0.013884794871,-0.0470067039132,0.1,0.0,-0.0372183918953
1503103939407452121,0.00544027074178,0.0147827072144,-0.0417183935642,0.1,0.0,-0.0346564352512
1503103939433563157,0.00591132481893,0.0139231351217,-0.0277368277311,0.1,0.0,-0.0303126573563
1503103939497374058,0.00644421386719,0.0133266906738,-0.0433719977736,0.1,0.0,-0.0264619290829
1503103939539541879,0.00521778233846,0.0132398363749,-0.0366254299879,0.1,0.0,-0.0254597961903
1503103939603728980,0.00487362035116,0.0115443890889,-0.0169839411974,0.1,0.0,-0.0247175097466
1503103939630705285,0.00521633466085,0.0118579953512,-0.0143136754632,0.1,0.0,-0.0255941972136
1503103939695634578,0.00618266296387,0.00891538874308,-0.0205396562815,0.1,0.0,-0.0218018069863
1503103939722539427,0.00629953130086,0.00705991999308,-0.0229623354971,0.1,0.0,-0.0249443054199
1503103939796478527,0.00654317982992,0.00478696314494,-0.0238862484694,0.1,0.0,-0.017223816365
1503103939834187291,0.00542368253072,0.00265803734461,-0.0256847441196,0.1,0.0,-0.0175036527216
1503103939906659410,0.0055945854187,0.00125771999359,-0.0237927231938,0.1,0.0,-0.0197794381529
1503103939918837468,0.00539636357625,0.000848813056946,-0.0245866905898,0.1,0.0,-0.00894058682024
1503103939995225507,0.00448924891154,-0.000243222872416,-0.0266939252615,0.1,0.0,-0.00851663202047
1503103940028962773,0.00403410816193,-0.00131032888095,-0.0264454782009,0.1,0.0,-0.0144934486598
1503103940086721484,0.00211297384898,-0.00321199544271,-0.0239377617836,0.1,0.0,-0.0179018042982
1503103940114743186,0.00130787976583,-0.00373502826691,-0.0226861257106,0.1,0.0,-0.0168543495238
1503103940193368312,0.000542236765226,-0.00411819076538,-0.023921566084,0.1,0.0,-0.0100200939924
1503103940223542310,-0.000289066096147,-0.00402308781942,-0.0232115760446,0.1,0.0,-0.0104457251728
1503103940281561605,-0.00351083087921,-0.00410416825612,-0.0246639940888,0.1,0.0,-0.00748799368739
1503103940326731326,-0.0040373951594,-0.00447480138143,-0.0229190029204,0.1,0.0,-0.00941219180822
1503103940386189370,-0.0048965511322,-0.00560427093506,-0.02116846852,0.1,0.0,-0.00798107683659
1503103940420873163,-0.00623381360372,-0.00512742233276,-0.0235306750983,0.1,0.0,-0.00645166262984
1503103940484643358,-0.00753652445475,-0.00385519536336,-0.021066064015,0.1,0.0,-0.00500365905464
1503103940508482792,-0.00846642430623,-0.00291036764781,-0.0233481675386,0.1,0.0,-0.00338268466294
1503103940585263590,-0.00879953956604,-0.00281703440348,-0.0202663727105,0.1,0.0,0.00224595144391
1503103940613150068,-0.00875885772705,-0.00173071861267,-0.0225122943521,0.1,0.0,0.00522979348898
1503103940671995283,-0.00901475715637,0.000796484629313,-0.0224956944585,0.1,0.0,0.00388004537672
1503103940719706853,-0.00945973777771,0.00252873627345,-0.0230392292142,0.1,0.0,0.00634608324617
1503103940776463985,-0.00990372594198,0.00597023963928,-0.0232895165682,0.1,0.0,0.01121673733
1503103940807950314,-0.00942532221476,0.00583235677083,-0.0228550732136,0.1,0.0,0.0174856074154
1503103940866690055,-0.010092236201,0.00919875717163,-0.0198340564966,0.1,0.0,0.0211850851774
1503103940917078917,-0.0110091412862,0.0111393140157,-0.0160965770483,0.1,0.0,0.0204735994339
1503103940959266264,-0.0102149912516,0.0136770401001,-0.0101929605007,0.1,0.0,0.0164626836777
1503103941002762233,-0.00996883710225,0.0157802785238,-0.00750139355659,0.1,0.0,0.0198025256395
1503103941065027818,-0.0104980195363,0.0182878748576,-0.000801026821136,0.1,0.0,0.019340634346
1503103941092623171,-0.0104399973551,0.0194605916341,0.0019499361515,0.1,0.0,0.0193748325109
1503103941168870839,-0.0105111853282,0.0218155593872,0.0111612677574,0.1,0.0,0.0271065533161
1503103941197985185,-0.0110282592773,0.0229734268188,0.0122386813164,0.1,0.0,0.0258656144142
1503103941259400261,-0.0118711115519,0.0257909037272,0.015770316124,0.1,0.0,0.0247610807419
1503103941291203030,-0.0110942420959,0.0275332438151,0.0196452736855,0.1,0.0,0.0289774537086
1503103941368635442,-0.0135576705933,0.0289343159993,0.0157621204853,0.1,0.0,0.0243952274323
1503103941395397028,-0.0136543960571,0.0308603922526,0.0177092850208,0.1,0.0,0.024260699749
1503103941456464993,-0.0144109725952,0.0327840525309,0.0195805430412,0.1,0.0,0.0285179316998
1503103941484964975,-0.0152873280843,0.0331166992187,0.0171285271645,0.1,0.0,0.0294345915318
1503103941546224081,-0.0166085383097,0.0334270121257,0.0242203474045,0.1,0.0,0.0314634740353
1503103941590530099,-0.0187303975423,0.0342786763509,-0.00045907497406,0.1,0.0,0.0267249047756
1503103941652548609,-0.0208505503337,0.0345043284098,-0.00465857982635,0.1,0.0,0.0282623171806
1503103941682293488,-0.0207990519206,0.0336946919759,0.023410320282,0.1,0.0,0.0301122665405
1503103941756126945,-0.0232930196126,0.0345877278646,-0.00858891010284,0.1,0.0,0.0254796743393
1503103941785283199,-0.0250049260457,0.03492821757,-0.0168216824532,0.1,0.0,0.0257661640644
1503103941847374776,-0.026163482666,0.0351299285889,0.01596814394,0.1,0.0,0.0318802595139
1503103941876147608,-0.0290771764119,0.0367478434245,-0.00536227226257,0.1,0.0,0.0282829403877
1503103941951706855,-0.0328384017944,0.0380739542643,-0.00311970710754,0.1,0.0,0.0320100039244
1503103941982861303,-0.0347846272786,0.0390941263835,-0.00488376617432,0.1,0.0,0.0315144658089
1503103942045904431,-0.0407116546631,0.0374123051961,-0.0284813642502,0.1,0.0,0.0269533395767
1503103942089786229,-0.0429059702555,0.0377653401693,-0.029344201088,0.1,0.0,0.0261449068785
1503103942133235850,-0.0481227416992,0.0357601394653,-0.0471549034119,0.1,0.0,0.019951865077
1503103942181753138,-0.0495311075846,0.0353559214274,-0.0447157621384,0.1,0.0,0.0281152874231
1503103942223831167,-0.0546884155273,0.0318902918498,-0.0556560754776,0.1,0.0,0.0164533257484
1503103942267896317,-0.0570048166911,0.0300130513509,-0.0594127178192,0.1,0.0,0.0138827562332
1503103945757827408,0.0,-1.0,0.0,0.0,0.0,0.0
1503103945857816212,0.0,-1.0,0.0,0.0,0.0,0.0
1503103947157743214,0.0,1.0,0.0,0.0,0.0,0.0
1503103947712946784,0.0300150349935,-0.0715668996175,0.126352146268,0.1,0.0,-0.12658905983
1503103947728420466,0.0314506072998,-0.063888285319,0.130613863468,0.1,0.0,-0.122778534889
1503103947759089007,0.0335117848714,-0.0612264506022,0.121302336454,0.1,0.0,-0.124938249588
1503103947822832038,0.0344874801636,-0.0539593861898,0.136524409056,0.1,0.0,-0.121134459972
1503103947850102368,0.0363784077962,-0.0521422068278,0.117922514677,0.1,0.0,-0.122042477131
1503103947909980744,0.037974899292,-0.0455775960286,0.122554659843,0.1,0.0,-0.120061159134
1503103947958132199,0.0399840596517,-0.0427522277832,0.112421989441,0.1,0.0,-0.119819223881
1503103948017908607,0.0424211858114,-0.0392643941243,0.111621201038,0.1,0.0,-0.115120768547
1503103948045488949,0.0445288543701,-0.0372989603678,0.113914966583,0.1,0.0,-0.114951223135
1503103948106114178,0.0471371154785,-0.034276201884,0.120788514614,0.1,0.0,-0.11040404439
1503103948138437614,0.0485530293783,-0.0338430074056,0.116237163544,0.1,0.0,-0.107658952475
1503103950989288817,0.055978418986,-0.0643052419027,-0.0359915196896,0.1,0.0,0.0557936877012
1503103951030312691,0.0481576690674,-0.0618279418945,-0.0119481980801,0.1,0.0,0.068129658699
1503103951048672472,0.0494462738037,-0.0625546722412,-0.0328492224216,0.1,0.0,0.0640304684639
1503103951104592266,0.0436836344401,-0.0620805358887,-0.0427849292755,0.1,0.0,0.0801160931587
1503103951140770143,0.0421710586548,-0.0606889902751,-0.0329194664955,0.1,0.0,0.0789321213961
1503103951215292125,0.0381172968547,-0.0589774475098,-0.043963432312,0.1,0.0,0.079061627388
1503103951432844420,0.0356096420288,-0.0578814493815,-0.057119846344,0.1,0.0,0.0798193514347
1503103951665626803,0.0301985321045,-0.0548668416341,-0.0525343716145,0.1,0.0,0.0790331959724
1503103951693436613,0.0301706034342,-0.0471964518229,-0.0597503185272,0.1,0.0,0.0832725465298
1503103951707334485,0.0216624806722,-0.0453351338704,-0.0620733052492,0.1,0.0,0.0842392444611
1503103951728618678,0.0150196749369,-0.0446403503418,-0.0713383704424,0.1,0.0,0.0803203880787
1503103951744846403,-0.00148315413793,-0.0371748555501,-0.0729148611426,0.1,0.0,0.0718059539795
1503103951779810542,-0.00224690469106,-0.0346761906942,-0.0740139707923,0.1,0.0,0.0692770779133
1503103951829164222,-0.00745551363627,-0.030243077596,-0.0679737553,0.1,0.0,0.0719565153122
1503103951857892540,-0.00932514063517,-0.0270177764893,-0.0682687163353,0.1,0.0,0.0679624378681
1503103951927281010,-0.0151428667704,-0.0220200780233,-0.0737420395017,0.1,0.0,0.0637677311897
1503103951964280471,-0.0167912597656,-0.0198674201965,-0.0880363285542,0.1,0.0,0.0593429803848
1503103952029774461,-0.0231061909993,-0.0153041852315,-0.105192147195,0.1,0.0,0.0566890537739
1503103952055557919,-0.0260599339803,-0.00996912002563,-0.125119179487,0.1,0.0,0.0626556873322
1503103952116929563,-0.0317021865845,-0.000786540985107,-0.108820423484,0.1,0.0,0.0682496875525
1503103952162647941,-0.0333859532674,0.00352806345622,-0.103221744299,0.1,0.0,0.0708961859345
1503103952229821949,-0.0376300506592,0.0124891929626,-0.107958495617,0.1,0.0,0.0605856776237
1503103952255678194,-0.0401062367757,0.0173340199788,-0.113970994949,0.1,0.0,0.0604566037655
1503103952313783696,-0.0445143534342,0.0247539265951,-0.12362331152,0.1,0.0,0.058829754591
1503103952357724197,-0.0471559855143,0.0279584147135,-0.126161396503,0.1,0.0,0.0602130293846
1503103952403227387,-0.0491223602295,0.0363551762899,-0.117671132088,0.1,0.0,0.0643359720707
1503103952464195772,-0.0504206899007,0.0397000249227,-0.109165549278,0.1,0.0,0.0669394433498
1503103952507345402,-0.0542538045247,0.0455861612956,-0.0938816070557,0.1,0.0,0.05330529809
1503103952541852659,-0.0551641235352,0.0492971089681,-0.0775954723358,0.1,0.0,0.0609638392925
1503103952595328764,-0.0580069681803,0.0558852996826,-0.0652978420258,0.1,0.0,0.0578948259354
1503103952648822741,-0.0602942403158,0.0590133666992,-0.0630810260773,0.1,0.0,0.0567542761564
1503103952703387921,-0.063427541097,0.0652031860352,-0.0590171813965,0.1,0.0,0.0544031411409
1503103957157802633,0.0,-1.0,0.0,0.0,0.0,0.0
1503103958457817283,0.0,1.0,0.0,0.0,0.0,0.0
1503103958873186815,-0.0421312001546,-0.0499147491455,0.0779820084572,0.1,0.0,-0.0331186801195
1503103958898998215,-0.0402316716512,-0.041406094869,0.0761023461819,0.1,0.0,-0.0323834121227
1503103958946785002,-0.0394251963298,-0.0379768753052,0.0664805546403,0.1,0.0,-0.034331291914
1503103958989638051,-0.0383642272949,-0.0295527877808,0.0495119988918,0.1,0.0,-0.0323993712664
1503103959034440563,-0.0387705815633,-0.0249270451864,0.0386134088039,0.1,0.0,-0.0245778858662
1503103959095596443,-0.0377174784342,-0.0173635953267,0.0261992663145,0.1,0.0,-0.0159297585487
1503103959126360200,-0.0371446787516,-0.0161055399577,0.022630058229,0.1,0.0,-0.0220620632172
1503103959186283375,-0.0362344665527,-0.00976961644491,0.0258045196533,0.1,0.0,-0.0174391567707
1503103959230445940,-0.0360098317464,-0.00732117080688,0.0242447555065,0.1,0.0,-0.0212111920118
1503103959294571411,-0.0353422698975,-0.00315400568644,0.0238647162914,0.1,0.0,-0.026042342186
1503103959323575407,-0.0355291646322,-0.00124893188477,0.0237345993519,0.1,0.0,-0.0289103612304
1503103959384424299,-0.0356463699341,0.00230853970846,0.0267340242863,0.1,0.0,-0.0279086977243
1503103959426915003,-0.0368078511556,0.00426788711548,0.0177624225616,0.1,0.0,-0.0283667296171
1503103959488990526,-0.0368170674642,0.00758620516459,0.017405718565,0.1,0.0,-0.0322196483612
1503103959518430185,-0.0376612167358,0.00919483184814,0.0138102769852,0.1,0.0,-0.034874022007
1503103959577854084,-0.0402930475871,0.0126767425537,0.00755405426025,0.1,0.0,-0.0354248285294
1503103959625682893,-0.0416008453369,0.0146780802409,0.000757813453674,0.1,0.0,-0.0384092032909
1503103959685954797,-0.0432575429281,0.0173148498535,0.00125396251678,0.1,0.0,-0.0359063446522
1503103959711710659,-0.0455004730225,0.0187781715393,-0.00437581539154,0.1,0.0,-0.038972735405
1503103959774720730,-0.0472817433675,0.0207965812683,0.00402963161469,0.1,0.0,-0.0342810750008
1503103960857853970,-1.0,0.0,0.0,0.0,0.0,0.0
1503103960957789349,-1.0,0.0,0.0,0.0,0.0,0.0
1503103962057940802,1.0,0.0,0.0,0.0,0.0,0.0
1503103962157749475,1.0,0.0,0.0,0.0,0.0,0.0
1503103963257922538,0.0,1.0,0.0,0.0,0.0,0.0
1503103963957893719,0.0,-1.0,0.0,0.0,0.0,0.0
1503103965457699501,-1.0,0.0,0.0,0.0,0.0,0.0
1503103965957835589,0.0,1.0,0.0,0.0,0.0,0.0
1503103966057812313,0.0,1.0,0.0,0.0,0.0,0.0
1503103966157824502,0.0,1.0,0.0,0.0,0.0,0.0
1503103967557792760,0.0,-1.0,0.0,0.0,0.0,0.0
1503103968157724555,0.0,1.0,0.0,0.0,0.0,0.0
1503103968257766481,0.0,1.0,0.0,0.0,0.0,0.0
1503103968357718623,0.0,1.0,0.0,0.0,0.0,0.0
1503103968957857139,1.0,0.0,0.0,0.0,0.0,0.0
1503103969257716056,0.0,-1.0,0.0,0.0,0.0,0.0
1503103969757702626,1.0,0.0,0.0,0.0,0.0,0.0
1503103971557784056,-1.0,0.0,0.0,0.0,0.0,0.0
1503103972014026508,0.035712310791,0.0644036305745,0.0780351161957,0.1,0.0,-0.0555655360222
1503103972027294756,0.0321717427572,0.0642242635091,0.0808036327362,0.1,0.0,-0.0554945468903
1503103972110684251,0.0264899902344,0.063474822998,0.0778599977493,0.1,0.0,-0.0542013645172
1503103972134884353,0.0236441599528,0.0629238586426,0.0792257785797,0.1,0.0,-0.0520133972168
1503103972199686988,0.018224164327,0.0630113016764,0.0689861178398,0.1,0.0,-0.0522099733353
1503103972225454816,0.0160633951823,0.0626671447754,0.0687336325645,0.1,0.0,-0.0476743578911
1503103972304553997,0.0127657928467,0.0629405771891,0.0624074339867,0.1,0.0,-0.0439583063126
1503103972329903035,0.0119512863159,0.0623335215251,0.0664911270142,0.1,0.0,-0.0431199669838
1503103972396150990,0.0103563181559,0.0610165100098,0.0603473782539,0.1,0.0,-0.0392739772797
1503103972434435592,0.00824128214518,0.0608656005859,0.0622176826,0.1,0.0,-0.043274641037
1503103972484284662,0.00694222513835,0.0588884735107,0.0651635229588,0.1,0.0,-0.0364859700203
1503103972529139320,0.00607053629557,0.0595523376465,0.061273932457,0.1,0.0,-0.034542620182
1503103972589904861,0.00474190266927,0.0575527852376,0.0657759904861,0.1,0.0,-0.033409178257
1503103972637100029,0.00345339012146,0.0568659413656,0.06433609128,0.1,0.0,-0.0317004919052
1503103972697058285,0.00270310910543,0.0558313140869,0.0621386915445,0.1,0.0,-0.0278007388115
1503103972726283135,0.00248392804464,0.0551451975505,0.0599412024021,0.1,0.0,-0.0265631079674
1503103972787710392,0.00117431354523,0.0516038869222,0.0790132433176,0.1,0.0,-0.0236767530441
1503103972830168805,0.000895293394725,0.052401957194,0.0647031217813,0.1,0.0,-0.0223739147186
1503103972891520343,0.000213686784108,0.0494374898275,0.0755039155483,0.1,0.0,-0.0186424255371
1503103972921716455,0.000530229409536,0.0499876454671,0.062951862812,0.1,0.0,-0.017956495285
1503103972981215075,-0.00099692384402,0.0479802144368,0.0696553140879,0.1,0.0,-0.0103810429573
1503103973010903048,-0.00239681371053,0.0472744344076,0.0644531324506,0.1,0.0,-0.014571428299
1503103973087382542,-0.00360328610738,0.0456941172282,0.0693393945694,0.1,0.0,-0.00900536775589
1503103973134616663,-0.00449965604146,0.0453652191162,0.0667821466923,0.1,0.0,-0.00744092464447
1503103973177886969,-0.00687622133891,0.0431356201172,0.0632360577583,0.1,0.0,-0.0100827217102
1503103973208641998,-0.00724625269572,0.0429964650472,0.0619583576918,0.1,0.0,-0.008660197258
1503103973283115274,-0.00810754966736,0.0419247792562,0.0604254901409,0.1,0.0,-0.00448435544968
1503103973314497513,-0.00899400075277,0.0411567662557,0.0585266053677,0.1,0.0,-0.0040534734726
1503103973371619379,-0.0109166361491,0.0402239074707,0.0599649548531,0.1,0.0,-0.00555729866028
1503103973404208261,-0.010623931249,0.040093846639,0.0594294667244,0.1,0.0,-0.00246566534042
1503103973481836996,-0.01207665507,0.0382780303955,0.0594499111176,0.1,0.0,-0.000299334526062
1503103973511296264,-0.0133185361226,0.0383362833659,0.0559016764164,0.1,0.0,0.00249642133713
1503103973570856132,-0.0128013737996,0.0380789769491,0.0622310638428,0.1,0.0,0.00463998317719
1503103973598443387,-0.0129840138753,0.0371020711263,0.0479778051376,0.1,0.0,0.00744652748108
1503103973675608451,-0.0123386866252,0.0365916646322,0.0555855035782,0.1,0.0,0.00960338115692
1503103973704234974,-0.0124497095744,0.0375148925781,0.0402334928513,0.1,0.0,0.0122582316399
1503103973765657631,-0.0121987520854,0.037179977417,0.0532934963703,0.1,0.0,0.0178607106209
1503103973794181655,-0.011865099589,0.0381148579915,0.0340015888214,0.1,0.0,0.0181213617325
1503103973878003446,-0.010619986852,0.0367439397176,0.0550838708878,0.1,0.0,0.0231203436852
1503103973945723442,-0.0106096083323,0.0363945566813,0.0439001619816,0.1,0.0,0.0256431698799
1503103973989384296,-0.0116558736165,0.0352260691325,0.0272561311722,0.1,0.0,0.0246425867081
1503103974033751649,-0.0111083704631,0.035961924235,0.024217069149,0.1,0.0,0.0290066599846
1503103974110857089,-0.0107526194255,0.0343571751912,0.0356905162334,0.1,0.0,0.0288351774216
1503103974126790936,-0.00998492304484,0.0346592458089,0.0366042554379,0.1,0.0,0.0301833748817
1503103974189021800,-0.00904124832153,0.035026280721,0.038763910532,0.1,0.0,0.0319786369801
1503103974216197596,-0.00900776926676,0.0361377766927,0.0304375290871,0.1,0.0,0.0339156389236
1503103974293850150,-0.00854088656108,0.0375913187663,0.0406234264374,0.1,0.0,0.0384821891785
1503103974323360093,-0.00911916351318,0.0370018870036,0.0397191345692,0.1,0.0,0.0417906045914
1503103974382388987,-0.00903909556071,0.0382652893066,0.0322205424309,0.1,0.0,0.0440302491188
1503103974425815176,-0.00916392771403,0.0372541020711,0.0314584076405,0.1,0.0,0.04626506567
1503103974488648899,-0.00960740661621,0.0377235310872,0.0294367671013,0.1,0.0,0.0459817647934
1503103974524460390,-0.00935947736104,0.0385987625122,0.0330826342106,0.1,0.0,0.0473846197128
1503103974580840825,-0.0100653057098,0.0386633046468,0.0313049256802,0.1,0.0,0.0515601038933
1503103974626354212,-0.010847026825,0.0387222239176,0.0314439535141,0.1,0.0,0.052961140871
1503103974666794661,-0.0112447039286,0.0381885172526,0.0173614025116,0.1,0.0,0.0515432953835
1503103974716503526,-0.0125818316142,0.0365149180094,0.0208203792572,0.1,0.0,0.0516759753227
1503103974773182605,-0.0122336514791,0.0364450302124,0.0248696208,0.1,0.0,0.0569145083427
1503103974803356963,-0.0140300839742,0.0359471435547,0.0167353749275,0.1,0.0,0.0565240383148
1503103974864178635,-0.015666982015,0.0350330174764,0.0107310414314,0.1,0.0,0.0578942000866
1503103974910622645,-0.0157822964986,0.0340878855387,0.0213438868523,0.1,0.0,0.0611073970795
1503103974968756227,-0.0172242762248,0.0330240478516,0.0186109542847,0.1,0.0,0.0638312101364
1503103974996962404,-0.0188825327555,0.0329611053467,0.0158532261848,0.1,0.0,0.0652028024197
1503103975075045287,-0.0195081164042,0.0315422185262,0.0221829414368,0.1,0.0,0.0699680447578
1503103975105176248,-0.021610013326,0.0322042134603,0.0110812187195,0.1,0.0,0.0703525841236
1503103975166409552,-0.0250384699504,0.0336376317342,-0.00841867923737,0.1,0.0,0.0651489645243
1503103975193813685,-0.0248152313232,0.0329363708496,0.0122407078743,0.1,0.0,0.0709281265736
1503103975271255646,-0.0258918584188,0.0327024078369,0.0150739550591,0.1,0.0,0.0735448002815
1503103975302673324,-0.0282079823812,0.0329799092611,0.00915342569351,0.1,0.0,0.070469468832
1503103975378447263,-0.0312405115763,0.0328359578451,0.00746214389801,0.1,0.0,0.0709706395864
1503103975389776732,-0.0330148111979,0.0333707631429,0.00154626369476,0.1,0.0,0.0727684646845
1503103975452866869,-0.0371551055908,0.0335065638224,-0.00447082519531,0.1,0.0,0.0679875612259
1503103975498481467,-0.0391887868245,0.0332354863485,-0.0128738880157,0.1,0.0,0.0668512880802
1503103975559522645,-0.0413566996257,0.0339699198405,-0.0215097665787,0.1,0.0,0.0602979958057
1503103975586984627,-0.0427994740804,0.0351194941203,-0.0283424854279,0.1,0.0,0.0591422766447
1503103975667453813,-0.0426489359538,0.0363306808472,-0.00115263462067,0.1,0.0,0.0669373720884
1503103975693979098,-0.0466819610596,0.037728940328,-0.0289005041122,0.1,0.0,0.0577983111143
1503103980157819560,0.0,-1.0,0.0,0.0,0.0,0.0
1503103980857906000,-1.0,0.0,0.0,0.0,0.0,0.0
1503103980957850585,-1.0,0.0,0.0,0.0,0.0,0.0
1503103981057749766,-1.0,0.0,0.0,0.0,0.0,0.0
1503103981357841502,0.0,1.0,0.0,0.0,0.0,0.0
1503103981957646669,0.0,-1.0,0.0,0.0,0.0,0.0
1503103982543256662,-0.0471115722656,0.0109489415487,0.00776624679565,0.1,0.0,-0.152539968491
1503103982554656188,-0.0410143330892,0.0145964431763,0.0751423835754,0.1,0.0,-0.132109940052
1503103982570596049,-0.0399101359049,0.013961730957,0.0531222820282,0.1,0.0,-0.131845325232
1503103982635323889,-0.0357990010579,0.0127558708191,0.0609709024429,0.1,0.0,-0.123222887516
1503103982678736231,-0.0345584106445,0.0112861531576,0.0489461421967,0.1,0.0,-0.131008267403
1503103982737890520,-0.0317702687581,0.00882025655111,0.0241466760635,0.1,0.0,-0.137288451195
1503103982781948623,-0.0297890701294,0.00835829353333,0.021223962307,0.1,0.0,-0.131580069661
1503103982826962803,-0.026506942749,0.0104998391469,0.041675567627,0.1,0.0,-0.122471734881
1503103982855877951,-0.0256404215495,0.0115355008443,0.035192668438,0.1,0.0,-0.122913300991
1503103982932112679,-0.0216546910604,0.0137023862203,0.0538449883461,0.1,0.0,-0.115745127201
1503103982960382534,-0.0214957784017,0.0150835812887,0.0418767333031,0.1,0.0,-0.118600197136
1503103983021733468,-0.01998889033,0.018422203064,0.0484245419502,0.1,0.0,-0.112677663565
1503103983066868727,-0.0185029525757,0.019306842804,0.0488921999931,0.1,0.0,-0.108328431845
1503103983130248622,-0.0165015678406,0.0207473932902,0.0498384237289,0.1,0.0,-0.106916442513
1503103983154513797,-0.0154354324341,0.0224465662638,0.0501306056976,0.1,0.0,-0.103106945753
1503103983217778913,-0.0126271603902,0.0247244720459,0.0444290339947,0.1,0.0,-0.0987358391285
1503103983263033237,-0.0114475529989,0.0260907541911,0.0430581271648,0.1,0.0,-0.0946375727654
1503103983325661956,-0.00943392944336,0.0282435760498,0.0441505461931,0.1,0.0,-0.092048317194
1503103983352190077,-0.0086872437795,0.0292247161865,0.0410964936018,0.1,0.0,-0.0893098115921
1503103983414734598,-0.00468928686778,0.0319571914673,0.052737519145,0.1,0.0,-0.0865769684315
1503103983461180918,-0.00387333615621,0.0328555323283,0.057605843991,0.1,0.0,-0.0801854431629
1503103983517840760,-0.00205502319336,0.0365011622111,0.0566366128623,0.1,0.0,-0.0785648822784
1503103983547451456,-0.00142566283544,0.0396275558472,0.0406950414181,0.1,0.0,-0.0750485658646
1503103983610044127,0.00217090098063,0.0422011947632,0.0407866239548,0.1,0.0,-0.0725247859955
1503103983655254692,0.00335259628296,0.0438266906738,0.0435470044613,0.1,0.0,-0.0697559714317
1503103983697910557,0.00650532023112,0.0465931345622,0.0422673523426,0.1,0.0,-0.0657048821449
1503103983749390359,0.00765854899089,0.0471707712809,0.0519087016582,0.1,0.0,-0.0634281635284
1503103983806251022,0.0115368690491,0.0488541666667,0.0557795763016,0.1,0.0,-0.0612852573395
1503103983835914689,0.0136762580872,0.0506672770182,0.0339183211327,0.1,0.0,-0.0577796697617
1503103983896875251,0.0161317062378,0.0503778076172,0.0569270849228,0.1,0.0,-0.0564153790474
1503103983971253323,0.0195794652303,0.0530659586589,0.0399348735809,0.1,0.0,-0.0552332401276
1503103984014980332,0.0224034322103,0.0513250325521,0.0465880632401,0.1,0.0,-0.0548767447472
1503103984029258047,0.0243848571777,0.0506918538411,0.0464918613434,0.1,0.0,-0.0537983775139
1503103984093864942,0.0278357340495,0.0510442911784,0.0310884714127,0.1,0.0,-0.0515915155411
1503103984135448106,0.0284242706299,0.0502669423421,0.0379127264023,0.1,0.0,-0.0531387329102
1503103984212308787,0.0318854675293,0.0499427947998,0.0443774461746,0.1,0.0,-0.0504744946957
1503103984226382541,0.0334629109701,0.0494118499756,0.036181807518,0.1,0.0,-0.0491255223751
1503103984305728032,0.0354380493164,0.0476471761068,0.0489594936371,0.1,0.0,-0.0479280352592
1503103984334240102,0.0361955668132,0.0461370798747,0.0588414669037,0.1,0.0,-0.0505079329014
1503103984392618877,0.0405248209635,0.043697382609,0.035630941391,0.1,0.0,-0.0461495816708
1503103984425853112,0.0424428100586,0.0425700963338,0.0330733060837,0.1,0.0,-0.0458536148071
1503103984482387286,0.0454665018717,0.0402718582153,0.0166754722595,0.1,0.0,-0.0434559136629
1503103984543290396,0.0465505167643,0.0386924997965,0.0325554609299,0.1,0.0,-0.0439924448729
1503103985792306396,0.0434565633138,0.0156880060832,0.0132986307144,0.1,0.0,-0.00247043371201
1503103985805168269,0.042311147054,0.0159909922282,0.0156238675117,0.1,0.0,-0.000810176134109
1503103985853137898,0.0401313985189,0.0154882965088,0.0101555287838,0.1,0.0,-0.00257688760757
1503103985906279647,0.0390518213908,0.0154199689229,0.0154024809599,0.1,0.0,-0.000776827335358
1503103985959545259,0.0376602325439,0.0152162704468,0.0132901668549,0.1,0.0,0.00146409869194
1503103985989447639,0.0368014246623,0.0154140726725,0.00940823554993,0.1,0.0,-0.000334113836288
1503103986053872488,0.0357486979167,0.0146806564331,0.0109947323799,0.1,0.0,0.00260517001152
1503103986093395993,0.0351115849813,0.0144882074992,0.0114133507013,0.1,0.0,0.00287127494812
1503103986155371233,0.0336040420532,0.0126613222758,0.00898014008999,0.1,0.0,0.00454899668694
1503103986186516016,0.0328016942342,0.0120248756409,0.0116196274757,0.1,0.0,0.00208625197411
1503103986248935476,0.0301571960449,0.00976536178589,0.0168220102787,0.1,0.0,0.00363786518574
1503103986298173082,0.0286549784342,0.00902699915568,0.0142049789429,0.1,0.0,0.00327970087528
1503103986357919713,0.0241784922282,0.00669510777791,0.0176388919353,0.1,0.0,0.00281932204962
1503103986386605657,0.0242833735148,0.00542961438497,0.0195336192846,0.1,0.0,0.0038595199585
1503103986445757210,0.0234330647786,0.00333675193787,0.0222333371639,0.1,0.0,0.00296814739704
1503103986486826244,0.0225837402344,0.00188282839457,0.0223602205515,0.1,0.0,0.00310448557138
1503103986553595983,0.0222402699788,-0.00139441808065,0.0195702463388,0.1,0.0,0.00366251543164
1503103986578849837,0.0224833374023,-0.00254910914103,0.0186896324158,0.1,0.0,0.00334782898426
1503103986637756242,0.0221876754761,-0.00538495254517,0.00636823475361,0.1,0.0,0.00476358830929
1503103986666926854,0.0217790374756,-0.00717701975505,0.00374004244804,0.1,0.0,0.00539247691631
1503103986748464741,0.021169321696,-0.010738436381,0.000788740813732,0.1,0.0,0.00743987411261
1503103986774935233,0.0212498842875,-0.0121307398478,0.00458349660039,0.1,0.0,0.00756447762251
1503103986834200864,0.0206094182332,-0.0153493601481,0.0101055894047,0.1,0.0,0.012446552515
1503103986883399977,0.0189614308675,-0.0163771591187,0.0217311177403,0.1,0.0,0.0165427178144
1503103986940448935,0.0189542338053,-0.019519791921,0.0185870714486,0.1,0.0,0.0155766755342
1503103986973541732,0.0192309443156,-0.0212114486694,0.0179685801268,0.1,0.0,0.0151523947716
1503103987032499929,0.0170856348674,-0.0278503595988,0.0356072857976,0.1,0.0,0.0154402554035
1503103987065157162,0.0176166877747,-0.0298330713908,0.0236621946096,0.1,0.0,0.00933706760406
1503103987142875231,0.0156555302938,-0.0338693974813,0.0473386198282,0.1,0.0,0.0126161575317
1503103987168187408,0.0160212059021,-0.036302037557,0.0283986479044,0.1,0.0,0.00663840770721
1503103987228159016,0.0144179331462,-0.0398587341309,0.0366447865963,0.1,0.0,0.00685036182404
1503103987255296497,0.0134412167867,-0.0420673446655,0.0379642248154,0.1,0.0,0.00697004795074
1503103987338662075,0.0105815893809,-0.0462122243245,0.0309910774231,0.1,0.0,0.00252085924149
1503103987366132153,0.00922238922119,-0.0478617045085,0.0360994189978,0.1,0.0,0.00192070007324
1503103987425241001,0.00703220939636,-0.0523307596842,0.0327828153968,0.1,0.0,-0.00118261575699
1503103987459134929,0.00561138216654,-0.0545161590576,0.0228256285191,0.1,0.0,-0.00594258308411
1503103987533291448,0.00356828212738,-0.0598098347982,0.0104914493859,0.1,0.0,-0.0108641386032
1503103987564590103,0.000602694431941,-0.0600791269938,0.0160138364881,0.1,0.0,-0.000250220298767
1503103987628748210,0.0017375087738,-0.0624365183512,0.014643847011,0.1,0.0,-0.0230983495712
1503103987668725612,-0.000772348403931,-0.0642075449626,0.0119947642088,0.1,0.0,-0.0209214091301
1503103987709015081,-0.00321626122793,-0.0653515675863,0.0184015631676,0.1,0.0,-0.0244777202606
1503103987759628143,-0.00510171127319,-0.066593963623,0.00999796390533,0.1,0.0,-0.02576816082
1503103987815545734,-0.00806010055542,-0.0668292032878,0.0235524475574,0.1,0.0,-0.0280057787895
1503103987863552334,-0.00989060846965,-0.0683024495443,0.0197055637836,0.1,0.0,-0.0282695293427
1503103987908487163,-0.0138321673075,-0.070062810262,0.0165659189224,0.1,0.0,-0.0318751335144
1503103987952443213,-0.0151839561462,-0.070824625651,0.0206249654293,0.1,0.0,-0.0350431203842
1503103988015855443,-0.0199226404826,-0.0712278849284,0.0340056717396,0.1,0.0,-0.0374211668968
1503103988064770218,-0.0226401672363,-0.0726367543538,0.0227847695351,0.1,0.0,-0.0381436347961
1503103988104751753,-0.0287218373617,-0.0748792470296,0.0142023563385,0.1,0.0,-0.0422652959824
1503103988148842900,-0.0318810424805,-0.0753414306641,0.00887161493301,0.1,0.0,-0.0448436141014
1503103988209185538,-0.0360540364583,-0.0737796223958,0.0339089035988,0.1,0.0,-0.0454540848732
1503103988242735429,-0.0406554972331,-0.0778041992187,0.00561273097992,0.1,0.0,-0.0478522777557
1503103988317088857,-0.0452393188477,-0.0785201721191,0.0107798576355,0.1,0.0,-0.0508435964584
1503103988348974121,-0.045150197347,-0.0770531616211,0.0333679914474,0.1,0.0,-0.0529773831367
1503103988407441484,-0.051547648112,-0.0806185506185,0.0224446058273,0.1,0.0,-0.0570054650307
1503103992504417450,-0.05916112264,0.0013901201884,-0.0506165623665,0.1,0.0,-0.00527625530958
1503103992525742333,-0.0577342325846,0.00374127451579,-0.0505713820457,0.1,0.0,-0.00743654370308
1503103992583987836,-0.0547193145752,0.00663136545817,-0.0474437475204,0.1,0.0,-0.0132261514664
1503103992606678883,-0.0539994354248,0.0085437335968,-0.056127846241,0.1,0.0,-0.0131040811539
1503103992671207564,-0.0521671854655,0.0127567672729,-0.0559373497963,0.1,0.0,-0.0197307765484
1503103992715574124,-0.0508426005046,0.0150296605428,-0.0676285624504,0.1,0.0,-0.016497194767
1503103992781197895,-0.0502009684245,0.0187956161499,-0.0761459469795,0.1,0.0,-0.0237183570862
1503103992806570094,-0.0489874165853,0.0212975247701,-0.081227183342,0.1,0.0,-0.0181953012943
1503103992868375333,-0.0457872111003,0.0272899195353,-0.067819237709,0.1,0.0,-0.0122980624437
1503103992909356406,-0.0431296946208,0.028914738973,-0.0466418266296,0.1,0.0,-0.00911438465118
1503103992988091235,-0.0385790405273,0.0325258687337,-0.0309851169586,0.1,0.0,-0.00216525793076
1503103993015566660,-0.0372663421631,0.0347883377075,-0.0179489850998,0.1,0.0,-0.00218960642815
1503103993082451296,-0.0337030563354,0.0393789952596,-0.00974154472351,0.1,0.0,-0.00909444689751
1503103993106318175,-0.0310558751424,0.0422934290568,-0.00756883621216,0.1,0.0,-0.0080960392952
1503103993167032438,-0.0284824422201,0.0461572672526,-0.00697559118271,0.1,0.0,-0.0136874914169
1503103993196328870,-0.0275029093424,0.0480116780599,-0.0099846124649,0.1,0.0,-0.0197743177414
1503103993259712199,-0.0239509760539,0.052644337972,-0.0153217315674,0.1,0.0,-0.0185286998749
1503103993286848261,-0.0223115208944,0.0553406778971,-0.00768381357193,0.1,0.0,-0.0206271409988
1503103993368807955,-0.0182857780457,0.0590947774251,-0.00966048240662,0.1,0.0,-0.0268421173096
1503103993392802220,-0.0172338523865,0.0609989725749,-0.0166401267052,0.1,0.0,-0.025735616684
1503103993455596200,-0.0153112869263,0.0649065755208,-0.0231241881847,0.1,0.0,-0.0296679735184
1503103993486264475,-0.0140508448283,0.0657007141113,-0.00998198986053,0.1,0.0,-0.0295879244804
1503103993563600283,-0.010977355957,0.0696375020345,-0.0124369114637,0.1,0.0,-0.0332783460617
1503103993590017096,-0.00974435170492,0.0719978383382,-0.0245713442564,0.1,0.0,-0.0354413986206
1503103993649007148,-0.00619196573893,0.0714291737874,-0.00470837578177,0.1,0.0,-0.0365108251572
1503103993678355637,-0.00572639211019,0.0720199330648,-0.0136343054473,0.1,0.0,-0.0374649763107
1503103993757128353,-0.00448450946808,0.0746692759196,-0.0372756794095,0.1,0.0,-0.0483185052872
1503103993801245065,-0.00504647699992,0.0749969329834,-0.0391784086823,0.1,0.0,-0.0560874938965
1503103993846719622,-0.00073579788208,0.0765521087646,-0.027653798461,0.1,0.0,-0.0469936132431
1503103993878675248,0.000345909118652,0.0761460266113,-0.0109301507473,0.1,0.0,-0.0457208156586
1503103993936155262,0.00389199701945,0.0792098388672,-0.0115599036217,0.1,0.0,-0.0524841547012
1503103994011941436,0.00477308781942,0.0802786102295,-0.0216611027718,0.1,0.0,-0.0544086694717
1503103994056302762,0.00786163838704,0.0829554290771,-0.011387526989,0.1,0.0,-0.0584552288055
1503103994074559270,0.0100717112223,0.0840121765137,-0.0159326791763,0.1,0.0,-0.0553900003433
1503103994131399555,0.0118601582845,0.0860372823079,-0.00909674167633,0.1,0.0,-0.0599048137665
1503103994177815381,0.0139258931478,0.0876990458171,-0.00924772024155,0.1,0.0,-0.0620385408401
1503103994243640308,0.0167677256266,0.0885706075033,-0.00443583726883,0.1,0.0,-0.0669333934784
1503103994267372539,0.0167271016439,0.0888835042318,0.00780421495438,0.1,0.0,-0.0702565908432
1503103994328284544,0.0187403971354,0.0897366943359,0.0135233402252,0.1,0.0,-0.0718405246735
1503103994373050626,0.0207726745605,0.0916011861165,-0.00203037261963,0.1,0.0,-0.0702953338623
1503103994434249904,0.0216143595378,0.0922536112467,0.00649333000183,0.1,0.0,-0.0759863853455
1503103994478134274,0.0209101816813,0.0909106241862,0.0242877006531,0.1,0.0,-0.0761063098907
1503103994540921294,0.0220146942139,0.091402750651,0.0312850475311,0.1,0.0,-0.0803978443146
1503103994566888846,0.0233387858073,0.0915899251302,0.0303951501846,0.1,0.0,-0.0819562673569
1503103994628547223,0.0249719238281,0.0923405965169,0.0209151506424,0.1,0.0,-0.0835342407227
1503103994710538221,0.0247234802246,0.0910678202311,0.0330895185471,0.1,0.0,-0.0845158100128
1503103994723862968,0.0267117411296,0.0905474344889,0.0438657999039,0.1,0.0,-0.0865960121155
1503103994763907127,0.0279541422526,0.0893894755046,0.0381442308426,0.1,0.0,-0.0851329565048
1503103994828214654,0.0294800720215,0.0899213968913,0.0303112268448,0.1,0.0,-0.0912737846375
1503103994855094719,0.0304883626302,0.0888416951497,0.0302001237869,0.1,0.0,-0.0907841324806
1503104002257727410,0.0,-1.0,0.0,0.0,0.0,0.0
1503104005157742088,0.0,1.0,0.0,0.0,0.0,0.0
1503104005257661221,0.0,1.0,0.0,0.0,0.0,0.0
1503104005357782232,0.0,1.0,0.0,0.0,0.0,0.0
1503104005457764633,0.0,1.0,0.0,0.0,0.0,0.0
1503104006757836223,0.0,-1.0,0.0,0.0,0.0,0.0
1503104007757784674,0.0,1.0,0.0,0.0,0.0,0.0
1503104009757839242,0.0,-1.0,0.0,0.0,0.0,0.0
1503104009857703468,0.0,-1.0,0.0,0.0,0.0,0.0
1503104010557890140,1.0,0.0,0.0,0.0,0.0,0.0
1503104011257773495,-1.0,0.0,0.0,0.0,0.0,0.0
1503104011957794202,1.0,0.0,0.0,0.0,0.0,0.0
1503104012957763776,-1.0,0.0,0.0,0.0,0.0,0.0
1503104015857749459,1.0,0.0,0.0,0.0,0.0,0.0
1503104016957753086,0.0,1.0,0.0,0.0,0.0,0.0
1503104018457917340,0.0,-1.0,0.0,0.0,0.0,0.0
1503104019057759117,1.0,0.0,0.0,0.0,0.0,0.0
1503104020057801434,0.0,1.0,0.0,0.0,0.0,0.0
1503104021157787191,1.0,0.0,0.0,0.0,0.0,0.0
1503104021457845304,0.0,-1.0,0.0,0.0,0.0,0.0
1503104022057810832,-1.0,0.0,0.0,0.0,0.0,0.0
1503104022757648672,1.0,0.0,0.0,0.0,0.0,0.0
1503104024557802805,-1.0,0.0,0.0,0.0,0.0,0.0
1503104024657708709,-1.0,0.0,0.0,0.0,0.0,0.0
1503104024757822972,-1.0,0.0,0.0,0.0,0.0,0.0
1503104025252406394,0.0488441975911,0.00860641479492,0.0741069316864,0.1,0.0,0.217492222786
1503104025332886823,0.0494707285563,0.00601199086507,-0.00282156467438,0.1,0.0,0.242549300194
1503104025482878526,0.0352852427165,0.0103339385986,0.0209251642227,0.1,0.0,0.253195762634
1503104025554548626,0.0172136433919,0.0204039802551,-0.0446937084198,0.1,0.0,0.272894322872
1503104025628798215,0.0114018033346,0.0226434046427,-0.0235359370708,0.1,0.0,0.260487914085
1503104025691534317,0.0160356572469,0.0202519187927,-0.013828098774,0.1,0.0,0.245161265135
1503104025773122827,0.0112210769653,0.0260087585449,-0.0387796312571,0.1,0.0,0.244000375271
1503104025858061013,0.011484114329,0.019344842275,-0.0849500000477,0.1,0.0,0.229573875666
