%time,field.header.seq,field.header.stamp,field.header.frame_id,field.pose.position.x,field.pose.position.y,field.pose.position.z,field.pose.orientation.x,field.pose.orientation.y,field.pose.orientation.z,field.pose.orientation.w
1505356812450065664,1268,1505356812449846400,0.328840136528,0.0451229922473,-0.226147651672,-0.00678551290184,-0.996546983719,-0.000915104406886,0.0827485099435
1505356812460165418,1269,1505356812460056229,0.328829228878,0.0451733134687,-0.226115211844,-0.00683610746637,-0.996551632881,-0.00107707979623,0.0826863721013
1505356812470512059,1270,1505356812470356535,0.32882797718,0.0451653264463,-0.226063221693,-0.00679220445454,-0.996549904346,-0.00144078687299,0.082704782486
1505356812480804266,1271,1505356812480605172,0.328858882189,0.0452444367111,-0.226040199399,-0.00671091116965,-0.996549725533,-0.00158958730754,0.082711391151
1505356812480813909,1272,1505356812480664901,0.328909426928,0.0451696254313,-0.226030245423,-0.00690419599414,-0.996550619602,-0.00146370567381,0.0826863795519
1505356812500236100,1273,1505356812500107238,0.328924834728,0.0451878085732,-0.225986331701,-0.00695456704125,-0.996552467346,-0.00148257636465,0.082659766078
1505356812510653040,1274,1505356812510428178,0.328945755959,0.0451988503337,-0.226031035185,-0.00692875217646,-0.9965493083,-0.00149291218258,0.0827002301812
1505356812510656520,1275,1505356812510489121,0.328939527273,0.045102942735,-0.22607806325,-0.00687173660845,-0.996554613113,-0.00128498708364,0.0826442986727
1505356812530122329,1276,1505356812529914494,0.328890055418,0.0451408028603,-0.226060003042,-0.00677015492693,-0.996552884579,-0.00112353346776,0.0826759189367
1505356812540322062,1277,1505356812540159015,0.328887939453,0.0450925529003,-0.226162552834,-0.0068283979781,-0.996557116508,-0.00109025568236,0.0826196968555
1505356812550488055,1278,1505356812550379213,0.328854233027,0.0451049394906,-0.226116523147,-0.00675814412534,-0.996554374695,-0.00108900933992,0.0826588124037
1505356812560866819,1279,1505356812560609864,0.328838527203,0.0451091229916,-0.226069435477,-0.00684600835666,-0.996544361115,-0.000998802366666,0.0827732607722
1505356812560871038,1280,1505356812560627562,0.32886454463,0.0450859852135,-0.22609783709,-0.00692648580298,-0.996548056602,-0.00101971090771,0.082721196115
1505356812580159432,1281,1505356812580029930,0.328887820244,0.0451414510608,-0.226063802838,-0.00678747473285,-0.996555685997,-0.00127946294378,0.0826383531094
1505356812590457655,1282,1505356812590280761,0.328924328089,0.0451045408845,-0.226082026958,-0.00684961304069,-0.996559619904,-0.00134672166314,0.0825841352344
1505356812590464173,1283,1505356812590294110,0.328929424286,0.0451634973288,-0.226048737764,-0.00686963368207,-0.996552884579,-0.00132101459894,0.0826636701822
1505356812611043846,1284,1505356812610749206,0.328933417797,0.0451635234058,-0.225993528962,-0.00691524054855,-0.996556937695,-0.00136235705577,0.0826113149524
1505356812620146704,1285,1505356812619969198,0.32893127203,0.0450934320688,-0.226062655449,-0.00687862094492,-0.996562480927,-0.00122287939303,0.0825490653515
1505356812630537861,1286,1505356812630320401,0.328897505999,0.0451381318271,-0.226060345769,-0.00676023354754,-0.996562480927,-0.00123399391305,0.0825594216585
1505356812640704807,1287,1505356812640533479,0.328889787197,0.0450749918818,-0.226009875536,-0.00686724390835,-0.996553480625,-0.00118156056851,0.0826602205634
1505356812650085439,1288,1505356812649879442,0.328881412745,0.0451192185283,-0.226046815515,-0.00681822327897,-0.996554434299,-0.0011903133709,0.0826518684626
1505356812660308870,1289,1505356812660147795,0.328888595104,0.0450738295913,-0.226061582565,-0.00682677328587,-0.996557354927,-0.00111634668428,0.0826165527105
1505356812670676769,1290,1505356812670411106,0.328886389732,0.0450668521225,-0.226013213396,-0.00683257076889,-0.996550619602,-0.0011776649626,0.0826972723007
1505356812680881153,1291,1505356812680638374,0.328875780106,0.0451225340366,-0.22598439455,-0.00690911523998,-0.99654096365,-0.00105592631735,0.0828085392714
1505356812680903921,1292,1505356812680675921,0.328895241022,0.0450864173472,-0.225964292884,-0.00683374889195,-0.996543288231,-0.00124024576508,0.0827842950821
1505356812700384744,1293,1505356812700242532,0.328876584768,0.0451053641737,-0.22593395412,-0.00676458794624,-0.996540725231,-0.00130078243092,0.0828188285232
1505356812710773526,1294,1505356812710558600,0.328857749701,0.0451011285186,-0.225925117731,-0.00686794379726,-0.996528744698,-0.00117518892512,0.0829577445984
1505356812710778966,1295,1505356812710579778,0.32885119319,0.0450696758926,-0.225830435753,-0.00688340142369,-0.996521711349,-0.00106775667518,0.0830419361591
1505356812730150361,1296,1505356812729963014,0.328822642565,0.0450807027519,-0.225811481476,-0.00676446035504,-0.996515631676,-0.00115255184937,0.0831237137318
1505356812740415404,1297,1505356812740233149,0.328835785389,0.0450891293585,-0.225832223892,-0.00676467968151,-0.996522784233,-0.00126124185044,0.0830365493894
1505356812750645352,1298,1505356812750445210,0.328855782747,0.0450410954654,-0.225730583072,-0.00680563552305,-0.996537208557,-0.00105053989682,0.0828621312976
1505356812760815043,1299,1505356812760675274,0.328868120909,0.0450315959752,-0.225609570742,-0.00669118622318,-0.996543049812,-0.000737230060622,0.0828050151467
1505356812770141134,1300,1505356812769888523,0.328949838877,0.0449635572731,-0.225484549999,-0.00668625952676,-0.996571540833,-0.000180907576578,0.0824650377035
1505356812780225542,1301,1505356812780091346,0.32900249958,0.044900495559,-0.22530220449,-0.00665298011154,-0.996585190296,-0.000333229661919,0.0823017880321
1505356812790497987,1302,1505356812790323192,0.329056799412,0.0450110882521,-0.225126802921,-0.00661959312856,-0.99659216404,-0.000814501545392,0.0822163596749
1505356812800786823,1303,1505356812800605576,0.329125523567,0.0451005659997,-0.224949628115,-0.00675001880154,-0.996606588364,-0.00140762154479,0.0820224359632
1505356812859883958,1304,1505356812859720933,0.329211741686,0.0445665232837,-0.222680747509,-0.00648430455476,-0.996587395668,0.000614095013589,0.0822863504291
1505356812870166669,1305,1505356812869977889,0.329224139452,0.0447742752731,-0.222237378359,-0.00665919063613,-0.99658793211,-0.000292426644592,0.0822680070996
1505356812880322032,1306,1505356812880165778,0.329286724329,0.0448638945818,-0.221804723144,-0.00682431878522,-0.996603190899,-0.000506986689288,0.0820684656501
1505356812890613206,1307,1505356812890384358,0.329277843237,0.0450511574745,-0.221207514405,-0.00687678391114,-0.99657946825,-0.00101317837834,0.0823468640447
1505356812890618163,1308,1505356812890436724,0.329297244549,0.0450905077159,-0.22071325779,-0.00693027768284,-0.996568918228,-0.00107306044083,0.082470446825
1505356812900846165,1309,1505356812900680640,0.329371094704,0.0451647303998,-0.220208615065,-0.00691773975268,-0.996564686298,-0.00127292796969,0.0825192257762
1505356812920225316,1310,1505356812920075366,0.329456180334,0.0450655147433,-0.219619184732,-0.00699518620968,-0.996580839157,-0.000728811370209,0.082323551178
1505356812930539033,1311,1505356812930332395,0.329553663731,0.0450369790196,-0.219143927097,-0.0070379814133,-0.996599793434,-0.000679658958688,0.082090318203
1505356812930565887,1312,1505356812930384924,0.329612135887,0.0450226962566,-0.218655601144,-0.00694652413949,-0.99660885334,-0.000598364218604,0.081988632679
1505356812950024610,1313,1505356812949742895,0.329724639654,0.0448523312807,-0.218064039946,-0.00697589013726,-0.99661397934,-7.25316276657e-05,0.0819260627031
1505356812960096638,1314,1505356812959959194,0.329799771309,0.0449948981404,-0.217573031783,-0.00710283312947,-0.996599316597,-0.000171395688085,0.0820935741067
1505356812970418222,1315,1505356812970207598,0.329756349325,0.0448688566685,-0.216989949346,-0.00673303566873,-0.996557950974,-0.000311504903948,0.0826240628958
1505356812980632764,1316,1505356812980457975,0.329786211252,0.0448158197105,-0.216477811337,-0.00670504523441,-0.996555507183,-0.000213507126318,0.0826556459069
1505356812980645312,1317,1505356812980488046,0.329846829176,0.0448495969176,-0.21596327424,-0.00669806916267,-0.99657022953,-5.10934296472e-05,0.0824799612164
1505356812990874476,1318,1505356812990703999,0.329884439707,0.0446849837899,-0.215362012386,-0.0067433542572,-0.996575534344,0.000595415884163,0.0824105143547
1505356813010291624,1319,1505356813010149374,0.329927414656,0.0447113737464,-0.21477997303,-0.00663414876908,-0.996593117714,0.000742228119634,0.0822042897344
1505356813020610872,1320,1505356813020401532,0.329974234104,0.0448610037565,-0.214283168316,-0.00655793165788,-0.996587455273,0.000354733114364,0.0822815522552
1505356813020616941,1321,1505356813020421944,0.330127984285,0.0450538769364,-0.213683784008,-0.00701628252864,-0.996592819691,-0.000606976391282,0.0821773931384
1505356813040042633,1322,1505356813039879923,0.330245047808,0.0453687086701,-0.213151276112,-0.00754928542301,-0.99659049511,-0.00168908957858,0.0821434259415
1505356813050278618,1323,1505356813050075781,0.330298244953,0.0453653372824,-0.212565913796,-0.00770049449056,-0.996570646763,-0.00151844904758,0.0823736190796
1505356813110410538,1324,1505356813110243989,0.330527067184,0.0451140552759,-0.207816585898,-0.00705116149038,-0.996518611908,-0.000496645108797,0.083070024848
1505356813120661131,1325,1505356813120461002,0.330669790506,0.0454035773873,-0.206935197115,-0.00765631068498,-0.996501505375,-0.00100193836261,0.083217844367
1505356813131014527,1326,1505356813130600594,0.330658733845,0.0450684949756,-0.206074014306,-0.00665207626298,-0.99648720026,-0.000215404725168,0.0834796577692
1505356813131086840,1327,1505356813130633347,0.330800145864,0.0450333952904,-0.205338805914,-0.00652850884944,-0.996522426605,-0.000162554671988,0.0830686166883
1505356813150395549,1328,1505356813150223016,0.330556422472,0.0450861826539,-0.204692557454,-0.00645188242197,-0.996440172195,-0.000179466587724,0.0840564072132
1505356813160627040,1329,1505356813160461772,0.330574899912,0.0451485067606,-0.20399338007,-0.00654318509623,-0.996410965919,0.000303548004013,0.0843932405114
1505356813160635309,1330,1505356813160475336,0.330644130707,0.0452782809734,-0.203193113208,-0.00708067417145,-0.996367990971,0.000569405325223,0.0848548337817
1505356813170981497,1331,1505356813170728859,0.330663025379,0.0453160814941,-0.202403828502,-0.007200287655,-0.996334731579,0.000419587449869,0.0852357894182
1505356813190361822,1332,1505356813190163807,0.330750256777,0.0452849455178,-0.201618343592,-0.00697444658726,-0.99634873867,0.000331682647811,0.0850906744599
1505356813200552082,1333,1505356813200354849,0.330816239119,0.0450565367937,-0.20062494278,-0.00598657270893,-0.996395349503,0.000495867803693,0.0846181213856
1505356813200643124,1334,1505356813200407369,0.330857992172,0.0451073348522,-0.199722036719,-0.00583853106946,-0.996424973011,0.000391231791582,0.0842789486051
1505356813210946970,1335,1505356813210695780,0.331242769957,0.0450255535543,-0.198745727539,-0.00641398830339,-0.996476113796,0.000103651858808,0.0836315751076
1505356813230342388,1336,1505356813230105896,0.331336557865,0.0450273379683,-0.197694167495,-0.00650483556092,-0.996450901031,-0.000147095284774,0.083924151957
1505356813240661149,1337,1505356813240380573,0.331434845924,0.0449789091945,-0.196686327457,-0.00650171376765,-0.996440410614,4.13294874306e-05,0.0840487405658
1505356813240665498,1338,1505356813240415906,0.331535547972,0.0448137186468,-0.195684820414,-0.00641762977466,-0.996455729008,0.000806352472864,0.0838698372245
1505356813250974173,1339,1505356813250783310,0.331668138504,0.0447433590889,-0.194577082992,-0.00644783349708,-0.99647128582,0.00163944566157,0.0836692899466
1505356813270355358,1340,1505356813270165546,0.332453161478,0.044020332396,-0.19350092113,-0.00843614432961,-0.996605336666,0.00375060248189,0.0818077921867
1505356813280702551,1341,1505356813280426876,0.332484185696,0.0441469550133,-0.192543566227,-0.00827335193753,-0.9965929389,0.00333051430061,0.0819940268993
1505356813290852626,1342,1505356813290661177,0.332557857037,0.0441682487726,-0.191528484225,-0.00834153778851,-0.996591329575,0.00307606766,0.0820164754987
1505356813290871175,1343,1505356813290674079,0.33265042305,0.044190812856,-0.190518185496,-0.00800656341016,-0.996598184109,0.00277626654133,0.0819776877761
1505356813310217779,1344,1505356813310090356,0.332661151886,0.0442307405174,-0.189450293779,-0.00784639175981,-0.996570825577,0.00296019786038,0.0823191925883
1505356813320515030,1345,1505356813320356272,0.332693040371,0.0443436801434,-0.188446894288,-0.00779499392956,-0.996555805206,0.00260054925457,0.0825166925788
1505356813330724784,1346,1505356813330584181,0.332757741213,0.0444036908448,-0.187454044819,-0.00766970543191,-0.996549487114,0.00275421072729,0.0825998783112
1505356813339907009,1347,1505356813339766138,0.332786530256,0.0444292165339,-0.18647095561,-0.00751262297854,-0.996538639069,0.00260141957551,0.0827488750219
1505356813351421711,1348,1505356813351202558,0.332764476538,0.0444949902594,-0.185455113649,-0.00730572175235,-0.996508359909,0.00242404430173,0.0831376835704
1505356813351431196,1349,1505356813351237708,0.33284085989,0.0445694290102,-0.184572726488,-0.00741886580363,-0.996518075466,0.00246563879773,0.083010174334
1505356813370926652,1350,1505356813370669092,0.333079278469,0.0445238575339,-0.183497264981,-0.00740323867649,-0.996546268463,0.00280856783502,0.0826615393162
1505356813370944862,1351,1505356813370709892,0.33310097456,0.0447219163179,-0.182393997908,-0.00740198371932,-0.99652659893,0.00293212151155,0.0828932672739
1505356813390506162,1352,1505356813390341170,0.333144009113,0.0448603332043,-0.181370526552,-0.00736529473215,-0.996498167515,0.00225909007713,0.0832589268684
1505356813400821589,1353,1505356813400602438,0.333177953959,0.0449196845293,-0.180279940367,-0.00719875702634,-0.996488690376,0.00193908286747,0.0833950936794
1505356813400830776,1354,1505356813400632778,0.333235114813,0.0450528152287,-0.179247051477,-0.00728564709425,-0.996493756771,0.00173022667877,0.0833312496543
1505356813420303171,1355,1505356813420153797,0.333313465118,0.0451977998018,-0.178053662181,-0.00747166667134,-0.996491551399,0.00123890512623,0.0833506584167
1505356813430880339,1356,1505356813430386759,0.333384811878,0.045210916549,-0.176701053977,-0.00727610569447,-0.99647963047,0.00124541809782,0.0835094228387
1505356813440777907,1357,1505356813440595334,0.333501935005,0.0453479811549,-0.175513193011,-0.00751504441723,-0.996468007565,0.000981384073384,0.0836304724216
1505356813440787170,1358,1505356813440608421,0.333591163158,0.0455238260329,-0.17429998517,-0.00766054354608,-0.996460020542,0.000214545943891,0.0837175101042
1505356813460165313,1359,1505356813460016190,0.333780199289,0.0456352382898,-0.172970414162,-0.00786812789738,-0.996458530426,-0.000873475335538,0.0837126746774
1505356813470610344,1360,1505356813470375421,0.333795309067,0.046064119786,-0.171924263239,-0.00863623712212,-0.996488571167,-0.00218508508988,0.0832527950406
1505356813480769120,1361,1505356813480642981,0.334042668343,0.0449398346245,-0.169943153858,-0.00601608911529,-0.996459424496,0.000578726932872,0.0838571414351
1505356813490320337,1362,1505356813489910661,0.334201753139,0.0448876991868,-0.16855981946,-0.00602929620072,-0.996446967125,0.00104396033566,0.08399990201
1505356813500339668,1363,1505356813500202553,0.334257900715,0.0449322164059,-0.167270794511,-0.00605158973485,-0.996428847313,0.00100564258173,0.0842135176063
1505356813510603961,1364,1505356813510456196,0.334438741207,0.0448018684983,-0.165939614177,-0.00597657356411,-0.996428012848,0.00107765628491,0.0842271894217
1505356813520772024,1365,1505356813520645626,0.33460149169,0.0447910316288,-0.164499118924,-0.00574862770736,-0.996424496174,0.000767107296269,0.0842885300517
1505356813520775515,1366,1505356813520677475,0.334707319736,0.0449280291796,-0.16316793859,-0.00540006626397,-0.996459126472,-3.7453504774e-05,0.0839054733515
1505356813540302031,1367,1505356813540184233,0.334797441959,0.0447965301573,-0.161830320954,-0.00545887416229,-0.99648296833,1.61483694683e-05,0.0836174041033
1505356813550634108,1368,1505356813550502016,0.334937036037,0.0446869023144,-0.16041713953,-0.00571243884042,-0.996464729309,0.00018777398509,0.0838170722127
1505356813560958111,1369,1505356813560742199,0.335060358047,0.0447680652142,-0.159131139517,-0.0058334809728,-0.996442019939,-0.000334671582095,0.0840782225132
1505356813560965713,1370,1505356813560754973,0.335191071033,0.0448155663908,-0.15785472095,-0.00576136307791,-0.996435940266,-0.000308374204906,0.0841552391648
1505356813580454059,1371,1505356813580278805,0.335346579552,0.0447633080184,-0.156593903899,-0.00570574821904,-0.996418535709,7.38068993087e-05,0.0843649357557
1505356813590657049,1372,1505356813590506624,0.33544382453,0.0449313558638,-0.155298098922,-0.00552654406056,-0.996424257755,1.96392375074e-06,0.0843102484941
1505356813599839471,1373,1505356813599698821,0.335558146238,0.0447980500758,-0.153911113739,-0.00532065844163,-0.996446669102,0.000994776608422,0.084052503109
1505356813610048765,1374,1505356813609916619,0.335674256086,0.0447581633925,-0.152689740062,-0.00513253314421,-0.996446430683,0.000787394295912,0.08406868577
1505356813620208353,1375,1505356813620065457,0.335779637098,0.044719170779,-0.151410385966,-0.00492305401713,-0.996435761452,0.000744583609048,0.0842082947493
1505356813630527948,1376,1505356813630294514,0.335846662521,0.0446641407907,-0.150052532554,-0.00492138275877,-0.996414363384,0.000990651897155,0.0844577401876
1505356813640664279,1377,1505356813640546260,0.335928350687,0.0448578409851,-0.148762211204,-0.00489072082564,-0.996404886246,0.000410294102039,0.0845763832331
1505356813649872589,1378,1505356813649723821,0.336072176695,0.0448196418583,-0.147365882993,-0.00465906318277,-0.996406137943,0.000660047517158,0.084574200213
1505356813660235766,1379,1505356813659987406,0.336157351732,0.0448154844344,-0.146070718765,-0.00434957677498,-0.996429741383,0.000964985694736,0.0843086987734
1505356813670381771,1380,1505356813670204803,0.336215496063,0.044905424118,-0.144820302725,-0.00403595808893,-0.99643445015,0.00124333193526,0.0842641890049
1505356813680670504,1381,1505356813680472688,0.336266547441,0.0449225045741,-0.143471136689,-0.00364875327796,-0.996394991875,0.00115056557115,0.0847492739558
1505356813680685628,1382,1505356813680527776,0.336329072714,0.0450252331793,-0.142085328698,-0.00343415443785,-0.996364593506,0.00118474848568,0.0851132944226
1505356813690947435,1383,1505356813690742339,0.336412519217,0.0449905395508,-0.140663221478,-0.0030374629423,-0.996344864368,0.00164154684171,0.0853520929813
1505356813710372162,1384,1505356813710238480,0.336590588093,0.0449429266155,-0.139209195971,-0.00265523092821,-0.996340811253,0.00155347608961,0.0854142606258
1505356813720622657,1385,1505356813720441164,0.336702972651,0.0450743883848,-0.137782394886,-0.00220323423855,-0.996352851391,0.00121118617244,0.0852913334966
1505356813731028413,1386,1505356813730838910,0.336776018143,0.0451953150332,-0.136339083314,-0.00182998727541,-0.996337473392,0.000587747024838,0.0854861661792
1505356813740285347,1387,1505356813740102432,0.336869120598,0.0455735735595,-0.134767979383,-0.00146121985745,-0.996307849884,-0.000874073710293,0.0858350992203
1505356813750535977,1388,1505356813750303264,0.336972594261,0.0456956848502,-0.133259415627,-0.00111304258462,-0.996295034885,-0.000855589169078,0.0859894156456
1505356813760784290,1389,1505356813760628351,0.337064832449,0.0457700677216,-0.131665378809,-0.000681751640514,-0.996257424355,-0.00143333885353,0.0864207223058
1505356813770093461,1390,1505356813769908449,0.337261885405,0.0449276082218,-0.12985214591,-0.00237190024927,-0.996318221092,0.00127402297221,0.0856899768114
1505356813780269370,1391,1505356813780127809,0.337381005287,0.0448897071183,-0.128277003765,-0.00229421327822,-0.996302902699,0.00102745043114,0.0858734324574
1505356813790504241,1392,1505356813790377667,0.337523877621,0.0447161346674,-0.126723825932,-0.00235003815033,-0.996295452118,0.00113433564547,0.0859570726752
1505356813800775727,1393,1505356813800604284,0.337613284588,0.0448497980833,-0.125260174274,-0.00197521434166,-0.996280968189,0.00089453131659,0.0861371234059
1505356813800802685,1394,1505356813800621049,0.337732166052,0.0447966344655,-0.12386598438,-0.0017393718008,-0.996260821819,0.00130623974837,0.0863694399595
1505356813820328854,1395,1505356813820088693,0.337809950113,0.0448033735156,-0.122359141707,-0.00181877054274,-0.996257662773,0.001919415663,0.0863920450211
1505356813830694214,1396,1505356813830375855,0.337979733944,0.0447721555829,-0.12090036273,-0.0018132646801,-0.996304750443,0.00270730257034,0.0858269110322
1505356813840805147,1397,1505356813840600559,0.338116705418,0.0447077453136,-0.119364872575,-0.0015833202051,-0.996315419674,0.00303831789643,0.0856959372759
1505356813840809000,1398,1505356813840627089,0.338346451521,0.0446192584932,-0.117748811841,-0.0015129140811,-0.996335566044,0.00283680926077,0.0854707658291
1505356813860260937,1399,1505356813860083251,0.338532447815,0.0445581898093,-0.116234831512,-0.00163804413751,-0.996341764927,0.00262932968326,0.0854016393423
1505356813870992978,1400,1505356813870285513,0.338696151972,0.0447291955352,-0.114531621337,-0.00211252365261,-0.996325433254,0.00223018042743,0.0855937078595
1505356813880697771,1401,1505356813880496721,0.338940531015,0.0439366027713,-0.112813651562,-0.000710700580385,-0.996367692947,0.00478438241407,0.0850178152323
1505356813891072624,1402,1505356813890677896,0.339119851589,0.0439924150705,-0.111288741231,-0.000444505829364,-0.996382832527,0.00429301057011,0.084868401289
1505356813900062577,1403,1505356813899908351,0.339257508516,0.0442383997142,-0.109671726823,-0.000301842432236,-0.996377825737,0.00349849672057,0.0849638953805
1505356813910423068,1404,1505356813910160207,0.339394539595,0.0444534868002,-0.108044728637,-0.000493244675454,-0.996386826038,0.00321822124533,0.0848686099052
1505356813920647948,1405,1505356813920439016,0.339691191912,0.0444529540837,-0.106391333044,-0.00111498835031,-0.996394336224,0.00389327597804,0.0847464874387
1505356813931065192,1406,1505356813930710912,0.339899122715,0.0443306565285,-0.104668922722,-0.00128819199745,-0.996415674686,0.00483861705288,0.0844436809421
1505356813931070570,1407,1505356813930729132,0.340161979198,0.0444737784564,-0.102985568345,-0.00144312856719,-0.996461808681,0.00449618743733,0.083914168179
1505356813950406397,1408,1505356813950239045,0.340257883072,0.0447400286794,-0.101450711489,-0.00155102205463,-0.996443092823,0.00343116396107,0.0841845721006
1505356813960634624,1409,1505356813960470561,0.340423554182,0.0448267050087,-0.0997799485922,-0.00147476070561,-0.996429264545,0.00301909563132,0.0843657851219
1505356813970997755,1410,1505356813970751648,0.340578109026,0.0451187305152,-0.0980829671025,-0.00182563520502,-0.996505498886,0.000424899626523,0.0835060030222
1505356813971007652,1411,1505356813970765252,0.34095621109,0.0449884533882,-0.096407994628,-0.00241562514566,-0.996550917625,0.00101641903166,0.0829425305128
1505356813990339175,1412,1505356813990149626,0.341192901134,0.0451264642179,-0.0947050601244,-0.00260059884749,-0.996569097042,0.000807902484667,0.0827202349901
1505356814000586978,1413,1505356814000385477,0.341378748417,0.0451002269983,-0.0931713506579,-0.00297067780048,-0.996559381485,0.00089692894835,0.0828239843249
1505356814010970126,1414,1505356814010670213,0.341583520174,0.0449490994215,-0.0916317924857,-0.00283664721064,-0.996577978134,0.00193746085279,0.0825859457254
1505356814020081597,1415,1505356814019985285,0.341734737158,0.0447129532695,-0.0899343788624,-0.00261898385361,-0.996575117111,0.00324671622366,0.0825869888067
1505356814030459684,1416,1505356814030319809,0.341786921024,0.0449094846845,-0.0883011445403,-0.00247499370016,-0.996568977833,0.00300112646073,0.0826750323176
1505356814040719832,1417,1505356814040553403,0.342135459185,0.0446962416172,-0.0864734500647,-0.00287689873949,-0.996607244015,0.00398500543088,0.0821565389633
1505356814049913003,1418,1505356814049764582,0.342333644629,0.0445330291986,-0.084720723331,-0.00285486667417,-0.99661552906,0.00419895304367,0.082047522068
1505356814060096706,1419,1505356814059978794,0.342543900013,0.0446578934789,-0.0829999446869,-0.00290802796371,-0.996627390385,0.00357101554982,0.0819305256009
1505356814070359550,1420,1505356814070210891,0.342661887407,0.0447801537812,-0.0811005309224,-0.00307685392909,-0.996611297131,0.00284570315853,0.082149118185
1505356814080591165,1421,1505356814080421687,0.342859357595,0.0447434447706,-0.0792250037193,-0.00291862315498,-0.996623516083,0.00298129301518,0.0820006877184
1505356814090873363,1422,1505356814090654947,0.34299492836,0.0446912534535,-0.0774371176958,-0.00296608055942,-0.996605634689,0.00334068830125,0.0822032019496
1505356814090902125,1423,1505356814090671773,0.343592315912,0.0439046286047,-0.0753957629204,-0.00538248429075,-0.99671882391,0.005234581884,0.0805926546454
1505356814110385635,1424,1505356814110141278,0.343754142523,0.0439627617598,-0.0735476762056,-0.00481784064323,-0.996715724468,0.0053385803476,0.0806597322226
1505356814120551380,1425,1505356814120374573,0.343849688768,0.0440979972482,-0.0717627480626,-0.00457751844078,-0.996673107147,0.00520319491625,0.0812076628208
1505356814130753385,1426,1505356814130605985,0.343922883272,0.0441189594567,-0.0699461773038,-0.00420120591298,-0.996619999409,0.00557805690914,0.0818525627255
1505356814140005689,1427,1505356814139860794,0.344072490931,0.0441974103451,-0.0680901929736,-0.00415391568094,-0.996585249901,0.00570311257616,0.0822678878903
1505356814150300829,1428,1505356814150128251,0.344170957804,0.0443886891007,-0.0662824958563,-0.00372340297326,-0.996568083763,0.00531833618879,0.0825219154358
1505356814160483935,1429,1505356814160364567,0.344247192144,0.0446050837636,-0.0643759891391,-0.00304749794304,-0.996539950371,0.00444553885609,0.0829401612282
1505356814170767569,1430,1505356814170579921,0.344366908073,0.044856376946,-0.0626062229276,-0.00281517789699,-0.996523797512,0.0032763259951,0.0831960588694
1505356814179914274,1431,1505356814179748955,0.344495534897,0.0451091900468,-0.0607694797218,-0.00269848690368,-0.996468901634,0.00255137193017,0.0838810876012
1505356814190066000,1432,1505356814189962466,0.344652801752,0.0452502705157,-0.0588987879455,-0.00241666124202,-0.99643188715,0.00184584257659,0.0843461826444
1505356814200340390,1433,1505356814200204638,0.344778120518,0.045453697443,-0.0571620613337,-0.00250257924199,-0.996407628059,0.0016777847195,0.0846333429217
1505356814210557697,1434,1505356814210434422,0.344888329506,0.045533657074,-0.0554068572819,-0.00195908755995,-0.996397793293,0.00188877398614,0.0847587734461
1505356814220765823,1435,1505356814220664938,0.34490814805,0.0455812029541,-0.0535843446851,-0.00122133432887,-0.996346771717,0.00194688921329,0.0853687599301
1505356814230097284,1436,1505356814229867820,0.345502078533,0.0448501072824,-0.0516505651176,-0.00324808782898,-0.996446788311,0.00430521229282,0.0840515494347
1505356814240266449,1437,1505356814240130425,0.345700085163,0.0445954613388,-0.0497390516102,-0.00334612862207,-0.996421813965,0.00545595213771,0.0842767506838
1505356814250487166,1438,1505356814250338578,0.345944225788,0.0446322597563,-0.0478738881648,-0.00329848006368,-0.996440768242,0.00583016406745,0.084028698504
1505356814260738121,1439,1505356814260600110,0.346172273159,0.0448704846203,-0.0460494272411,-0.00356176262721,-0.996451556683,0.00507260067388,0.0839400589466
1505356814270208187,1440,1505356814269951095,0.346475601196,0.0449118688703,-0.0442037396133,-0.00380327389576,-0.996490836143,0.00480201933533,0.0834781527519
1505356814280309981,1441,1505356814280172276,0.34671869874,0.0449677146971,-0.0423146113753,-0.00358314579353,-0.996490299702,0.0043791490607,0.0835175588727
1505356814290560987,1442,1505356814290403674,0.346898496151,0.0450409948826,-0.0404047518969,-0.00357706216164,-0.996468305588,0.00424475502223,0.083785995841
1505356814300798907,1443,1505356814300659454,0.347136974335,0.0449758246541,-0.0383749939501,-0.00371007062495,-0.996469676495,0.00488270632923,0.0837285891175
1505356814310118257,1444,1505356814309943180,0.347362548113,0.0450405329466,-0.0364391580224,-0.00399099709466,-0.996470034122,0.00466525135562,0.083724655211
1505356814320393360,1445,1505356814320183726,0.347659379244,0.0450542606413,-0.0345216207206,-0.00423519778997,-0.996482253075,0.00445107696578,0.0835786908865
1505356814330514600,1446,1505356814330395575,0.347940772772,0.0449998565018,-0.0324274040759,-0.00425297487527,-0.996511459351,0.00468750391155,0.0832158476114
1505356814340802708,1447,1505356814340621154,0.348120421171,0.0451600253582,-0.0303669590503,-0.00423897849396,-0.99650812149,0.00446564657614,0.0832685679197
1505356814350216884,1448,1505356814349834000,0.348409205675,0.0450820252299,-0.0283357370645,-0.00402909424156,-0.996509492397,0.00444347271696,0.0832642093301
1505356814360371964,1449,1505356814360188779,0.348550915718,0.0451923161745,-0.0262394640595,-0.00438808789477,-0.996491611004,0.0039873062633,0.0834825262427
1505356814370661709,1450,1505356814370379860,0.348738670349,0.0453664250672,-0.0242462959141,-0.00428686244413,-0.996497869492,0.00346916401759,0.0834358781576
1505356814380742890,1451,1505356814380591517,0.349012583494,0.0452894344926,-0.0221109744161,-0.00449549034238,-0.996523976326,0.00412932503968,0.0830824971199
1505356814389951845,1452,1505356814389775485,0.34919065237,0.0455027259886,-0.0200389642268,-0.00472663762048,-0.996529579163,0.00344938831404,0.0830336436629
1505356814400249823,1453,1505356814399996156,0.349369138479,0.0453359857202,-0.0179890841246,-0.00451771449298,-0.996505916119,0.0038840805646,0.0833102986217
1505356814410374720,1454,1505356814410207713,0.34955561161,0.0452437065542,-0.015900047496,-0.00428995629773,-0.996516168118,0.00386164058,0.0832003131509
1505356814420616554,1455,1505356814420427157,0.349684625864,0.0453458800912,-0.0138111114502,-0.00421430869028,-0.996482491493,0.0034179452341,0.083626113832
1505356814430866389,1456,1505356814430671485,0.350237190723,0.0445994026959,-0.0116233015433,-0.00630789157003,-0.996577084064,0.00552589446306,0.0822428837419
1505356814440032650,1457,1505356814439889307,0.350368738174,0.0446638949215,-0.00951602682471,-0.00609211158007,-0.996543049812,0.00519682606682,0.0826907604933
1505356814450311874,1458,1505356814450123492,0.350428402424,0.0448502376676,-0.00750223081559,-0.00553171290085,-0.996494472027,0.00436907447875,0.0833612382412
1505356814460507167,1459,1505356814460352299,0.350565105677,0.0451359674335,-0.00556990131736,-0.00522044999525,-0.99646884203,0.00336030428298,0.0837333649397
1505356814473778213,1460,1505356814470557558,0.350822508335,0.0451713837683,-0.00349463359453,-0.00504581909627,-0.996471464634,0.00382160302252,0.0836935192347
1505356814480058628,1461,1505356814479903348,0.351090610027,0.0452813506126,-0.00157366553321,-0.00482812896371,-0.996470868587,0.00377184641548,0.0837150290608
1505356814490316779,1462,1505356814490155577,0.351357042789,0.0453717932105,0.00047921136138,-0.00476784352213,-0.996454298496,0.00399020733312,0.0839047878981
1505356814500579413,1463,1505356814500400473,0.35165682435,0.0452046170831,0.0026047504507,-0.00457723066211,-0.996469020844,0.00470009818673,0.0837043300271
1505356814510925774,1464,1505356814510660708,0.351889520884,0.0452071763575,0.00463024107739,-0.00472726719454,-0.996469020844,0.00466112792492,0.0836981609464
1505356814520024066,1465,1505356814519866315,0.352115899324,0.0451405011117,0.00672116223723,-0.00474259629846,-0.996448338032,0.00457602040842,0.0839488506317
1505356814530253270,1466,1505356814530084178,0.352329045534,0.0451912023127,0.00881747156382,-0.00474460422993,-0.996431469917,0.00380008015782,0.0841863006353
1505356814540473003,1467,1505356814540341256,0.352486133575,0.0452534779906,0.0108995484188,-0.0046547986567,-0.996410906315,0.00424970313907,0.0844123065472
1505356814550799348,1468,1505356814550664491,0.352669835091,0.0452365614474,0.0130909429863,-0.00446614110842,-0.996394395828,0.00441012065858,0.084610208869
1505356814560082915,1469,1505356814559861190,0.352825820446,0.0454364195466,0.0151582704857,-0.00445677293465,-0.99638324976,0.00354760722257,0.0847822874784
1505356814570344112,1470,1505356814570082777,0.353063136339,0.0454954504967,0.0171774793416,-0.00427787844092,-0.996375977993,0.00326213147491,0.0848876833916
1505356814580416875,1471,1505356814580276529,0.353217214346,0.0454680658877,0.0193496346474,-0.00438336841762,-0.996359109879,0.00327174155973,0.0850796103477
1505356814590652792,1472,1505356814590503275,0.353402197361,0.0453863702714,0.0214603524655,-0.00428563915193,-0.996340453625,0.00416182633489,0.0852639824152
1505356814600878901,1473,1505356814600700809,0.353563129902,0.045547734946,0.0235277209431,-0.00432168738917,-0.996347129345,0.00393504742533,0.0851955637336
1505356814610032971,1474,1505356814609915698,0.353827834129,0.0453888624907,0.0256886892021,-0.00402336800471,-0.996390581131,0.00448764162138,0.0846733674407
1505356814620304104,1475,1505356814620150644,0.354002982378,0.0455314479768,0.0276712719351,-0.00392770208418,-0.996426701546,0.0041318689473,0.084268540144
1505356814630569108,1476,1505356814630377694,0.354129344225,0.0456989556551,0.0297191757709,-0.0042066173628,-0.996432244778,0.00352463871241,0.0842184796929
1505356814640791914,1477,1505356814640625086,0.354258954525,0.045729842037,0.0318163670599,-0.00398065708578,-0.996437728405,0.00357994856313,0.0841614454985
1505356814650055462,1478,1505356814649864763,0.354399114847,0.0457664877176,0.0339036881924,-0.00413909740746,-0.996450901031,0.00430454127491,0.0839645117521
1505356814660364231,1479,1505356814660198392,0.354605227709,0.0457146540284,0.0359617546201,-0.00429740129039,-0.996474325657,0.00464919582009,0.0836587250233
1505356814670716192,1480,1505356814670488353,0.35472998023,0.0457430258393,0.0381491631269,-0.00395338330418,-0.996506810188,0.00488372100517,0.083275064826
1505356814680928109,1481,1505356814680773567,0.354880154133,0.0457810014486,0.0401646532118,-0.00378489564173,-0.996516048908,0.00505836028606,0.0831616446376
1505356814690274030,1482,1505356814690009800,0.355091780424,0.0457476861775,0.0423047058284,-0.00372937391512,-0.996529519558,0.00542290275916,0.0829790383577
1505356814700621900,1483,1505356814700475137,0.355286747217,0.0458537824452,0.0445323064923,-0.00379811227322,-0.996533095837,0.00523223076016,0.0829458609223
1505356814711019365,1484,1505356814710669141,0.355548232794,0.0458358041942,0.0466748513281,-0.00394730642438,-0.996572256088,0.00540084671229,0.0824566930532
1505356814720008388,1485,1505356814719885452,0.355792343616,0.0459926128387,0.0489385016263,-0.0041874172166,-0.996592581272,0.00497280294076,0.0822249725461
1505356814730249587,1486,1505356814730101482,0.35603427887,0.0460631027818,0.051173273474,-0.00400190800428,-0.996607124805,0.00433357758448,0.0820936113596
1505356814740451710,1487,1505356814740307894,0.356259703636,0.0460796952248,0.053367651999,-0.00391141884029,-0.996618807316,0.0038176139351,0.0819816067815
1505356814750694098,1488,1505356814750521893,0.356402009726,0.0460623130202,0.0556493736804,-0.00383251067251,-0.996612489223,0.0042381263338,0.0820419564843
1505356814760950777,1489,1505356814760752084,0.356568276882,0.0461820214987,0.0579243153334,-0.00392794888467,-0.996625006199,0.00400614691898,0.0818971022964
1505356814770101021,1490,1505356814769952877,0.356742560863,0.046223629266,0.0600755475461,-0.00387792242691,-0.99666005373,0.00361267151311,0.0814898982644
1505356814780254033,1491,1505356814780169153,0.356908738613,0.046282351017,0.0623043254018,-0.00385881238617,-0.996707856655,0.00338030047715,0.0809145569801
1505356814790621749,1492,1505356814790451179,0.357078403234,0.0462353974581,0.0644089281559,-0.00373923010193,-0.996756076813,0.00385244004428,0.0803027227521
1505356814800833135,1493,1505356814800685960,0.357135742903,0.0462447106838,0.0665823593736,-0.00383026176132,-0.996778249741,0.00418342789635,0.0800061151385
1505356814810032251,1494,1505356814809903536,0.357278823853,0.0461859181523,0.0688583627343,-0.00403857277706,-0.996809124947,0.00499401474372,0.079563178122
1505356814820346709,1495,1505356814820147299,0.357438147068,0.0460011363029,0.0710532590747,-0.0037697525695,-0.996851503849,0.00619758339599,0.0789579600096
1505356814830602530,1496,1505356814830423980,0.357593327761,0.0461252182722,0.0732038915157,-0.00379055156372,-0.996916472912,0.00567398965359,0.0781730413437
1505356814840787211,1497,1505356814840653448,0.357767403126,0.0461358018219,0.0753329992294,-0.00372458784841,-0.99697458744,0.00492990436032,0.0774830132723
1505356814849997701,1498,1505356814849873102,0.358099758625,0.0463029481471,0.0773486271501,-0.00375963235274,-0.997058272362,0.00424965750426,0.0764369145036
1505356814860269352,1499,1505356814860109825,0.358368337154,0.046372462064,0.0795332714915,-0.00419852975756,-0.997110664845,0.00449670432135,0.0757135525346
1505356814870536078,1500,1505356814870345796,0.358321934938,0.0460754483938,0.0819897130132,-0.00429933937266,-0.997131168842,0.00625037867576,0.0753113925457
1505356814880671125,1501,1505356814880535995,0.358503490686,0.046334952116,0.0849963650107,-0.0040860180743,-0.996900200844,0.00340868998319,0.0784960240126
1505356814890964715,1502,1505356814890795181,0.358754366636,0.0463185459375,0.0873304903507,-0.00371752702631,-0.996914744377,0.0030936463736,0.0783425197005
1505356814900422576,1503,1505356814900202877,0.358992695808,0.0461779050529,0.0895271152258,-0.0037201049272,-0.996929228306,0.00425222143531,0.0781040042639
1505356814910658149,1504,1505356814910458102,0.35914427042,0.046292886138,0.0917002037168,-0.00380448577926,-0.996917068958,0.00403672223911,0.0782665386796
1505356814920945484,1505,1505356814920736439,0.359359651804,0.046097073704,0.0939281359315,-0.00383445969783,-0.996927022934,0.00526406895369,0.0780643224716
1505356814930198846,1506,1505356814929997465,0.359592378139,0.0460168048739,0.0961468741298,-0.00414593610913,-0.996937453747,0.00636349897832,0.0778330862522
1505356814940350510,1507,1505356814940205328,0.359822332859,0.045979462564,0.0983063355088,-0.00379231781699,-0.996960818768,0.00683654798195,0.077511779964
1505356814950834472,1508,1505356814950458661,0.360035330057,0.0458246096969,0.100610584021,-0.00372488470748,-0.996974050999,0.00738524831831,0.0772934406996
1505356814959928608,1509,1505356814959723257,0.360233515501,0.0458853617311,0.102900460362,-0.00365296052769,-0.996979832649,0.00746918702498,0.0772138908505
1505356814970148553,1510,1505356814969982750,0.360393464565,0.0459523648024,0.105187766254,-0.00386166200042,-0.996964037418,0.00646336795762,0.0774990618229
1505356814980321983,1511,1505356814980209855,0.360574632883,0.0459484346211,0.107634417713,-0.00353285111487,-0.996950566769,0.00628465879709,0.0777017474174
1505356814990646905,1512,1505356814990468292,0.360696554184,0.046222537756,0.109953001142,-0.00328602921218,-0.996943116188,0.00535742612556,0.0778768435121
1505356815000885769,1513,1505356815000707614,0.360870599747,0.0464321449399,0.112298563123,-0.00332183390856,-0.996935844421,0.00441933050752,0.0780277848244
1505356815010094359,1514,1505356815009923462,0.361111283302,0.046637956053,0.114645518363,-0.00313611887395,-0.996948719025,0.00339453388005,0.0779226124287
1505356815020338528,1515,1505356815020203807,0.361333757639,0.0467643402517,0.117049619555,-0.0027283183299,-0.99693274498,0.00368870259263,0.0781279578805
1505356815030628146,1516,1505356815030459203,0.361592620611,0.0469704978168,0.119302876294,-0.00245709531009,-0.996959507465,0.00290630245581,0.0778285712004
1505356815040791730,1517,1505356815040659266,0.361838936806,0.0471308529377,0.121640995145,-0.00203178590164,-0.997000515461,0.00236740405671,0.0773325264454
1505356815050055229,1518,1505356815049875858,0.362132370472,0.0461144708097,0.124366924167,-0.00369901047088,-0.997057318687,0.0052085313946,0.0763923451304
1505356815060285656,1519,1505356815060115777,0.362472712994,0.046122264117,0.126759633422,-0.00394703494385,-0.997081696987,0.0049312976189,0.0760808810592
1505356815070461105,1520,1505356815070336930,0.362631469965,0.0463052280247,0.129258230329,-0.00415660114959,-0.997018933296,0.00422738399357,0.0769288241863
1505356815080755158,1521,1505356815080598922,0.362942844629,0.0463816970587,0.131492391229,-0.00403762748465,-0.9970677495,0.00408859783784,0.0763079598546
1505356815089983697,1522,1505356815089772730,0.363236457109,0.0463842377067,0.133700951934,-0.00429999874905,-0.997122943401,0.00406921934336,0.0755698978901
1505356815100203578,1523,1505356815100007166,0.363473623991,0.0463890880346,0.135999426246,-0.00408838503063,-0.997156083584,0.00429268879816,0.0751305297017
1505356815110413622,1524,1505356815110252795,0.363645106554,0.0464272424579,0.138182148337,-0.00426479335874,-0.997152507305,0.00406357785687,0.0751815140247
1505356815120590263,1525,1505356815120462787,0.363678783178,0.0463852994144,0.140547454357,-0.00405723694712,-0.997118651867,0.00465376814827,0.0756067559123
1505356815130850014,1526,1505356815130690716,0.363787978888,0.0463663376868,0.142677545547,-0.00380916241556,-0.997113227844,0.00484982691705,0.075678050518
1505356815140096381,1527,1505356815139921845,0.363860547543,0.0465090163052,0.144900888205,-0.00354525470175,-0.997102022171,0.00458879768848,0.0758543685079
1505356815150302636,1528,1505356815150182829,0.36391249299,0.0468161143363,0.147220388055,-0.0033048610203,-0.997086763382,0.00394522538409,0.0761020407081
1505356815160610827,1529,1505356815160410637,0.363905459642,0.0469001866877,0.149412199855,-0.00348017620854,-0.997025370598,0.00381701951846,0.0769001245499
1505356815170840505,1530,1505356815170658898,0.36384293437,0.0470649972558,0.151753649116,-0.00349590042606,-0.996951639652,0.00358630064875,0.0778613314033
1505356815180000361,1531,1505356815179871245,0.363675624132,0.0467913933098,0.154215097427,-0.0022464657668,-0.996852099895,0.00399768166244,0.0791509449482
1505356815190283560,1532,1505356815190106315,0.364980787039,0.0464000180364,0.156944274902,-0.00423668744043,-0.997160613537,0.00497798342258,0.0750204026699
1505356815200535163,1533,1505356815200325295,0.365243732929,0.0463231243193,0.159271776676,-0.00426924834028,-0.997190117836,0.0051770308055,0.0746109932661
1505356815210704986,1534,1505356815210539539,0.365411311388,0.0462270714343,0.161759108305,-0.00422752276063,-0.997179567814,0.00564027065411,0.0747206434608
1505356815220974519,1535,1505356815220783255,0.365509569645,0.0462542027235,0.16407969594,-0.00412793783471,-0.997122943401,0.00570994010195,0.0754721909761
1505356815230250785,1536,1505356815230048825,0.365664601326,0.0461678206921,0.166605636477,-0.00442857248709,-0.997095406055,0.00631504040211,0.0757711902261
1505356815240435588,1537,1505356815240291489,0.366334468126,0.0456541217864,0.169221371412,-0.00608657114208,-0.997250139713,0.00842448323965,0.0733767673373
1505356815250715207,1538,1505356815250500373,0.366415500641,0.04563678056,0.171608239412,-0.005826393608,-0.997206807137,0.00919589214027,0.0738924816251
1505356815260882833,1539,1505356815260732730,0.366469502449,0.0457768402994,0.173838227987,-0.00537657318637,-0.997181236744,0.00848595891148,0.0743547827005
1505356815270275186,1540,1505356815269991256,0.366519063711,0.04585249722,0.176238596439,-0.00502713024616,-0.997125506401,0.00891233887523,0.0750739425421
1505356815280339429,1541,1505356815280216915,0.366605132818,0.0461183339357,0.178557813168,-0.00447530206293,-0.997111320496,0.00774048129097,0.0754263028502
1505356815290682899,1542,1505356815290520194,0.366724818945,0.0460578873754,0.181015789509,-0.0043313857168,-0.997092306614,0.0077431271784,0.0756848827004
1505356815300934363,1543,1505356815300757767,0.366855591536,0.0463021360338,0.183430299163,-0.00436064368114,-0.997089862823,0.00670914398506,0.0758142843843
1505356815310184680,1544,1505356815309978023,0.366958141327,0.0465213097632,0.18581995368,-0.00387883465737,-0.9970946908,0.0053891162388,0.0758823901415
1505356815320419378,1545,1505356815320219382,0.367088794708,0.0464360229671,0.188369259238,-0.00343243288808,-0.997098445892,0.00583906378597,0.075821749866
1505356815330976509,1546,1505356815330475802,0.36730247736,0.0464662052691,0.190805390477,-0.00316589837894,-0.997092306614,0.00585438869894,0.0759115219116
1505356815340850730,1547,1505356815340721591,0.367448836565,0.0467061959207,0.193308457732,-0.0032485302072,-0.997075855732,0.00531687168404,0.0761645957828
1505356815350137815,1548,1505356815350010399,0.367595046759,0.046741630882,0.195718079805,-0.00326384208165,-0.99707454443,0.00574486562982,0.0761489123106
1505356815360567490,1549,1505356815360406574,0.367805272341,0.0466848239303,0.198130905628,-0.0028747273609,-0.997053861618,0.00577421160415,0.076433390379
1505356815370790526,1550,1505356815370657628,0.367902308702,0.0467279739678,0.200535699725,-0.00252546858974,-0.997053861618,0.00543670030311,0.0764706358314
1505356815380087387,1551,1505356815379854010,0.368061691523,0.0467075146735,0.203069150448,-0.00254203961231,-0.997042000294,0.00558349722996,0.0766140520573
1505356815390230775,1552,1505356815390104448,0.368710696697,0.0466181784868,0.205690816045,-0.00228816829622,-0.997177779675,0.00612930068746,0.0747906789184
1505356815400509574,1553,1505356815400337349,0.36879965663,0.0466849170625,0.208171963692,-0.0020472840406,-0.997166752815,0.00562156364322,0.0749849304557
1505356815410864728,1554,1505356815410713064,0.368918031454,0.0467438548803,0.210513472557,-0.00200559245422,-0.99714922905,0.00484450254589,0.0752728953958
1505356815420020211,1555,1505356815419893415,0.368978232145,0.0468752831221,0.21291026473,-0.00213731755503,-0.997108697891,0.00401880359277,0.0758519619703
1505356815430246104,1556,1505356815430111769,0.369050651789,0.0469326637685,0.215452760458,-0.00192177016288,-0.997052371502,0.00389337330125,0.0766008868814
1505356815440546682,1557,1505356815440371642,0.369207084179,0.0468733198941,0.21795129776,-0.00210458389483,-0.997024834156,0.00457425089553,0.0769155398011
1505356815451275043,1558,1505356815450573980,0.369405329227,0.046806178987,0.220403209329,-0.00210693455301,-0.99700397253,0.00498593179509,0.077160269022
1505356815459844156,1559,1505356815459718020,0.369596868753,0.0470642782748,0.222906634212,-0.00236263708211,-0.997023820877,0.00406431499869,0.0769515186548
1505356815470073867,1560,1505356815469935973,0.369860678911,0.0469688847661,0.225341260433,-0.00220233621076,-0.997045338154,0.00405790517107,0.0766763985157
1505356815480237738,1561,1505356815480132184,0.370081424713,0.0469590239227,0.227831766009,-0.00220301444642,-0.997024893761,0.00369147304446,0.0769600719213
1505356815491112883,1562,1505356815490332008,0.370262503624,0.046996794641,0.230344980955,-0.00239027268253,-0.997023105621,0.00357462931424,0.0769835412502
1505356815500755127,1563,1505356815500610673,0.37042799592,0.0470803119242,0.232800260186,-0.00238509755582,-0.997003555298,0.00311121018603,0.0772556513548
1505356815509928284,1564,1505356815509754334,0.370661973953,0.0470261946321,0.235279217362,-0.00246954173781,-0.99700063467,0.00366058037616,0.0772664994001
1505356815520085617,1565,1505356815519940733,0.370919913054,0.0470679588616,0.237764447927,-0.00239345012233,-0.997017860413,0.00354191148654,0.0770534947515
1505356815530437241,1566,1505356815530222402,0.371102243662,0.0473370030522,0.240179419518,-0.00247573084198,-0.997032105923,0.00249638827518,0.0769071429968
1505356815540563928,1567,1505356815540456384,0.371278733015,0.0473773889244,0.242668330669,-0.00215178495273,-0.997035264969,0.00253530172631,0.0768736749887
1505356815550893739,1568,1505356815550704524,0.371514290571,0.0472445376217,0.245026662946,-0.00202090921812,-0.997061133385,0.00331451324746,0.0765115991235
1505356815560049596,1569,1505356815559907888,0.371747672558,0.0473713353276,0.247373729944,-0.00212338473648,-0.997079074383,0.00318216555752,0.0762807503343
1505356815570398981,1570,1505356815570142176,0.372018098831,0.0473403595388,0.249806657434,-0.00260000862181,-0.997111737728,0.00377940805629,0.0758090615273
1505356815580491217,1571,1505356815580379489,0.372191399336,0.0474607162178,0.252262055874,-0.00247461954132,-0.997077047825,0.00269524008036,0.0763154923916
1505356815590996757,1572,1505356815590578631,0.372331619263,0.047519043088,0.254579722881,-0.00235260138288,-0.997089385986,0.00282726762816,0.0761525258422
1505356815599907297,1573,1505356815599778072,0.372538208961,0.0475836396217,0.256693929434,-0.00258534494787,-0.997126042843,0.00263716699556,0.0756710320711
1505356815610126751,1574,1505356815610010693,0.372728228569,0.0478919483721,0.258884370327,-0.0031196961645,-0.997161865234,0.00234156427905,0.0751868337393
1505356815620453874,1575,1505356815620287281,0.372835814953,0.0481357388198,0.26116129756,-0.00344280363061,-0.997185409069,0.00182958494406,0.0748740360141
1505356815630746559,1576,1505356815630568471,0.373146235943,0.0470557920635,0.264659017324,-0.00142475345638,-0.997046589851,0.00451633241028,0.0766528248787
1505356815640271133,1577,1505356815640136901,0.373371511698,0.0470227114856,0.266898602247,-0.00121366069652,-0.99707120657,0.00463359151036,0.0763295888901
1505356815650491548,1578,1505356815650365031,0.373473376036,0.0471770055592,0.269317358732,-0.00106052553747,-0.997075378895,0.00426599709317,0.0762983858585
1505356815660752184,1579,1505356815660614872,0.373644918203,0.0472014583647,0.271638780832,-0.00105477205943,-0.997114360332,0.00514573650435,0.0757317617536
1505356815669960819,1580,1505356815669842242,0.373871326447,0.0469219014049,0.273913532495,-0.000889160030056,-0.997130155563,0.00634217169136,0.0754345729947
1505356815680299467,1581,1505356815680057031,0.374122172594,0.0468639060855,0.276246339083,-0.000646676053293,-0.997164666653,0.00691475672647,0.0749291703105
1505356815690493842,1582,1505356815690336648,0.374490380287,0.0476011782885,0.279436796904,-1.45170542964e-05,-0.997006773949,0.00111933215521,0.0773065388203
1505356815699920298,1583,1505356815699762115,0.374760895967,0.0475076586008,0.282197326422,-0.000616831704974,-0.997022867203,0.000121971759654,0.0771039798856
1505356815710197030,1584,1505356815710019178,0.374971061945,0.0472860895097,0.284606039524,-0.000670000270475,-0.997046589851,0.00159244053066,0.0767795667052
1505356815720348317,1585,1505356815720223111,0.375210404396,0.0474487356842,0.287205725908,-0.000613310898189,-0.997056782246,0.00079842080595,0.0766597762704
1505356815730840067,1586,1505356815730431675,0.375344395638,0.0474786795676,0.289588332176,-0.000401152152335,-0.99706363678,0.000789092853665,0.076571777463
1505356815740881751,1587,1505356815740662988,0.375625342131,0.0473863482475,0.292156040668,-0.00036222091876,-0.997106254101,0.000632799288724,0.076016061008
1505356815750004955,1588,1505356815749866143,0.375862121582,0.0474684648216,0.294527977705,-0.000351617927663,-0.997153639793,0.000878406979609,0.0753896832466
1505356815760215734,1589,1505356815760085080,0.376004010439,0.0474484376609,0.297044277191,-0.000162618060131,-0.997116744518,0.00023536979279,0.0758817046881
1505356815770461698,1590,1505356815770331237,0.376048207283,0.0474181175232,0.299408704042,-0.000118754047435,-0.997080802917,0.000952757603955,0.0763473659754
1505356815780638914,1591,1505356815780527972,0.376247882843,0.0473011210561,0.301854252815,0.000227128737606,-0.997085928917,0.00125344027765,0.0762762203813
1505356815790908897,1592,1505356815790753840,0.376388221979,0.0472580976784,0.304175555706,0.000557416817173,-0.997103869915,0.00154539139476,0.0760340765119
1505356815800164271,1593,1505356815800017138,0.376596391201,0.0478493236005,0.30660572648,-0.000150923209731,-0.997103571892,-0.000119704192912,0.0760554149747
1505356815810318431,1594,1505356815810179136,0.376827925444,0.0479082167149,0.308863967657,-6.32593000773e-05,-0.997086524963,-0.00114835554268,0.0762706622481
1505356815820547756,1595,1505356815820372251,0.377057045698,0.0476897992194,0.311214625835,-0.000245245930273,-0.997125446796,-0.000181545459782,0.0757673084736
1505356815830790208,1596,1505356815830594033,0.377189189196,0.0475552342832,0.313442915678,-0.000442665448645,-0.997166514397,0.00153857795522,0.0752084553242
1505356815839934982,1597,1505356815839765779,0.377340376377,0.0474785156548,0.315591782331,-0.00035576405935,-0.997178971767,0.0019093566807,0.0750365108252
1505356815850229362,1598,1505356815850053392,0.377479612827,0.0477194562554,0.317810475826,-0.000353039358743,-0.997201323509,0.0013999188086,0.0747484713793
1505356815860486567,1599,1505356815860290024,0.377667725086,0.0477212108672,0.320141196251,-0.000610654300544,-0.99721300602,0.00185192062054,0.0745810940862
1505356815870661144,1600,1505356815870517531,0.377780556679,0.047668710351,0.322529613972,-0.00034165638499,-0.997197687626,0.00189414212946,0.0747873708606
1505356815881090339,1601,1505356815880727173,0.37793213129,0.04773279652,0.324996888638,-0.000401037745178,-0.997174918652,0.00130828295369,0.0751017183065
1505356815890039691,1602,1505356815889907931,0.378095656633,0.0477141514421,0.327437311411,-0.000833241909277,-0.997171163559,0.000799622794148,0.0751553401351
1505356815900276585,1603,1505356815900103282,0.378231912851,0.0476844385266,0.329879194498,-0.00118420599028,-0.997164607048,0.00183437298983,0.0752202048898
1505356815910533002,1604,1505356815910371849,0.37839871645,0.0477146245539,0.332384347916,-0.00101683661342,-0.997154831886,0.00152244255878,0.0753588303924
1505356815920785179,1605,1505356815920633721,0.378488212824,0.0478205010295,0.334791779518,-0.000740391551517,-0.997137606144,0.000275464961305,0.0756042897701
1505356815930141248,1606,1505356815929883920,0.378665089607,0.0479438751936,0.33723834157,-0.000818012049422,-0.997150301933,-0.000603111402597,0.0754339173436
1505356815940367398,1607,1505356815940207547,0.378956377506,0.0477516017854,0.339663505554,-0.000999375362881,-0.997159123421,0.000202162424102,0.0753160938621
1505356815950635260,1608,1505356815950483804,0.379263520241,0.0477093830705,0.3419483006,-0.00121668202337,-0.997195661068,0.00112192181405,0.0748206600547
1505356815960856786,1609,1505356815960703262,0.379556566477,0.0477267615497,0.344270020723,-0.000976494513452,-0.99722713232,0.000509667908773,0.0744099915028
1505356815970294468,1610,1505356815969953135,0.379795372486,0.0477320589125,0.346544146538,-0.00136127357837,-0.997219085693,0.000874736986589,0.074508138001
1505356815980327811,1611,1505356815980150240,0.380090236664,0.0477956943214,0.348874002695,-0.00119636650197,-0.997237920761,0.00021980573365,0.0742625147104
1505356815990496336,1612,1505356815990361706,0.380294770002,0.0478163957596,0.351262032986,-0.00101834652014,-0.997219562531,0.000576469756197,0.0745103433728
1505356816000771186,1613,1505356816000554523,0.380430340767,0.0478601008654,0.353608220816,-0.00102234771475,-0.997193872929,0.000444491801318,0.0748549774289
1505356816009840172,1614,1505356816009719045,0.380539894104,0.047946497798,0.35580894351,-0.00107973569538,-0.997180104256,-0.000210612444789,0.0750379860401
1505356816020207039,1615,1505356816019916962,0.380604058504,0.0481692180037,0.358064472675,-0.000719274161384,-0.997168421745,-0.000596565951128,0.0751950591803
1505356816030438646,1616,1505356816030225408,0.380506396294,0.0484955608845,0.360500812531,6.44327519694e-05,-0.997070193291,-0.00259991269559,0.0764476209879
1505356816040689540,1617,1505356816040445646,0.381398767233,0.0477229952812,0.363173127174,-0.00196697888896,-0.997254431248,8.37306561152e-06,0.0740254372358
1505356816050987233,1618,1505356816050628006,0.381617099047,0.0477347671986,0.365608423948,-0.00227377656847,-0.997289180756,0.000403529760661,0.0735456645489
1505356816059985294,1619,1505356816059820236,0.3818141222,0.0478836447001,0.367956638336,-0.00218546343967,-0.997316420078,-0.00072003150126,0.0731751024723
1505356816070160495,1620,1505356816069999333,0.381998211145,0.0480161458254,0.370269775391,-0.00211276346818,-0.997343122959,-0.00147793116048,0.07280151546
1505356816080304576,1621,1505356816080193921,0.382163017988,0.0478062182665,0.372640699148,-0.00240933266468,-0.997349858284,-0.000113790221803,0.0727147758007
1505356816090571942,1622,1505356816090413732,0.382360011339,0.0479796044528,0.374978810549,-0.0024670206476,-0.997338056564,-0.000864278292283,0.0728696212173
1505356816100938090,1623,1505356816100760805,0.382431298494,0.0482303202152,0.377393454313,-0.00231729983352,-0.997305452824,-0.00204519601539,0.0732963606715
1505356816110157037,1624,1505356816109998568,0.382691562176,0.0482238866389,0.379704803228,-0.00228041922674,-0.997346878052,-0.00174887909088,0.0727395415306
1505356816120437012,1625,1505356816120217905,0.382950246334,0.0478555783629,0.381991952658,-0.00218996987678,-0.997397184372,-0.000392235670006,0.0720690339804
1505356816130922084,1626,1505356816130493267,0.383162528276,0.0478474423289,0.38420137763,-0.00233229110017,-0.997429847717,-0.000336537719704,0.0716117247939
1505356816139873278,1627,1505356816139744537,0.383260130882,0.0481224581599,0.386516720057,-0.00260744127445,-0.997395396233,-0.00077292684,0.0720764026046
1505356816150117227,1628,1505356816149993284,0.38331207633,0.0481140762568,0.388872385025,-0.00250813714229,-0.997334420681,-0.000957479642238,0.0729175508022
1505356816160392619,1629,1505356816160287014,0.383395582438,0.0478162877262,0.391256123781,-0.00207497947849,-0.997313201427,0.000299182662275,0.0732252895832
1505356816170662653,1630,1505356816170508064,0.383393704891,0.0477867387235,0.393573254347,-0.00173289666418,-0.997296452522,0.000553944846615,0.0734603852034
1505356816179840094,1631,1505356816179710520,0.383571147919,0.0478161424398,0.395865380764,-0.00176290189847,-0.997293531895,0.000629654736258,0.0734990984201
1505356816190110612,1632,1505356816189968340,0.383748441935,0.0477349236608,0.398292779922,-0.00160750723444,-0.99730181694,0.000773882085923,0.073388710618
1505356816200389619,1633,1505356816200225172,0.384066253901,0.0475216768682,0.400461286306,-0.00123506516684,-0.997318327427,0.00140048644971,0.0731615573168
1505356816211862646,1634,1505356816210412933,0.38410538435,0.0475737899542,0.40293738246,-0.00109208899084,-0.997271120548,0.000664300168864,0.073814868927
1505356816220823925,1635,1505356816220651875,0.384128242731,0.0478397235274,0.405332654715,-0.00136218429543,-0.997249960899,-0.000568729417864,0.074097186327
1505356816230267659,1636,1505356816230046827,0.38430249691,0.0480919070542,0.407535493374,-0.00151311408263,-0.997270643711,-0.00164804945234,0.0737988650799
1505356816240382681,1637,1505356816240255424,0.384561419487,0.04774947837,0.409884989262,-0.00115323951468,-0.997294604778,-0.000434114277596,0.0734985098243
1505356816250683025,1638,1505356816250520355,0.384804487228,0.0476253405213,0.41216057539,-0.00129801407456,-0.997311830521,0.000270457851002,0.0732621029019
1505356816260860180,1639,1505356816260708233,0.38492244482,0.0477498136461,0.414453715086,-0.00134300079662,-0.997301459312,-0.000156785987201,0.0734030529857
1505356816270231384,1640,1505356816269932023,0.385100156069,0.0477634742856,0.416625320911,-0.00115678133443,-0.997324407101,0.000290368217975,0.0730933398008
1505356816280329504,1641,1505356816280184901,0.385267913342,0.0477728061378,0.418919891119,-0.00144334323704,-0.997306883335,-0.000199918882572,0.0733270049095
1505356816290670580,1642,1505356816290459990,0.385462254286,0.0478929504752,0.421078294516,-0.00170332367998,-0.997326076031,-0.000704623875208,0.0730564147234
1505356816300808573,1643,1505356816300660146,0.385672241449,0.0478339157999,0.423246175051,-0.0016927892575,-0.997349262238,-0.000723649689462,0.0727401897311
