%time,field.transforms0.header.seq,field.transforms0.header.stamp,field.transforms0.header.frame_id,field.transforms0.child_frame_id,field.transforms0.transform.translation.x,field.transforms0.transform.translation.y,field.transforms0.transform.translation.z,field.transforms0.transform.rotation.x,field.transforms0.transform.rotation.y,field.transforms0.transform.rotation.z,field.transforms0.transform.rotation.w
1505356812449700885,0,1505356812449490310,0.0,0.0,0.0,-0.0345587227402,-0.0474244075975,-0.394446643081,0.917043328316
1505356812450048028,0,1505356812449836445,0.395805865526,0.82890689373,0.466480791569,-0.0466756820679,-0.997569203377,-0.0200741961598,0.0476874038577
1505356812450060503,0,1505356812449847479,0.328840136528,0.0451229922473,-0.226147651672,-0.00678551290184,-0.996546983719,-0.000915104406886,0.0827485099435
1505356812454349238,0,1505356812454129297,0.0,0.0,0.0,-0.0345591365949,-0.047424106014,-0.394454645778,0.917039886085
1505356812460132721,0,1505356812460032971,0.395806103945,0.828933000565,0.466480344534,-0.0466655641794,-0.997569978237,-0.0200632363558,0.0476855561137
1505356812460153768,0,1505356812460058548,0.328829228878,0.0451733134687,-0.226115211844,-0.00683610746637,-0.996551632881,-0.00107707979623,0.0826863721013
1505356812464943248,0,1505356812464692628,0.0,0.0,0.0,-0.0345641227607,-0.0474123542846,-0.394463154477,0.917036645854
1505356812465067726,0,1505356812464717354,0.0,0.0,0.0,-0.0345725391333,-0.0474086102419,-0.39447157085,0.917032901811
1505356812469698659,0,1505356812469315708,0.0,0.0,0.0,-0.0345725391333,-0.0474086102419,-0.39447157085,0.917032901811
1505356812470503072,0,1505356812470345101,0.395810335875,0.828888833523,0.46648851037,-0.046697281301,-0.997569262981,-0.0200651995838,0.0476694628596
1505356812470520118,0,1505356812470357653,0.32882797718,0.0451653264463,-0.226063221693,-0.00679220445454,-0.996549904346,-0.00144078687299,0.082704782486
1505356812474776754,0,1505356812474335048,0.0,0.0,0.0,-0.0345725391333,-0.0474086102419,-0.39447157085,0.917032901811
1505356812479629626,0,1505356812479433359,0.0,0.0,0.0,-0.0345649502572,-0.0474117510196,-0.394479159726,0.917029761033
1505356812480809504,0,1505356812480594489,0.395809590816,0.82892614603,0.466474801302,-0.0466818474233,-0.997569382191,-0.0200450606644,0.0476890727878
1505356812480817633,0,1505356812480606684,0.328858882189,0.0452444367111,-0.226040199399,-0.00671091116965,-0.996549725533,-0.00158958730754,0.082711391151
1505356812480848761,0,1505356812480617628,0.395808935165,0.828903675079,0.466475069523,-0.0466700568795,-0.997570157051,-0.0200769864023,0.0476732179523
1505356812480855476,0,1505356812480666662,0.328909426928,0.0451696254313,-0.226030245423,-0.00690419599414,-0.996550619602,-0.00146370567381,0.0826863795519
1505356812485133112,0,1505356812484909874,0.0,0.0,0.0,-0.0345573614358,-0.0474148919298,-0.394486748547,0.917026620123
1505356812489775013,0,1505356812489380969,0.0,0.0,0.0,-0.0345497726693,-0.0474180329725,-0.394494337314,0.91702347908
1505356812498266597,0,1505356812498034226,0.0,0.0,0.0,-0.0345501864684,-0.0474177314671,-0.394502339838,0.917020036433
1505356812499582926,0,1505356812499382519,0.0,0.0,0.0,-0.0345391670114,-0.0474128650824,-0.394510020924,0.917017398721
1505356812500221017,0,1505356812500096276,0.395800322294,0.828931927681,0.466516464949,-0.046700168401,-0.997569382191,-0.0200303625315,0.0476778186858
1505356812500229561,0,1505356812500138731,0.328924834728,0.0451878085732,-0.225986331701,-0.00695456704125,-0.996552467346,-0.00148257636465,0.082659766078
1505356812504497291,0,1505356812504273942,0.0,0.0,0.0,-0.0345315783077,-0.0474160064869,-0.394517609627,0.917014257317
1505356812510609609,0,1505356812510415094,0.3958081007,0.828917741776,0.466478049755,-0.0466649569571,-0.997570216656,-0.0200724732131,0.0476780384779
1505356812510620653,0,1505356812510429787,0.328945755959,0.0451988503337,-0.226031035185,-0.00692875217646,-0.9965493083,-0.00149291218258,0.0827002301812
1505356812510680264,0,1505356812510482633,0.395809829235,0.828876435757,0.466476351023,-0.0466951727867,-0.997568964958,-0.0200523305684,0.0476825907826
1505356812510687806,0,1505356812510490364,0.328939527273,0.045102942735,-0.22607806325,-0.00687173660845,-0.996554613113,-0.00128498708364,0.0826442986727
1505356812511969977,0,1505356812511707426,0.0,0.0,0.0,-0.0345239896588,-0.0474191480239,-0.394525198276,0.91701111578
1505356812515762827,0,1505356812463270902,base_footprint,-1.1049802024,0.000314026473512,0.0,0.0,0.0,-6.98131691346e-11,1.0
1505356812516148715,0,1505356812515952103,0.0,0.0,0.0,-0.0345164010647,-0.0474222896933,-0.39453278687,0.91700797411
1505356812519624243,0,1505356812519382533,0.0,0.0,0.0,-0.034516814901,-0.0474219884791,-0.39454078926,0.917004531127
1505356812524548901,0,1505356812524371554,0.0,0.0,0.0,-0.0345088125255,-0.0474254314952,-0.39454037541,0.917004832309
1505356812530110678,0,1505356812529902164,0.39580899477,0.8289514184,0.466523677111,-0.0466914847493,-0.997569978237,-0.0200323667377,0.0476732887328
1505356812530134951,0,1505356812529915975,0.328890055418,0.0451408028603,-0.226060003042,-0.00677015492693,-0.996552884579,-0.00112353346776,0.0826759189367
1505356812536960996,0,1505356812536658325,0.0,0.0,0.0,-0.0345172287346,-0.0474216872613,-0.394548791619,0.917001088075
1505356812536969599,0,1505356812536696822,0.0,0.0,0.0,-0.0345256448783,-0.0474179428804,-0.394557207763,0.916997343694
1505356812539835293,0,1505356812539569168,0.0,0.0,0.0,-0.0345256448783,-0.0474179428804,-0.394557207763,0.916997343694
1505356812540310816,0,1505356812540149353,0.39581400156,0.828880190849,0.466451019049,-0.0466737113893,-0.997569203377,-0.0200778655708,0.04768743366
1505356812540321468,0,1505356812540160575,0.328887939453,0.0450925529003,-0.226162552834,-0.0068283979781,-0.996557116508,-0.00109025568236,0.0826196968555
1505356812541615680,0,1505356812541462952,0.21,0.0,0.0,-0.499999999999,0.500000836553,-0.499999999999,0.499999163447
1505356812541623775,0,1505356812541463074,0.0,-0.02,0.0,0.707106189653,0.707107372717,-1.18306495402e-06,-1.18306297463e-06
1505356812544937693,0,1505356812544720523,0.0,0.0,0.0,-0.0345340609567,-0.0474141983527,-0.394565623841,0.916993599166
1505356812550033288,0,1505356812549697167,0.0,0.0,0.0,-0.0345386319697,-0.0474027476963,-0.394566129995,0.916993801219
1505356812550478152,0,1505356812550368896,0.395816296339,0.828893721104,0.466490924358,-0.046670909971,-0.99757039547,-0.0200518015772,0.0476760715246
1505356812550496559,0,1505356812550382113,0.328854233027,0.0451049394906,-0.226116523147,-0.00675814412534,-0.996554374695,-0.00108900933992,0.0826588124037
1505356812554839723,0,1505356812554589329,0.0,0.0,0.0,-0.0345390456354,-0.0474024462881,-0.39457413226,0.916990357945
1505356812560811127,0,1505356812560600358,0.395807623863,0.828948378563,0.466519623995,-0.0467079654336,-0.997569441795,-0.0200038328767,0.0476805791259
1505356812560820646,0,1505356812560611386,0.328838527203,0.0451091229916,-0.226069435477,-0.00684600835666,-0.996544361115,-0.000998802366666,0.0827732607722
1505356812560825343,0,1505356812560621737,0.395814448595,0.828930199146,0.466479688883,-0.0466803349555,-0.997569680214,-0.0200450047851,0.0476856045425
1505356812560829093,0,1505356812560628872,0.32886454463,0.0450859852135,-0.22609783709,-0.00692648580298,-0.996548056602,-0.00101971090771,0.082721196115
1505356812563753596,0,1505356812563497143,0.0,0.0,0.0,-0.0345470478845,-0.0473990029774,-0.39457454591,0.9169900565
1505356812564597725,0,1505356812564354250,0.0,0.0,0.0,-0.034552032336,-0.0473872507462,-0.394583054,0.916986815077
1505356812571603206,0,1505356812571166824,0.0,0.0,0.0,-0.034552032336,-0.0473872507462,-0.394583054,0.916986815077
1505356812579240559,0,1505356812578920300,0.0,0.0,0.0,-0.0345524458665,-0.0473869492211,-0.394591056204,0.916983371655
1505356812579861842,0,1505356812579634934,0.0,0.0,0.0,-0.0345608615524,-0.0473832041641,-0.39459947189,0.916979626598
1505356812580102607,0,1505356812580020051,0.3958157897,0.828902065754,0.466509670019,-0.0466932654381,-0.9975695014,-0.0200303141028,0.0476825907826
1505356812580129854,0,1505356812580031050,0.328887820244,0.0451414510608,-0.226063802838,-0.00678747473285,-0.996555685997,-0.00127946294378,0.0826383531094
1505356812585422127,0,1505356812585146198,0.0,0.0,0.0,-0.0345574300164,-0.0473751968542,-0.39459956404,0.916980129999
1505356812590085486,0,1505356812589809517,0.0,0.0,0.0,-0.0345578434417,-0.047374895282,-0.394607566186,0.916976686433
1505356812590481253,0,1505356812590270655,0.395819664001,0.828844368458,0.466454982758,-0.0466631613672,-0.997569561005,-0.0201041791588,0.0476808212698
1505356812590495458,0,1505356812590281929,0.328924328089,0.0451045408845,-0.226082026958,-0.00684961304069,-0.996559619904,-0.00134672166314,0.0825841352344
1505356812590504282,0,1505356812590289568,0.395814716816,0.828935980797,0.466481566429,-0.0466778241098,-0.997570812702,-0.0200304761529,0.0476702861488
1505356812590509561,0,1505356812590295066,0.328929424286,0.0451634973288,-0.226048737764,-0.00686963368207,-0.996552884579,-0.00132101459894,0.0826636701822
1505356812597371083,0,1505356812597128386,0.0,0.0,0.0,-0.0345586702843,-0.0473742921266,-0.394623570389,0.916969799092
1505356812599810709,0,1505356812599578682,0.0,0.0,0.0,-0.0345476498368,-0.047369427159,-0.394631251221,0.916967160165
1505356812605028349,0,1505356812604767470,0.0,0.0,0.0,-0.0345400611924,-0.0473725695474,-0.394638839865,0.916964017777
1505356812611027599,0,1505356812610735880,0.395815104246,0.828954935074,0.466524004936,-0.0467033684254,-0.997569799423,-0.0200199019164,0.0476701259613
1505356812611039144,0,1505356812610751115,0.328933417797,0.0451635234058,-0.225993528962,-0.00691524054855,-0.996556937695,-0.00136235705577,0.0826113149524
1505356812611661259,0,1505356812611257377,0.0,0.0,0.0,-0.034535904574,-0.0473837191996,-0.394646336099,0.916960372019
1505356812615071172,0,1505356812614820908,0.0,0.0,0.0,-0.0345363180736,-0.0473834178152,-0.394654338073,0.916956928045
1505356812615973184,0,1505356812563200950,base_footprint,-1.1049802024,0.000314026473512,0.0,0.0,0.0,-6.98131691346e-11,1.0
1505356812620110080,0,1505356812619882998,0.0,0.0,0.0,-0.0345363180736,-0.0473834178152,-0.394654338073,0.916956928045
1505356812620114500,0,1505356812619958012,0.395817190409,0.828879415989,0.466458648443,-0.0466944798827,-0.99756872654,-0.0200643893331,0.0476829148829
1505356812620118191,0,1505356812619970967,0.32893127203,0.0450934320688,-0.226062655449,-0.00687862094492,-0.996562480927,-0.00122287939303,0.0825490653515
1505356812625102915,0,1505356812624813092,0.0,0.0,0.0,-0.0345367315706,-0.0473831164272,-0.394662340016,0.916953484002
1505356812630524686,0,1505356812630307202,0.395822495222,0.828908801079,0.466475129128,-0.0466674640775,-0.997570097446,-0.020053088665,0.0476846285164
1505356812630537636,0,1505356812630321957,0.328897505999,0.0451381318271,-0.226060345769,-0.00676023354754,-0.996562480927,-0.00123399391305,0.0825594216585
1505356812632242881,0,1505356812631910932,0.0,0.0,0.0,-0.0345287296406,-0.047386560504,-0.394661926506,0.916953785357
1505356812639136721,0,1505356812638837124,0.0,0.0,0.0,-0.034537145065,-0.0473828150355,-0.39467034193,0.916950039888
1505356812640692637,0,1505356812640523280,0.395811229944,0.828923106194,0.466512560844,-0.0466974414885,-0.997569441795,-0.020036553964,0.0476761758327
1505356812640702853,0,1505356812640535269,0.328889787197,0.0450749918818,-0.226009875536,-0.00686724390835,-0.996553480625,-0.00118156056851,0.0826602205634
1505356812641575099,0,1505356812641465512,0.21,0.0,0.0,-0.499999999999,0.500000836553,-0.499999999999,0.499999163447
1505356812641583712,0,1505356812641465617,0.0,-0.02,0.0,0.707106189653,0.707107372717,-1.18306495402e-06,-1.18306297463e-06
1505356812642183335,0,1505356812641999090,0.0,0.0,0.0,-0.0345375585568,-0.0473825136403,-0.394678343814,0.916946595705
1505356812645214652,0,1505356812644939002,0.0,0.0,0.0,-0.0345421281778,-0.0473710624078,-0.394678849593,0.916946797536
1505356812650062147,0,1505356812649866471,0.3958119452,0.828921079636,0.466483443975,-0.0466842539608,-0.997569322586,-0.0200505610555,0.0476855672896
1505356812650072096,0,1505356812649881130,0.328881412745,0.0451192185283,-0.226046815515,-0.00681822327897,-0.996554434299,-0.0011903133709,0.0826518684626
1505356812651916427,0,1505356812651631090,0.0,0.0,0.0,-0.0345501300469,-0.0473676181833,-0.394679262968,0.916946496064
1505356812655161064,0,1505356812654980065,0.0,0.0,0.0,-0.0345501300469,-0.0473676181833,-0.394679262968,0.916946496064
1505356812660293023,0,1505356812660136519,0.395812034607,0.828869819641,0.466463387012,-0.0466949678957,-0.997568786144,-0.0200328864157,0.047695081681
1505356812660302963,0,1505356812660149326,0.328888595104,0.0450738295913,-0.226061582565,-0.00682677328587,-0.996557354927,-0.00111634668428,0.0826165527105
1505356812665384137,0,1505356812665105731,0.0,0.0,0.0,-0.0345581319133,-0.0473641739552,-0.394679676313,0.916946194523
1505356812665388472,0,1505356812665133692,0.0,0.0,0.0,-0.0345619775496,-0.0473718793608,-0.394687585995,0.916942246935
1505356812670666806,0,1505356812670398494,0.395813316107,0.828880429268,0.466496407986,-0.0466997213662,-0.997568368912,-0.0200652536005,0.0476855188608
1505356812670677588,0,1505356812670412730,0.328886389732,0.0450668521225,-0.226013213396,-0.00683257076889,-0.996550619602,-0.0011776649626,0.0826972723007
1505356812670782220,0,1505356812670526950,0.0,0.0,0.0,-0.0345699793789,-0.0473684350601,-0.394687999378,0.91694194529
1505356812677162353,0,1505356812676926572,0.0,0.0,0.0,-0.0345703927452,-0.0473681333783,-0.394696001191,0.916938500953
1505356812680846930,0,1505356812680627110,0.395811498165,0.828965783119,0.466489583254,-0.0466740913689,-0.997569143772,-0.0200585536659,0.0476973243058
1505356812680865732,0,1505356812680639883,0.328875780106,0.0451225340366,-0.22598439455,-0.00690911523998,-0.99654096365,-0.00105592631735,0.0828085392714
1505356812680871984,0,1505356812680651005,0.395813554525,0.828898787498,0.466475188732,-0.0466971434653,-0.997568011284,-0.0200596936047,0.0476975664496
1505356812680876396,0,1505356812680678045,0.328895241022,0.0450864173472,-0.225964292884,-0.00683374889195,-0.996543288231,-0.00124024576508,0.0827842950821
1505356812682934148,0,1505356812682690267,0.0,0.0,0.0,-0.0345749621735,-0.0473566820484,-0.394696506574,0.916938702616
1505356812685660881,0,1505356812685399219,0.0,0.0,0.0,-0.0345833772055,-0.0473529358747,-0.394704921606,0.916934956442
1505356812690383737,0,1505356812690145830,0.0,0.0,0.0,-0.0345837904365,-0.047352634076,-0.394712923358,0.916931511957
1505356812695431823,0,1505356812695153509,0.0,0.0,0.0,-0.0345922053704,-0.047348887682,-0.394721338292,0.916927765563
1505356812700342293,0,1505356812700081151,0.0,0.0,0.0,-0.0345960512052,-0.0473565926438,-0.39472924807,0.916923817496
1505356812700348046,0,1505356812700230624,0.395819842815,0.828880786896,0.466485798359,-0.0466954857111,-0.997569799423,-0.0200407598168,0.0476701818407
1505356812700351665,0,1505356812700244111,0.328876584768,0.0451053641737,-0.22593395412,-0.00676458794624,-0.996540725231,-0.00130078243092,0.0828188285232
1505356812707739003,0,1505356812707393377,0.0,0.0,0.0,-0.0345994838416,-0.0473645994776,-0.39472915613,0.916923313988
1505356812710672766,0,1505356812710528971,0.395817697048,0.828912436962,0.466457813978,-0.0466890484095,-0.997568964958,-0.0200581233948,0.0476866997778
1505356812710688111,0,1505356812710561711,0.328857749701,0.0451011285186,-0.225925117731,-0.00686794379726,-0.996528744698,-0.00117518892512,0.0829577445984
1505356812710694685,0,1505356812710574168,0.395817786455,0.828939914703,0.466526627541,-0.0467080660164,-0.9975695014,-0.0200161784887,0.0476729795337
1505356812710740524,0,1505356812710581166,0.32885119319,0.0450696758926,-0.225830435753,-0.00688340142369,-0.996521711349,-0.00106775667518,0.0830419361591
1505356812711318027,0,1505356812710672206,0.0,0.0,0.0,-0.0346067625791,-0.0473803111354,-0.3947369738,0.916918862068
1505356812715540225,0,1505356812715293611,0.0,0.0,0.0,-0.0346216295898,-0.0473928799878,-0.394737203296,0.916917552469
1505356812716221671,0,1505356812663227081,base_footprint,-1.1049802024,0.000314026473512,0.0,0.0,0.0,-6.98131691346e-11,1.0
1505356812720753340,0,1505356812720507060,0.0,0.0,0.0,-0.0346330638879,-0.0473974420415,-0.394737524906,0.916916746387
1505356812725483417,0,1505356812725219265,0.0,0.0,0.0,-0.0346449118312,-0.0474017017576,-0.394745848182,0.916912495333
1505356812730133840,0,1505356812729951837,0.395815044641,0.828900456429,0.466494202614,-0.0466976538301,-0.9975695014,-0.0200348496437,0.0476768128574
1505356812730145356,0,1505356812729964089,0.328822642565,0.0450807027519,-0.225811481476,-0.00676446035504,-0.996515631676,-0.00115255184937,0.0831237137318
1505356812731071697,0,1505356812730694734,0.0,0.0,0.0,-0.0346563461411,-0.0474062637003,-0.394746169945,0.916911688849
1505356812740372606,0,1505356812740221707,0.395814448595,0.828849434853,0.466432452202,-0.046695958823,-0.99756783247,-0.0200754385442,0.0476958043873
1505356812740381483,0,1505356812740234690,0.328835785389,0.0450891293585,-0.225832223892,-0.00676467968151,-0.996522784233,-0.00126124185044,0.0830365493894
1505356812741268969,0,1505356812741010673,0.0,0.0,0.0,-0.0346567598374,-0.0474059612648,-0.394754171494,0.916908244004
1505356812741557620,0,1505356812741042070,0.0,0.0,0.0,-0.0346571735312,-0.0474056588257,-0.394762173012,0.916904799089
1505356812741674571,0,1505356812741589557,0.21,0.0,0.0,-0.499999999999,0.500000836553,-0.499999999999,0.499999163447
1505356812741681477,0,1505356812741589680,0.0,-0.02,0.0,0.707106189653,0.707107372717,-1.18306495402e-06,-1.18306297463e-06
1505356812745657418,0,1505356812745423110,0.0,0.0,0.0,-0.0346541542725,-0.047397349721,-0.394770266395,0.916901858217
1505356812750631927,0,1505356812750434153,0.39581438899,0.828895807266,0.466488957405,-0.0466944091022,-0.997569262981,-0.0200470127165,0.0476779341698
1505356812750646505,0,1505356812750446304,0.328855782747,0.0450410954654,-0.225730583072,-0.00680563552305,-0.996537208557,-0.00105053989682,0.0828621312976
1505356812751065452,0,1505356812750738673,0.0,0.0,0.0,-0.0346541542725,-0.047397349721,-0.394770266395,0.916901858217
1505356812755758606,0,1505356812755542601,0.0,0.0,0.0,-0.0346545678911,-0.0473970473046,-0.394778267858,0.916898413162
1505356812760802153,0,1505356812760664725,0.395806968212,0.828938126564,0.466489613056,-0.046720482409,-0.997567713261,-0.0200133211911,0.0477004237473
1505356812760810571,0,1505356812760676887,0.328868120909,0.0450315959752,-0.225609570742,-0.00669118622318,-0.996543049812,-0.000737230060622,0.0828050151467
1505356812764256238,0,1505356812764048132,0.0,0.0,0.0,-0.0346469800877,-0.047400190043,-0.394785855661,0.916895270423
1505356812770119501,0,1505356812769877593,0.395818501711,0.828937768936,0.466483622789,-0.0466904528439,-0.997569262981,-0.0200409777462,0.047685906291
1505356812770155376,0,1505356812769889609,0.328949838877,0.0449635572731,-0.225484549999,-0.00668625952676,-0.996571540833,-0.000180907576578,0.0824650377035
1505356812771234784,0,1505356812770691533,0.0,0.0,0.0,-0.0346439605646,-0.0473918811143,-0.394793949013,0.916892329242
1505356812771254348,0,1505356812770727579,0.0,0.0,0.0,-0.0346443741355,-0.0473915787869,-0.394801950393,0.91688888398
1505356812775737330,0,1505356812775467052,0.0,0.0,0.0,-0.0346409408966,-0.0473835722383,-0.394802042314,0.91688938792
1505356812780212575,0,1505356812780079589,0.395826280117,0.828869342804,0.46648183465,-0.0466927886009,-0.997569561005,-0.0200426094234,0.0476783029735
1505356812780220988,0,1505356812780122055,0.32900249958,0.044900495559,-0.22530220449,-0.00665298011154,-0.996585190296,-0.000333229661919,0.0823017880321
1505356812780744414,0,1505356812780445052,0.0,0.0,0.0,-0.0346413543949,-0.0473832699372,-0.394810043669,0.916885942587
1505356812789899113,0,1505356812789517512,0.0,0.0,0.0,-0.0346417678906,-0.0473829676326,-0.394818044993,0.916882497185
1505356812790453744,0,1505356812790312485,0.395823448896,0.828897416592,0.466462284327,-0.046688709408,-0.9975695014,-0.0200509801507,0.0476789996028
1505356812790482107,0,1505356812790324429,0.329056799412,0.0450110882521,-0.225126802921,-0.00661959312856,-0.99659216404,-0.000814501545392,0.0822163596749
1505356812790823694,0,1505356812790558896,0.0,0.0,0.0,-0.0346421813837,-0.0473826653243,-0.394826046287,0.916879051712
1505356812798411935,0,1505356812798175854,0.0,0.0,0.0,-0.0346505961219,-0.0473789174336,-0.394834461025,0.916875303822
1505356812800742766,0,1505356812800594146,0.395822674036,0.828913271427,0.46647337079,-0.0466911494732,-0.99756860733,-0.0200602505356,0.0476897954941
1505356812800754651,0,1505356812800607194,0.329125523567,0.0451005659997,-0.224949628115,-0.00675001880154,-0.996606588364,-0.00140762154479,0.0820224359632
1505356812804679207,0,1505356812804385275,0.0,0.0,0.0,-0.0346590107947,-0.047375169396,-0.394842875698,0.916871555784
1505356812806114543,0,1505356812805816315,0.0,0.0,0.0,-0.0346670120071,-0.0473717237401,-0.394843289109,0.916871253292
1505356812811386097,0,1505356812811002779,0.0,0.0,0.0,-0.0346670120071,-0.0473717237401,-0.394843289109,0.916871253292
1505356812815517283,0,1505356812763247966,base_footprint,-1.1039802024,0.000314026473373,0.0,0.0,0.0,-6.98131691346e-11,1.0
1505356812815810133,0,1505356812815619207,0.0,0.0,0.0,-0.0346594242197,-0.0473748669373,-0.394850876897,0.916868110095
1505356812820927752,0,1505356812820750489,0.0,0.0,0.0,-0.0346548566885,-0.047386319029,-0.394850371581,0.916867908556
1505356812825739604,0,1505356812825519530,0.0,0.0,0.0,-0.0346472690577,-0.0473894623941,-0.394857959211,0.916864765191
1505356812831038428,0,1505356812830614636,0.0,0.0,0.0,-0.0346396814817,-0.0473926058916,-0.394865546787,0.916861621693
1505356812836698263,0,1505356812836462499,0.0,0.0,0.0,-0.0346400950589,-0.0473923036015,-0.394873547899,0.916858175806
1505356812841593698,0,1505356812841424286,0.21,0.0,0.0,-0.499999999999,0.500000836553,-0.499999999999,0.499999163447
1505356812841610423,0,1505356812841424522,0.0,-0.02,0.0,0.707106189653,0.707107372717,-1.18306495402e-06,-1.18306297463e-06
1505356812842870630,0,1505356812842665662,0.0,0.0,0.0,-0.0346325075652,-0.0473954472977,-0.394881135393,0.91685503211
1505356812846011723,0,1505356812845739380,0.0,0.0,0.0,-0.0346245064943,-0.0473988932838,-0.394880721775,0.916855334301
1505356812851656815,0,1505356812850791947,0.0,0.0,0.0,-0.0346249201264,-0.0473985911262,-0.394888722832,0.916851888282
1505356812857695742,0,1505356812857443411,0.0,0.0,0.0,-0.0346173327425,-0.0474017350872,-0.394896310216,0.916848744321
1505356812859825949,0,1505356812859709125,0.395821452141,0.82889765501,0.466484874487,-0.0466939434409,-0.997569024563,-0.0200292058289,0.0476926378906
1505356812859875718,0,1505356812859724336,0.329211741686,0.0445665232837,-0.222680747509,-0.00648430455476,-0.996587395668,0.000614095013589,0.0822863504291
1505356812864636764,0,1505356812864378722,0.0,0.0,0.0,-0.0346173327425,-0.0474017350872,-0.394896310216,0.916848744321
1505356812868088834,0,1505356812867770877,0.0,0.0,0.0,-0.0346177463993,-0.0474014329922,-0.394904311215,0.916845298165
1505356812870101445,0,1505356812869966127,0.39581951499,0.828880012035,0.466486632824,-0.0466778315604,-0.997569739819,-0.0200634412467,0.04767825827
1505356812870111677,0,1505356812869979504,0.329224139452,0.0447742752731,-0.222237378359,-0.00665919063613,-0.99658793211,-0.000292426644592,0.0822680070996
1505356812871502404,0,1505356812871204322,0.0,0.0,0.0,-0.0346261610068,-0.0473976846317,-0.394912725823,0.916841549805
1505356812876183864,0,1505356812875953762,0.0,0.0,0.0,-0.0346307277314,-0.0473862322387,-0.394913231553,0.916841751468
1505356812880289348,0,1505356812880157357,0.395815402269,0.828903138638,0.466457664967,-0.0467062667012,-0.997567713261,-0.0200655627996,0.0476920343935
1505356812880305125,0,1505356812880166768,0.329286724329,0.0448638945818,-0.221804723144,-0.00682431878522,-0.996603190899,-0.000506986689288,0.0820684656501
1505356812881158314,0,1505356812880952540,0.0,0.0,0.0,-0.034631141253,-0.0473859300268,-0.394921232491,0.916838305165
1505356812886727740,0,1505356812886263023,0.0,0.0,0.0,-0.0346391421753,-0.0473824836871,-0.394921645997,0.916838002917
1505356812890548632,0,1505356812890372407,0.395815461874,0.828936338425,0.466523528099,-0.04669367522,-0.997569918633,-0.0200352706015,0.0476714372635
1505356812890558372,0,1505356812890385971,0.329277843237,0.0450511574745,-0.221207514405,-0.00687678391114,-0.99657946825,-0.00101317837834,0.0823468640447
1505356812890561919,0,1505356812890396842,0.395812988281,0.828890681267,0.466478735209,-0.0466837435961,-0.997569382191,-0.0200691502541,0.0476795583963
1505356812890565499,0,1505356812890439598,0.329297244549,0.0450905077159,-0.22071325779,-0.00693027768284,-0.996568918228,-0.00107306044083,0.082470446825
1505356812892443127,0,1505356812892189249,0.0,0.0,0.0,-0.0346475565536,-0.0473787349886,-0.394930060375,0.916834254218
1505356812897591768,0,1505356812897362745,0.0,0.0,0.0,-0.0346559708666,-0.0473749861433,-0.394938474688,0.916830505373
1505356812900839052,0,1505356812900671914,0.395829439163,0.828899085522,0.466457158327,-0.0466716364026,-0.997569739819,-0.0200650226325,0.0476853698492
1505356812900846826,0,1505356812900682246,0.329371094704,0.0451647303998,-0.220208615065,-0.00691773975268,-0.996564686298,-0.00127292796969,0.0825192257762
1505356812902715162,0,1505356812902495857,0.0,0.0,0.0,-0.0346643851141,-0.0473712371511,-0.394946888935,0.916826756381
1505356812906068289,0,1505356812905895551,0.0,0.0,0.0,-0.0346613639446,-0.047362928661,-0.394954981578,0.916823813699
1505356812911634142,0,1505356812911413334,0.0,0.0,0.0,-0.0346613639446,-0.047362928661,-0.394954981578,0.916823813699
1505356812915817518,0,1505356812863257884,base_footprint,-1.0999802024,0.000314026472814,0.0,0.0,0.0,-6.98131691346e-11,1.0
1505356812916479489,0,1505356812916277671,0.0,0.0,0.0,-0.0346537764945,-0.0473660728822,-0.394962569028,0.916820669478
1505356812920196797,0,1505356812920063659,0.395818591118,0.82893204689,0.466519027948,-0.0467101149261,-0.997569024563,-0.0200143679976,0.0476819425821
1505356812920204408,0,1505356812920076906,0.329456180334,0.0450655147433,-0.219619184732,-0.00699518620968,-0.996580839157,-0.000728811370209,0.082323551178
1505356812921583045,0,1505356812921119171,0.0,0.0,0.0,-0.0346423410819,-0.0473615136225,-0.394962247614,0.916821475638
1505356812928912263,0,1505356812928582442,0.0,0.0,0.0,-0.0346427543878,-0.0473612113092,-0.394970248376,0.916818028907
1505356812930492642,0,1505356812930321178,0.395822674036,0.828909635544,0.466492146254,-0.0466987192631,-0.997569918633,-0.0200318116695,0.0476677790284
1505356812930503856,0,1505356812930333875,0.329553663731,0.0450369790196,-0.219143927097,-0.0070379814133,-0.996599793434,-0.000679658958688,0.082090318203
1505356812930513041,0,1505356812930344294,0.395820766687,0.828873813152,0.46646553278,-0.0466845184565,-0.997568905354,-0.0200831089169,0.0476810634136
1505356812930519225,0,1505356812930387773,0.329612135887,0.0450226962566,-0.218655601144,-0.00694652413949,-0.99660885334,-0.000598364218604,0.081988632679
1505356812935379785,0,1505356812935071164,0.0,0.0,0.0,-0.0346317321848,-0.0473563499267,-0.394977927788,0.916815388073
1505356812936756383,0,1505356812936593093,0.0,0.0,0.0,-0.0346321454456,-0.047356047706,-0.394985928496,0.916811941206
1505356812941551050,0,1505356812941463069,0.21,0.0,0.0,-0.499999999999,0.500000836553,-0.499999999999,0.499999163447
1505356812941559268,0,1505356812941463193,0.0,-0.02,0.0,0.707106189653,0.707107372717,-1.18306495402e-06,-1.18306297463e-06
1505356812945871075,0,1505356812945451945,0.0,0.0,0.0,-0.0346325587038,-0.0473557454817,-0.394993929175,0.916808494268
1505356812946603586,0,1505356812946381814,0.0,0.0,0.0,-0.0346409725913,-0.0473519962099,-0.395002343062,0.916804744996
1505356812950013212,0,1505356812949730857,0.395824044943,0.828863501549,0.466486126184,-0.0466890223324,-0.997569203377,-0.0200641341507,0.0476785600185
1505356812950022896,0,1505356812949744756,0.329724639654,0.0448523312807,-0.218064039946,-0.00697589013726,-0.99661397934,-7.25316276657e-05,0.0819260627031
1505356812951668674,0,1505356812951400265,0.0,0.0,0.0,-0.0346413858141,-0.0473516939086,-0.395010343678,0.916801297916
1505356812956487660,0,1505356812956199086,0.0,0.0,0.0,-0.0346497996035,-0.0473479444165,-0.395018757468,0.916797548424
1505356812960054652,0,1505356812959951054,0.39581823349,0.828936994076,0.466478258371,-0.0466946959496,-0.997569203377,-0.0200399849564,0.047683659941
1505356812960086378,0,1505356812959960320,0.329799771309,0.0449948981404,-0.217573031783,-0.00710283312947,-0.996599316597,-0.000171395688085,0.0820935741067
1505356812964991901,0,1505356812964490331,0.0,0.0,0.0,-0.0346532347323,-0.0473559501676,-0.395018665588,0.916797044685
1505356812968824081,0,1505356812967333231,0.0,0.0,0.0,-0.0346536479896,-0.0473556477593,-0.395026666137,0.916793597462
1505356812970357877,0,1505356812970195187,0.395813465118,0.828942477703,0.466486781836,-0.046705648303,-0.997568488121,-0.0200345143676,0.0476894825697
1505356812970401706,0,1505356812970209065,0.329756349325,0.0448688566685,-0.216989949346,-0.00673303566873,-0.996557950974,-0.000311504903948,0.0826240628958
1505356812971886395,0,1505356812971537617,0.0,0.0,0.0,-0.0346506259757,-0.0473473396562,-0.395034758543,0.916790653906
1505356812976444448,0,1505356812976281443,0.0,0.0,0.0,-0.0346506259757,-0.0473473396562,-0.395034758543,0.916790653906
1505356812980605271,0,1505356812980448440,0.395819932222,0.828878343105,0.466503232718,-0.0467103645205,-0.997569024563,-0.0200314950198,0.0476748049259
1505356812980612545,0,1505356812980461155,0.329786211252,0.0448158197105,-0.216477811337,-0.00670504523441,-0.996555507183,-0.000213507126318,0.0826556459069
1505356812980615769,0,1505356812980481873,0.395813524723,0.828909277916,0.466472893953,-0.0466985590756,-0.997569262981,-0.0200512874871,0.0476735681295
1505356812980618951,0,1505356812980489041,0.329846829176,0.0448495969176,-0.21596327424,-0.00669806916267,-0.99657022953,-5.10934296472e-05,0.0824799612164
1505356812981778522,0,1505356812981449702,0.0,0.0,0.0,-0.0346476038168,-0.0473390316059,-0.395042850898,0.916787710209
1505356812987012250,0,1505356812986575737,0.0,0.0,0.0,-0.0346400164732,-0.0473421767139,-0.395050438242,0.916784565101
1505356812990863789,0,1505356812990692489,0.395811676979,0.828896582127,0.466486632824,-0.0467043742537,-0.997568368912,-0.0200539249927,0.0476851649582
1505356812990879116,0,1505356812990705554,0.329884439707,0.0446849837899,-0.215362012386,-0.0067433542572,-0.996575534344,0.000595415884163,0.0824105143547
1505356812997641748,0,1505356812997242550,0.0,0.0,0.0,-0.0346324291845,-0.0473453219544,-0.395058025531,0.916781419861
1505356812998550767,0,1505356812998150014,0.0,0.0,0.0,-0.0346248419507,-0.0473484673273,-0.395065612765,0.916778274488
1505356813001950513,0,1505356813001685198,0.0,0.0,0.0,-0.0346252551427,-0.0473481651668,-0.395073613149,0.916774826855
1505356813006853312,0,1505356813006481076,0.0,0.0,0.0,-0.0346142322806,-0.047343305223,-0.395081292435,0.916772184756
1505356813010265465,0,1505356813010138231,0.395810455084,0.82890355587,0.466498851776,-0.0466956011951,-0.997569441795,-0.0200458280742,0.0476738661528
1505356813010279573,0,1505356813010150498,0.329927414656,0.0447113737464,-0.21477997303,-0.00663414876908,-0.996593117714,0.000742228119634,0.0822042897344
1505356813012064961,0,1505356813011731862,0.0,0.0,0.0,-0.0346142322806,-0.047343305223,-0.395081292435,0.916772184756
1505356813016029093,0,1505356812963242053,base_footprint,-1.0939802024,0.000314026471977,0.0,0.0,0.0,-6.98131691346e-11,1.0
1505356813017900902,0,1505356813017597074,0.0,0.0,0.0,-0.0346032093223,-0.0473384454697,-0.395088971783,0.916769542393
1505356813020518093,0,1505356813020376742,0.395812869072,0.828909754753,0.466466873884,-0.0467199608684,-0.99756783247,-0.0200346726924,0.0476880185306
1505356813020545302,0,1505356813020404347,0.329974234104,0.0448610037565,-0.214283168316,-0.00655793165788,-0.996587455273,0.000354733114364,0.0822815522552
1505356813020550779,0,1505356813020416228,0.395816504955,0.828883349895,0.466490358114,-0.0466955713928,-0.997569024563,-0.0200791470706,0.0476691536605
1505356813020555246,0,1505356813020423286,0.330127984285,0.0450538769364,-0.213683784008,-0.00701628252864,-0.996592819691,-0.000606976391282,0.0821773931384
1505356813021588850,0,1505356813021337432,0.0,0.0,0.0,-0.0345956221321,-0.0473415913677,-0.395096558974,0.916766396495
1505356813030878387,0,1505356813030558380,0.0,0.0,0.0,-0.0345876218348,-0.0473450392338,-0.395096145825,0.916766698364
1505356813032155627,0,1505356813031908013,0.0,0.0,0.0,-0.0345800347269,-0.0473481853303,-0.395103732933,0.916763552268
1505356813037189790,0,1505356813036975056,0.0,0.0,0.0,-0.0345800347269,-0.0473481853303,-0.395103732933,0.916763552268
1505356813040025779,0,1505356813039869749,0.395811289549,0.828919529915,0.46650660038,-0.0466943234205,-0.997569799423,-0.0200323108584,0.0476753413677
1505356813040034342,0,1505356813039881023,0.330245047808,0.0453687086701,-0.213151276112,-0.00754928542301,-0.99659049511,-0.00168908957858,0.0821434259415
1505356813041618655,0,1505356813041469808,0.21,0.0,0.0,-0.499999999999,0.500000836553,-0.499999999999,0.499999163447
1505356813041628063,0,1505356813041469986,0.0,-0.02,0.0,0.707106189653,0.707107372717,-1.18306495402e-06,-1.18306297463e-06
1505356813041910087,0,1505356813041700123,0.0,0.0,0.0,-0.034572447674,-0.0473513315593,-0.395111319986,0.916760406039
1505356813047833855,0,1505356813047571852,0.0,0.0,0.0,-0.0345690116568,-0.0473433261608,-0.395111412426,0.916760909219
1505356813050218751,0,1505356813050065477,0.395812213421,0.828915476799,0.466463983059,-0.0467044189572,-0.997568428516,-0.0200568772852,0.0476840026677
1505356813050262604,0,1505356813050076955,0.330298244953,0.0453653372824,-0.212565913796,-0.00770049449056,-0.996570646763,-0.00151844904758,0.0823736190796
1505356813052041523,0,1505356813051612903,0.0,0.0,0.0,-0.0345614245845,-0.047346472553,-0.395118999499,0.916757762826
1505356813056868748,0,1505356813056482908,0.0,0.0,0.0,-0.0345542507693,-0.0473493175367,-0.395134586694,0.916751168137
1505356813064182405,0,1505356813063938498,0.0,0.0,0.0,-0.0345542507693,-0.0473493175367,-0.395134586694,0.916751168137
1505356813068535916,0,1505356813068103611,0.0,0.0,0.0,-0.0345546639687,-0.0473490159922,-0.395142586842,0.916747719902
1505356813072057923,0,1505356813071743572,0.0,0.0,0.0,-0.0345466638343,-0.04735246426,-0.395142173629,0.916748021414
1505356813078881021,0,1505356813078589494,0.0,0.0,0.0,-0.0345390769543,-0.0473556111157,-0.395149760509,0.916744874558
1505356813082068182,0,1505356813081869327,0.0,0.0,0.0,-0.0345310768447,-0.047359059446,-0.395149347239,0.916745175933
1505356813087085611,0,1505356813086835373,0.0,0.0,0.0,-0.034531903411,-0.0473584567578,-0.3951653474,0.916738279137
1505356813091967066,0,1505356813091721676,0.0,0.0,0.0,-0.0345243166683,-0.0473616039445,-0.395172934143,0.91673513195
1505356813099054083,0,1505356813098870774,0.0,0.0,0.0,-0.0345281666473,-0.047369307785,-0.395180841252,0.916731180388
1505356813102119996,0,1505356813101856414,0.0,0.0,0.0,-0.0345285800212,-0.0473690064681,-0.395188841225,0.91672773175
1505356813107163155,0,1505356813106818138,0.0,0.0,0.0,-0.0345320167607,-0.0473770115582,-0.395188748292,0.916727228688
1505356813110399682,0,1505356813110232512,0.395813256502,0.828892350197,0.466468125582,-0.0466827191412,-0.9975695014,-0.0200670622289,0.0476775467396
1505356813110408589,0,1505356813110245110,0.330527067184,0.0451140552759,-0.207816585898,-0.00705116149038,-0.996518611908,-0.000496645108797,0.083070024848
1505356813112404738,0,1505356813111991562,0.0,0.0,0.0,-0.034538890232,-0.0473930217277,-0.395188562334,0.916726222355
1505356813116345514,0,1505356813063246011,base_footprint,-1.0889802024,0.000314026471278,0.0,0.0,0.0,-6.98131691346e-11,1.0
1505356813117223403,0,1505356813116938098,0.0,0.0,0.0,-0.0345423269637,-0.047401026807,-0.39518846931,0.916725719084
1505356813120600900,0,1505356813120451480,0.395809203386,0.828929662704,0.466516703367,-0.0466986708343,-0.997569084167,-0.0200351439416,0.0476838387549
1505356813120612485,0,1505356813120462082,0.330669790506,0.0454035773873,-0.206935197115,-0.00765631068498,-0.996501505375,-0.00100193836261,0.083217844367
1505356813121994013,0,1505356813121767566,0.0,0.0,0.0,-0.0345461774132,-0.0474087304123,-0.395196376177,0.916721767039
1505356813129934767,0,1505356813129667546,0.0,0.0,0.0,-0.0345385912534,-0.0474118777452,-0.395203962337,0.916718619706
1505356813130991477,0,1505356813130590165,0.395810425282,0.828942239285,0.46649518609,-0.0466832965612,-0.997569799423,-0.0200435929,0.0476810671389
1505356813131025657,0,1505356813130601741,0.330658733845,0.0450684949756,-0.206074014306,-0.00665207626298,-0.99648720026,-0.000215404725168,0.0834796577692
1505356813131030728,0,1505356813130625652,0.395814985037,0.828886032104,0.466481477022,-0.0466905012727,-0.997569680214,-0.0200439020991,0.0476753637195
1505356813131034906,0,1505356813130634507,0.330800145864,0.0450333952904,-0.205338805914,-0.00652850884944,-0.996522426605,-0.000162554671988,0.0830686166883
1505356813132428151,0,1505356813132217985,0.0,0.0,0.0,-0.0345310051484,-0.0474150252105,-0.395211548442,0.916715472241
1505356813137160358,0,1505356813136939373,0.0,0.0,0.0,-0.0345314189212,-0.0474147238688,-0.395219548279,0.916712023334
1505356813141642634,0,1505356813141467911,0.21,0.0,0.0,-0.499999999999,0.500000836553,-0.499999999999,0.499999163447
1505356813141650765,0,1505356813141468129,0.0,-0.02,0.0,0.707106189653,0.707107372717,-1.18306495402e-06,-1.18306297463e-06
1505356813143545295,0,1505356813143258156,0.0,0.0,0.0,-0.0345352697759,-0.0474224274441,-0.39522745484,0.916708071012
1505356813150383107,0,1505356813150206628,0.395816832781,0.828871011734,0.466503411531,-0.046668227762,-0.997570514679,-0.0200705397874,0.0476692058146
1505356813150394636,0,1505356813150225482,0.330556422472,0.0450861826539,-0.204692557454,-0.00645188242197,-0.996440172195,-0.000179466587724,0.0840564072132
1505356813151563640,0,1505356813151209234,0.0,0.0,0.0,-0.0345352697759,-0.0474224274441,-0.39522745484,0.916708071012
1505356813152081461,0,1505356813151912714,0.0,0.0,0.0,-0.0345272699876,-0.0474258764524,-0.395227040986,0.916708372354
1505356813157103910,0,1505356813156915032,0.0,0.0,0.0,-0.0345352697759,-0.0474224274441,-0.39522745484,0.916708071012
1505356813160607769,0,1505356813160452017,0.395806282759,0.828913152218,0.466469615698,-0.0466963760555,-0.997568905354,-0.0200534146279,0.0476815886796
1505356813160616453,0,1505356813160462948,0.330574899912,0.0451485067606,-0.20399338007,-0.00654318509623,-0.996410965919,0.000303548004013,0.0843932405114
1505356813160620486,0,1505356813160470658,0.395802795887,0.828926503658,0.466492950916,-0.0467146858573,-0.997568309307,-0.0200136937201,0.0476930066943
1505356813160624984,0,1505356813160476423,0.330644130707,0.0452782809734,-0.203193113208,-0.00708067417145,-0.996367990971,0.000569405325223,0.0848548337817
1505356813164180981,0,1505356813163917481,0.0,0.0,0.0,-0.0345356836134,-0.0474221260652,-0.395235454612,0.916704621967
1505356813167238779,0,1505356813166991730,0.0,0.0,0.0,-0.0345440971737,-0.0474183755311,-0.395243868172,0.916700871432
1505356813170969486,0,1505356813170716419,0.395811259747,0.828911423683,0.466497927904,-0.0466741323471,-0.997569143772,-0.0200778059661,0.0476882643998
1505356813170979704,0,1505356813170730480,0.330663025379,0.0453160814941,-0.202403828502,-0.007200287655,-0.996334731579,0.000419587449869,0.0852357894182
1505356813173787920,0,1505356813173552389,0.0,0.0,0.0,-0.0345440971737,-0.0474183755311,-0.395243868172,0.916700871432
1505356813177439437,0,1505356813177071120,0.0,0.0,0.0,-0.0345365112803,-0.0474215232966,-0.395251454065,0.916697723667
1505356813182444411,0,1505356813182153351,0.0,0.0,0.0,-0.0345285115823,-0.0474249725144,-0.395251040219,0.91669802502
1505356813187891887,0,1505356813187603406,0.0,0.0,0.0,-0.0345125121782,-0.0474318709392,-0.395250212437,0.916698627517
1505356813190332965,0,1505356813190151749,0.395813345909,0.828885614872,0.466454446316,-0.046688772738,-0.997568786144,-0.0200661793351,0.0476879142225
1505356813190344859,0,1505356813190165569,0.330750256777,0.0452849455178,-0.201618343592,-0.00697444658726,-0.99634873867,0.000331682647811,0.0850906744599
1505356813192870182,0,1505356813192543842,0.0,0.0,0.0,-0.0345014890407,-0.0474270142384,-0.395257891736,0.916695982643
1505356813198200589,0,1505356813197852153,0.0,0.0,0.0,-0.0345019029182,-0.0474267131543,-0.395265891403,0.916692533333
1505356813200495406,0,1505356813200344672,0.395806282759,0.82891201973,0.466504305601,-0.0466879196465,-0.997570097446,-0.0200368873775,0.0476726256311
1505356813200531466,0,1505356813200356528,0.330816239119,0.0450565367937,-0.20062494278,-0.00598657270893,-0.996395349503,0.000495867803693,0.0846181213856
1505356813200537632,0,1505356813200367945,0.395802170038,0.828931868076,0.466502487659,-0.0467028357089,-0.997568488121,-0.0200447961688,0.0476866103709
1505356813200636834,0,1505356813200410247,0.330857992172,0.0451073348522,-0.199722036719,-0.00583853106946,-0.996424973011,0.000391231791582,0.0842789486051
1505356813203814244,0,1505356813203549661,0.0,0.0,0.0,-0.0344943171703,-0.0474298614802,-0.39527347715,0.916689385007
1505356813207657758,0,1505356813207263717,0.0,0.0,0.0,-0.0344867314774,-0.0474330099385,-0.395281062843,0.916686236549
1505356813210925093,0,1505356813210685000,0.395809352398,0.828887999058,0.466448962688,-0.0467067249119,-0.99756783247,-0.0200655758381,0.0476878844202
1505356813210936240,0,1505356813210696928,0.331242769957,0.0450255535543,-0.198745727539,-0.00641398830339,-0.996476113796,0.000103651858808,0.0836315751076
1505356813211963459,0,1505356814196485996,base_link,left_wheel_link,0.0,0.13,0.015,0.0,0.0,0.0,1.0,0,1505356814196485996,base_link,right_wheel_link,0.0,-0.13,0.015,0.0,0.0,0.0,1.0
1505356813212476824,0,1505356813212237997,0.0,0.0,0.0,-0.0344787318796,-0.0474364594147,-0.395280648897,0.916686537467
1505356813215622204,0,1505356813163336038,base_footprint,-1.0799802024,0.000314026470022,0.0,0.0,0.0,-6.98131691346e-11,1.0
1505356813217779635,0,1505356813217110521,0.0,0.0,0.0,-0.0344745839476,-0.0474476127456,-0.395288140668,0.91668288571
1505356813222610539,0,1505356813222315679,0.0,0.0,0.0,-0.0344749980048,-0.0474473118963,-0.39529614022,0.916679436135
1505356813230284506,0,1505356813230093556,0.395803719759,0.82891112566,0.466496676207,-0.0466846749187,-0.997569441795,-0.0200559087098,0.0476827435195
1505356813230306963,0,1505356813230107176,0.331336557865,0.0450273379683,-0.197694167495,-0.00650483556092,-0.996450901031,-0.000147095284774,0.083924151957
1505356813231280712,0,1505356813230907782,0.0,0.0,0.0,-0.0344669984663,-0.0474507615041,-0.395295726149,0.916679736952
1505356813232614814,0,1505356813232383041,0.0,0.0,0.0,-0.0344559752131,-0.0474459057826,-0.395303405564,0.916677091099
1505356813237642637,0,1505356813237408960,0.0,0.0,0.0,-0.0344563892554,-0.0474456050957,-0.395311405065,0.916673641391
1505356813240499628,0,1505356813240370631,0.395811855793,0.828911364079,0.466499835253,-0.0467020347714,-0.997568905354,-0.0200394783169,0.0476829074323
1505356813240510287,0,1505356813240382010,0.331434845924,0.0449789091945,-0.196686327457,-0.00650171376765,-0.996440410614,4.13294874306e-05,0.0840487405658
1505356813240515617,0,1505356813240392207,0.395818293095,0.828897535801,0.466465622187,-0.0466849282384,-0.997569561005,-0.0200551468879,0.0476790256798
1505356813240621632,0,1505356813240418894,0.331535547972,0.0448137186468,-0.195684820414,-0.00641762977466,-0.996455729008,0.000806352472864,0.0838698372245
1505356813241579642,0,1505356813241463316,0.21,0.0,0.0,-0.499999999999,0.500000836553,-0.499999999999,0.499999163447
1505356813241630330,0,1505356813241463416,0.0,-0.02,0.0,0.707106189653,0.707107372717,-1.18306495402e-06,-1.18306297463e-06
1505356813242742666,0,1505356813242493033,0.0,0.0,0.0,-0.0344488038373,-0.047448754216,-0.395318990484,0.916670492271
1505356813250956483,0,1505356813250769558,0.395818144083,0.828908622265,0.466498941183,-0.0466665923595,-0.997570097446,-0.0200699139386,0.0476795956492
1505356813250971721,0,1505356813250784758,0.331668138504,0.0447433590889,-0.194577082992,-0.00644783349708,-0.99647128582,0.00163944566157,0.0836692899466
1505356813254078043,0,1505356813253571584,0.0,0.0,0.0,-0.0344488038373,-0.047448754216,-0.395318990484,0.916670492271
1505356813254086344,0,1505356813253605333,0.0,0.0,0.0,-0.0344572173322,-0.047445003711,-0.395327403978,0.916666741766
1505356813257837673,0,1505356813257594421,0.0,0.0,0.0,-0.0344541932577,-0.0474366985173,-0.395335497366,0.916663794814
1505356813267322945,0,1505356813267044143,0.0,0.0,0.0,-0.0344626065889,-0.0474329478213,-0.395343910697,0.916660044118
1505356813268685564,0,1505356813268391706,0.0,0.0,0.0,-0.034455021179,-0.0474360971709,-0.395351496107,0.916656894769
1505356813270246104,0,1505356813270156158,0.39581105113,0.828908741474,0.466473639011,-0.04669027403,-0.997568845749,-0.0200714189559,0.047680940479
1505356813270253774,0,1505356813270166633,0.332453161478,0.044020332396,-0.19350092113,-0.00843614432961,-0.996605336666,0.00375060248189,0.0818077921867
1505356813272965716,0,1505356813272662284,0.0,0.0,0.0,-0.0344588734543,-0.0474438008983,-0.395359401443,0.916652941678
1505356813277991959,0,1505356813277729997,0.0,0.0,0.0,-0.034451288201,-0.0474469504158,-0.395366986696,0.916649792161
1505356813280574686,0,1505356813280417164,0.395810961723,0.828925013542,0.46649312973,-0.0466789156199,-0.997570216656,-0.0200543403625,0.0476708374918
1505356813280580105,0,1505356813280427899,0.332484185696,0.0441469550133,-0.192543566227,-0.00827335193753,-0.9965929389,0.00333051430061,0.0819940268993
1505356813282958018,0,1505356813282665948,0.0,0.0,0.0,-0.0344432889212,-0.0474504006418,-0.395366572629,0.91665009277
1505356813287892093,0,1505356813287689660,0.0,0.0,0.0,-0.0344437030028,-0.0474501000656,-0.395374571895,0.916646642511
1505356813290801424,0,1505356813290651559,0.395808339119,0.828890144825,0.466501921415,-0.046697113663,-0.997569143772,-0.0200442969799,0.0476789139211
1505356813290810036,0,1505356813290662359,0.332557857037,0.0441682487726,-0.191528484225,-0.00834153778851,-0.996591329575,0.00307606766,0.0820164754987
1505356813290813659,0,1505356813290669801,0.395810216665,0.828889727592,0.466479003429,-0.0466963686049,-0.997569084167,-0.0200538448989,0.0476776957512
1505356813290817031,0,1505356813290674980,0.33265042305,0.044190812856,-0.190518185496,-0.00800656341016,-0.996598184109,0.00277626654133,0.0819776877761
1505356813297592675,0,1505356813297348299,0.0,0.0,0.0,-0.0344365319659,-0.0474529493342,-0.395390156246,0.916640042333
1505356813299950525,0,1505356813299753235,0.0,0.0,0.0,-0.0344365319659,-0.0474529493342,-0.395390156246,0.916640042333
1505356813304952130,0,1505356813304557464,0.0,0.0,0.0,-0.0344369460697,-0.0474526488169,-0.395398155425,0.916636591869
1505356813308036827,0,1505356813307771607,0.0,0.0,0.0,-0.0344369460697,-0.0474526488169,-0.395398155425,0.916636591869
1505356813310204346,0,1505356813310079995,0.39580515027,0.828918457031,0.466493278742,-0.0466850735247,-0.997569680214,-0.0200482420623,0.0476791784167
1505356813310213648,0,1505356813310091844,0.332661151886,0.0442307405174,-0.189450293779,-0.00784639175981,-0.996570825577,0.00296019786038,0.0823191925883
1505356813313120491,0,1505356813312891616,0.0,0.0,0.0,-0.0344453593028,-0.0474488977246,-0.395406568658,0.916632840776
1505356813315893223,0,1505356813263240098,base_footprint,-1.0699802024,0.000314026468626,0.0,0.0,0.0,-6.98131691346e-11,1.0
1505356813317839033,0,1505356813317620446,0.0,0.0,0.0,-0.0344423345549,-0.0474405929361,-0.395414661933,0.916629893065
1505356813320478302,0,1505356813320346296,0.395808517933,0.828896760941,0.466494470835,-0.04669823125,-0.997568845749,-0.0200460292399,0.0476851835847
1505356813320486959,0,1505356813320357701,0.332693040371,0.0443436801434,-0.188446894288,-0.00779499392956,-0.996555805206,0.00260054925457,0.0825166925788
1505356813323213176,0,1505356813322998896,0.0,0.0,0.0,-0.0344423345549,-0.0474405929361,-0.395414661933,0.916629893065
1505356813329647056,0,1505356813329371160,0.0,0.0,0.0,-0.0344507476243,-0.0474368416527,-0.395423075002,0.916626141782
1505356813330715280,0,1505356813330573090,0.395808309317,0.828924059868,0.466469854116,-0.0466842614114,-0.997569382191,-0.0200461801142,0.0476869009435
1505356813330723425,0,1505356813330585691,0.332757741213,0.0444036908448,-0.187454044819,-0.00766970543191,-0.996549487114,0.00275421072729,0.0825998783112
1505356813333016457,0,1505356813332732015,0.0,0.0,0.0,-0.0344591606282,-0.0474330902225,-0.395431488006,0.916622390352
1505356813338034533,0,1505356813337834543,0.0,0.0,0.0,-0.0344591606282,-0.0474330902225,-0.395431488006,0.916622390352
1505356813339881742,0,1505356813339756997,0.395813465118,0.828883290291,0.466489702463,-0.0466970317066,-0.99756783247,-0.0200682338327,0.0476971380413
1505356813339889680,0,1505356813339767625,0.332786530256,0.0444292165339,-0.18647095561,-0.00751262297854,-0.996538639069,0.00260141957551,0.0827488750219
1505356813341612959,0,1505356813341466028,0.21,0.0,0.0,-0.499999999999,0.500000836553,-0.499999999999,0.499999163447
1505356813341621353,0,1505356813341466221,0.0,-0.02,0.0,0.707106189653,0.707107372717,-1.18306495402e-06,-1.18306297463e-06
1505356813342974656,0,1505356813342809281,0.0,0.0,0.0,-0.0344675735666,-0.0474293386455,-0.395439900944,0.916618638775
1505356813348046866,0,1505356813347818186,0.0,0.0,0.0,-0.0344595745587,-0.0474327895078,-0.39543948703,0.916618939526
1505356813351358676,0,1505356813351179326,0.395811408758,0.828920781612,0.466514259577,-0.0467020720243,-0.997569084167,-0.020033031702,0.0476820059121
1505356813351370628,0,1505356813351203944,0.332764476538,0.0444949902594,-0.185455113649,-0.00730572175235,-0.996508359909,0.00242404430173,0.0831376835704
1505356813351375783,0,1505356813351232971,0.395809710026,0.82890444994,0.466469943523,-0.0466795563698,-0.997569322586,-0.0200583711267,0.0476874150336
1505356813351386379,0,1505356813351238681,0.33284085989,0.0445694290102,-0.184572726488,-0.00741886580363,-0.996518075466,0.00246563879773,0.083010174334
1505356813356780951,0,1505356813356450044,0.0,0.0,0.0,-0.0344519895061,-0.047435939718,-0.395447072083,0.916615789316
1505356813360559830,0,1505356813360226174,0.0,0.0,0.0,-0.0344444045085,-0.0474390900606,-0.39545465708,0.916612638973
1505356813363881725,0,1505356813363617090,0.0,0.0,0.0,-0.0344368195659,-0.0474422405355,-0.395462242023,0.916609488498
1505356813370870754,0,1505356813370654357,0.395811766386,0.828869521618,0.466482847929,-0.0467093884945,-0.99756860733,-0.0200564786792,0.0476746745408
1505356813370882569,0,1505356813370670901,0.333079278469,0.0445238575339,-0.183497264981,-0.00740323867649,-0.996546268463,0.00280856783502,0.0826615393162
1505356813370889591,0,1505356813370704479,0.395807743073,0.828938961029,0.466503173113,-0.0466895699501,-0.997568309307,-0.0200554151088,0.0476998724043
1505356813370894470,0,1505356813370710862,0.33310097456,0.0447219163179,-0.182393997908,-0.00740198371932,-0.99652659893,0.00293212151155,0.0828932672739
1505356813372045505,0,1505356813371638374,0.0,0.0,0.0,-0.0344292346783,-0.0474453911429,-0.395469826911,0.916606337891
1505356813373134691,0,1505356813372934115,0.0,0.0,0.0,-0.0344216498456,-0.0474485418826,-0.395477411743,0.916603187151
1505356813378099847,0,1505356813377919613,0.0,0.0,0.0,-0.034422063911,-0.0474482414952,-0.3954854106,0.916599735925
1505356813384324446,0,1505356813384071710,0.0,0.0,0.0,-0.034414065068,-0.0474516927547,-0.395484996521,0.916600036279
1505356813388326765,0,1505356813387970136,0.0,0.0,0.0,-0.0344144791608,-0.0474513924335,-0.39549299535,0.916596584987
1505356813390490063,0,1505356813390329202,0.395811080933,0.828907907009,0.466467380524,-0.0467138923705,-0.997567355633,-0.0200576428324,0.0476972199976
1505356813390502569,0,1505356813390344897,0.333144009113,0.0448603332043,-0.181370526552,-0.00736529473215,-0.996498167515,0.00225909007713,0.0832589268684
1505356813396905941,0,1505356813396525436,0.0,0.0,0.0,-0.034414893251,-0.0474510921087,-0.395500994149,0.916593133624
1505356813399036335,0,1505356813398839458,0.0,0.0,0.0,-0.034414893251,-0.0474510921087,-0.395500994149,0.916593133624
1505356813400761263,0,1505356813400562809,0.395817816257,0.828911006451,0.46650531888,-0.0466696247458,-0.997570514679,-0.0200528595597,0.0476745590568
1505356813400771108,0,1505356813400605234,0.333177953959,0.0449196845293,-0.180279940367,-0.00719875702634,-0.996488690376,0.00193908286747,0.0833950936794
1505356813400775932,0,1505356813400625226,0.395813584328,0.828899681568,0.466481566429,-0.0467016212642,-0.99756872654,-0.0200371295214,0.0476896762848
1505356813400784985,0,1505356813400634170,0.333235114813,0.0450528152287,-0.179247051477,-0.00728564709425,-0.996493756771,0.00173022667877,0.0833312496543
1505356813403329816,0,1505356813403137300,0.0,0.0,0.0,-0.0344233060912,-0.0474473403114,-0.395509406989,0.916589381827
1505356813408379908,0,1505356813408006894,0.0,0.0,0.0,-0.034431718866,-0.0474435883673,-0.395517819764,0.916585629883
1505356813413378696,0,1505356813412952404,0.0,0.0,0.0,-0.0344397175832,-0.0474401368214,-0.395518233772,0.916585329375
1505356813416246339,0,1505356813363255977,base_footprint,-1.0609802024,0.000314026467369,0.0,0.0,0.0,-6.98131691346e-11,1.0
1505356813418337608,0,1505356813418111467,0.0,0.0,0.0,-0.0344397175832,-0.0474401368214,-0.395518233772,0.916585329375
1505356813420272098,0,1505356813420142661,0.395807057619,0.828880012035,0.466468840837,-0.0466993898153,-0.997567653656,-0.0200767330825,0.0476967431605
1505356813420287899,0,1505356813420155271,0.333313465118,0.0451977998018,-0.178053662181,-0.00747166667134,-0.996491551399,0.00123890512623,0.0833506584167
1505356813423737413,0,1505356813423482921,0.0,0.0,0.0,-0.0344401315752,-0.0474398362764,-0.395526232473,0.916581877792
1505356813430649990,0,1505356813430292602,0.0,0.0,0.0,-0.0344451043523,-0.0474280802909,-0.395534739312,0.916578628369
1505356813430686762,0,1505356813430375768,0.395806074142,0.828931987286,0.466520398855,-0.046705942601,-0.997569203377,-0.0200176853687,0.0476809740067
1505356813430693432,0,1505356813430390085,0.333384811878,0.045210916549,-0.176701053977,-0.00727610569447,-0.99647963047,0.00124541809782,0.0835094228387
1505356813433630045,0,1505356813433415884,0.0,0.0,0.0,-0.0344455182391,-0.0474277796989,-0.395542737954,0.916575176643
1505356813438547753,0,1505356813438362341,0.0,0.0,0.0,-0.0344424921143,-0.047419475412,-0.39555083074,0.91657222759
1505356813440725990,0,1505356813440586602,0.395811796188,0.82890945673,0.466484457254,-0.0467177964747,-0.997567534447,-0.0200402308255,0.0476944260299
1505356813440735498,0,1505356813440596456,0.333501935005,0.0453479811549,-0.175513193011,-0.00751504441723,-0.996468007565,0.000981384073384,0.0836304724216
1505356813440740194,0,1505356813440603824,0.39581143856,0.828917086124,0.46649351716,-0.0466920882463,-0.99756860733,-0.0200409535319,0.0476969666779
1505356813440751158,0,1505356813440609535,0.333591163158,0.0455238260329,-0.17429998517,-0.00766054354608,-0.996460020542,0.000214545943891,0.0837175101042
1505356813441567043,0,1505356813441478086,0.21,0.0,0.0,-0.499999999999,0.500000836553,-0.499999999999,0.499999163447
1505356813441574259,0,1505356813441478201,0.0,-0.02,0.0,0.707106189653,0.707107372717,-1.18306495402e-06,-1.18306297463e-06
1505356813444826346,0,1505356813444459306,0.0,0.0,0.0,-0.0344349073532,-0.0474226267429,-0.395558415502,0.916569076259
1505356813448699348,0,1505356813448108966,0.0,0.0,0.0,-0.0344353211924,-0.0474223262398,-0.395566414061,0.916565624326
1505356813457526300,0,1505356813457225906,0.0,0.0,0.0,-0.0344277365137,-0.0474254777693,-0.395573998739,0.916562472796
1505356813458580772,0,1505356813458377939,0.0,0.0,0.0,-0.0344242962839,-0.0474174741662,-0.395574093036,0.916562975408
1505356813460138984,0,1505356813459996213,0.395810008049,0.828881084919,0.466504096985,-0.0466777831316,-0.997569620609,-0.0200776979327,0.0476745404303
1505356813460147291,0,1505356813460018138,0.333780199289,0.0456352382898,-0.172970414162,-0.00786812789738,-0.996458530426,-0.000873475335538,0.0837126746774
1505356813464232025,0,1505356813463959024,0.0,0.0,0.0,-0.0344327085675,-0.0474137216489,-0.395582505319,0.91655922289
1505356813470594003,0,1505356813470362873,0.395811021328,0.828895688057,0.466460347176,-0.0466970577836,-0.997567951679,-0.0200665295124,0.0476956367493
1505356813470602651,0,1505356813470376884,0.333795309067,0.046064119786,-0.171924263239,-0.00863623712212,-0.996488571167,-0.00218508508988,0.0832527950406
1505356813470673586,0,1505356813470447660,0.0,0.0,0.0,-0.0344292682696,-0.0474057180714,-0.39558259952,0.916559725461
1505356813473639340,0,1505356813473442523,0.0,0.0,0.0,-0.0344376804223,-0.0474019654365,-0.395591011673,0.916555972826
1505356813478749982,0,1505356813478511901,0.0,0.0,0.0,-0.0344456788807,-0.0473985132519,-0.395591425318,0.916555672266
1505356813480710840,0,1505356813480601391,0.395795792341,0.828927755356,0.466505020857,-0.0467047616839,-0.997568249702,-0.0200310852379,0.0476967841387
1505356813480722600,0,1505356813480645779,0.334042668343,0.0449398346245,-0.169943153858,-0.00601608911529,-0.996459424496,0.000578726932872,0.0838571414351
1505356813483707119,0,1505356813483527349,0.0,0.0,0.0,-0.0344460925095,-0.0473982126548,-0.39559942376,0.916552220045
1505356813490275529,0,1505356813489858870,0.0,0.0,0.0,-0.0344460925095,-0.0473982126548,-0.39559942376,0.916552220045
1505356813490284084,0,1505356813489900142,0.395809322596,0.828924000263,0.466527253389,-0.0466819219291,-0.997570097446,-0.0200503002852,0.0476717539132
1505356813490311732,0,1505356813489911891,0.334201753139,0.0448876991868,-0.16855981946,-0.00602929620072,-0.996446967125,0.00104396033566,0.08399990201
1505356813493685160,0,1505356813493394748,0.0,0.0,0.0,-0.0344465061356,-0.0473979120541,-0.395607422172,0.916548767753
1505356813500108132,0,1505356813499858682,0.0,0.0,0.0,-0.0344469197591,-0.0473976114499,-0.395615420554,0.916545315393
1505356813500322558,0,1505356813500191103,0.395812511444,0.828903615475,0.466474592686,-0.0466783195734,-0.9975695014,-0.0200739651918,0.0476788803935
1505356813500331157,0,1505356813500204466,0.334257900715,0.0449322164059,-0.167270794511,-0.00605158973485,-0.996428847313,0.00100564258173,0.0842135176063
1505356813503735471,0,1505356813503401339,0.0,0.0,0.0,-0.0344469197591,-0.0473976114499,-0.395615420554,0.916545315393
1505356813508666267,0,1505356813508389776,0.0,0.0,0.0,-0.034439335042,-0.0474007633058,-0.395623005271,0.916542163537
1505356813510575471,0,1505356813510446247,0.395814865828,0.828854739666,0.466501235962,-0.0466921664774,-0.9975695014,-0.0200631227344,0.0476695336401
1505356813510582701,0,1505356813510458814,0.334438741207,0.0448018684983,-0.165939614177,-0.00597657356411,-0.996428012848,0.00107765628491,0.0842271894217
1505356813513772485,0,1505356813513543793,0.0,0.0,0.0,-0.03443175038,-0.0474039152941,-0.395630589933,0.916539011548
1505356813515489401,0,1505356813463262081,base_footprint,-1.0489802024,0.000314026465693,0.0,0.0,0.0,-6.98131691346e-11,1.0
1505356813520227800,0,1505356813520016953,0.0,0.0,0.0,-0.0344325777291,-0.0474033143395,-0.395646586496,0.916532106352
1505356813520728718,0,1505356813520635966,0.395804584026,0.828920066357,0.466512024403,-0.0466801598668,-0.997569680214,-0.0200642030686,0.0476779676974
1505356813520789860,0,1505356813520647253,0.33460149169,0.0447910316288,-0.164499118924,-0.00574862770736,-0.996424496174,0.000767107296269,0.0842885300517
