%time,field.header.seq,field.header.stamp,field.header.frame_id,field.pose.position.x,field.pose.position.y,field.pose.position.z,field.pose.orientation.x,field.pose.orientation.y,field.pose.orientation.z,field.pose.orientation.w
1503329544024986091,0,1503329544024842485,world,-0.155458748341,-0.0340808704495,0.544230163097,-0.0715699419379,0.0110726142302,-0.997373580933,0.00100449635647
1503329544034312728,1,1503329544034117005,world,-0.155478045344,-0.0340896658599,0.544236242771,-0.0716195702553,0.0111654745415,-0.997368872166,0.00112579017878
1503329544044465775,2,1503329544044363886,world,-0.155404031277,-0.034040927887,0.544160723686,-0.0717259570956,0.0108555704355,-0.99736481905,0.000921148341149
1503329544054680841,3,1503329544054578855,world,-0.155465885997,-0.0340699926019,0.544211089611,-0.0718213170767,0.0110259829089,-0.997355878353,0.00113350176252
1503329544074333988,4,1503329544074119603,world,-0.155462011695,-0.0341119132936,0.544239163399,-0.0714614391327,0.0109608089551,-0.997382581234,0.00103240157478
1503329544074339884,5,1503329544074142184,world,-0.155401438475,-0.0340327173471,0.544190704823,-0.0716272294521,0.0110461199656,-0.99736982584,0.00102878408507
1503329544084535256,6,1503329544084391435,world,-0.155445531011,-0.0340769439936,0.544248878956,-0.0717391520739,0.010914108716,-0.997363269329,0.00100782362279
1503329544093833472,7,1503329544093634038,world,-0.155468121171,-0.0340710915625,0.544174849987,-0.0716398209333,0.0110918693244,-0.997368216515,0.00114550127182
1503329544104248480,8,1503329544104023708,world,-0.155405670404,-0.0340487100184,0.544219017029,-0.0716026425362,0.0109349153936,-0.997372806072,0.000996422953904
1503329544114564368,9,1503329544114401368,world,-0.155454576015,-0.0340377800167,0.544211030006,-0.0717506036162,0.0111832022667,-0.997359216213,0.00117780209985
1503329544123724460,10,1503329544123589267,world,-0.155413925648,-0.0340498462319,0.544159770012,-0.0715484768152,0.0109850997105,-0.997376322746,0.00076348730363
1503329544134518580,11,1503329544133858733,world,-0.155414611101,-0.0340822935104,0.544224023819,-0.0715950801969,0.0109234051779,-0.997373461723,0.000970320543274
1503329544144143159,12,1503329544144038422,world,-0.155464291573,-0.034039940685,0.54420119524,-0.071667201817,0.0111768608913,-0.997365295887,0.00114009552635
1503329544154413439,13,1503329544154286761,world,-0.155460134149,-0.034056071192,0.544201135635,-0.0718164369464,0.0110177733004,-0.997356414795,0.00106996065006
1503329544164657677,14,1503329544164521409,world,-0.155410349369,-0.034032382071,0.544170498848,-0.071743696928,0.0109486440197,-0.997362554073,0.000982926459983
1503329544174004314,15,1503329544173817343,world,-0.15546412766,-0.0340598709881,0.544170796871,-0.071877643466,0.0111213354394,-0.997350752354,0.00115503766574
1503329544184223219,16,1503329544184084788,world,-0.15547862649,-0.0340931601822,0.544205904007,-0.0718709528446,0.0110176354647,-0.997352421284,0.00113964325283
1503329544194572479,17,1503329544194374876,world,-0.155465260148,-0.0340441130102,0.544188737869,-0.071618437767,0.0112050939351,-0.997368574142,0.00106669450179
1503329544203682037,18,1503329544203604722,world,-0.155412703753,-0.0340220108628,0.544174969196,-0.0717338323593,0.0109309740365,-0.997363507748,0.000863078574184
1503329544214062190,19,1503329544213902772,world,-0.155441746116,-0.0340996943414,0.544184863567,-0.0717857778072,0.0108650848269,-0.997360229492,0.00112588366028
1503329544224306199,20,1503329544224168612,world,-0.155424773693,-0.0340514816344,0.544179439545,-0.0714681372046,0.0109690353274,-0.997382164001,0.000867568771355
1503329544234603121,21,1503329544234434414,world,-0.155454412103,-0.0340501703322,0.544218480587,-0.0716919824481,0.0110024753958,-0.997365474701,0.00113028858323
1503329544243811266,22,1503329544243679817,world,-0.155423253775,-0.0340346619487,0.544141829014,-0.0717753618956,0.0109942285344,-0.99735981226,0.000935632560868
1503329544254268234,23,1503329544254132753,world,-0.155419409275,-0.0340128056705,0.54416590929,-0.0717087835073,0.0109587954357,-0.997364938259,0.000978132826276
1503329544264563559,24,1503329544264413286,world,-0.155443951488,-0.0341050587595,0.544268906116,-0.0715582445264,0.010986099951,-0.997375309467,0.00107434450183
1503329544273810774,25,1503329544273640050,world,-0.155415907502,-0.0340508557856,0.544159770012,-0.0717511922121,0.010978105478,-0.997361421585,0.00119631586131
1503329544284159821,26,1503329544284012400,world,-0.155413091183,-0.0340492017567,0.544214189053,-0.0716490373015,0.0107311690226,-0.997371733189,0.000887920963578
1503329544294485494,27,1503329544294289755,world,-0.155470773578,-0.034070007503,0.544211983681,-0.0717668458819,0.011054713279,-0.997359752655,0.00101686175913
1503329544313880114,28,1503329544313710888,world,-0.15540355444,-0.0340961627662,0.544237077236,-0.0715937316418,0.0107055185363,-0.997375786304,0.00111045863014
1503329544313884307,29,1503329544313732429,world,-0.155436471105,-0.0340450331569,0.544214904308,-0.0715608373284,0.0110847270116,-0.99737405777,0.00105221546255
1503329544324159813,30,1503329544324050671,world,-0.155453711748,-0.034085676074,0.544217944145,-0.0716008320451,0.0109946792945,-0.99737226963,0.000976318609901
1503329544334400394,31,1503329544334313960,world,-0.155446723104,-0.0340751260519,0.544165968895,-0.0717601031065,0.0110175590962,-0.997360289097,0.00121763988864
1503329544344688001,32,1503329544344555518,world,-0.155410408974,-0.0340831018984,0.54423391819,-0.0716671571136,0.0107956212014,-0.997369706631,0.00101543415803
1503329544364117654,33,1503329544364017707,world,-0.155451849103,-0.0340702831745,0.54423803091,-0.0715561062098,0.0111059034243,-0.997374296188,0.00101861101575
1503329544364122080,34,1503329544364048660,world,-0.155425652862,-0.0340562388301,0.544168233871,-0.0716790407896,0.0108846509829,-0.997367799282,0.00104538479354
1503329544374581763,35,1503329544374336418,world,-0.155454471707,-0.0340638272464,0.544187188148,-0.0718190297484,0.011144711636,-0.997354984283,0.00101659435313
1503329544384888513,36,1503329544384708183,world,-0.155408397317,-0.0340771116316,0.544197797775,-0.0716271027923,0.0108719989657,-0.997371852398,0.000858997867908
1503329544404390389,37,1503329544404228795,world,-0.155470475554,-0.0340564064682,0.544199943542,-0.0717561915517,0.011076791212,-0.997360050678,0.00112859904766
1503329544404395756,38,1503329544404251161,world,-0.155410245061,-0.0340323373675,0.544144630432,-0.0717409476638,0.0109667601064,-0.997362554073,0.000897234247532
1503329544414588519,39,1503329544414477606,world,-0.15546938777,-0.0340939201415,0.54424148798,-0.0715879797935,0.0110884625465,-0.997372150421,0.000996758230031
1503329544434164145,40,1503329544434037115,world,-0.155450686812,-0.0340700335801,0.544222533703,-0.0716666951776,0.0109699368477,-0.997367858887,0.000977868679911
1503329544434174088,41,1503329544434060888,world,-0.155403509736,-0.0340601690114,0.54421120882,-0.0715900957584,0.0108648780733,-0.997374653816,0.000861678563524
1503329544444366091,42,1503329544444265233,world,-0.155479699373,-0.0340608507395,0.544162034988,-0.0718573927879,0.0110922669992,-0.997352600098,0.00112731102854
1503329544454655460,43,1503329544454527338,world,-0.155467256904,-0.0340807773173,0.544227778912,-0.0716975554824,0.0109474621713,-0.997365891933,0.000961267098319
1503329544463933316,44,1503329544463780191,world,-0.15544976294,-0.0340715125203,0.544214963913,-0.071783810854,0.0109235029668,-0.99735981226,0.00109798752237
1503329544484463952,45,1503329544484292399,world,-0.155402719975,-0.0340578071773,0.544213056564,-0.0715008229017,0.0108474344015,-0.997381091118,0.000956736505032
1503329544484484210,46,1503329544484342574,world,-0.155418410897,-0.0340557768941,0.544203042984,-0.0716710761189,0.0108346417546,-0.997369110584,0.000861584267113
1503329544494773818,47,1503329544494616784,world,-0.155409917235,-0.0340207926929,0.544135689735,-0.071781784296,0.0109683880582,-0.997359573841,0.000979153090157
1503329544503961348,48,1503329544503865833,world,-0.155412733555,-0.0340713784099,0.544223189354,-0.0716421231627,0.0109430085868,-0.997369766235,0.00108160171658
1503329544514289951,49,1503329544514125536,world,-0.155453816056,-0.0340626612306,0.544243454933,-0.0714969262481,0.0110740084201,-0.997378885746,0.00101526838262
1503329544524493271,50,1503329544524385270,world,-0.155413269997,-0.0340164229274,0.544189572334,-0.0716402903199,0.010985776782,-0.997369587421,0.000988691463135
1503329544534044443,51,1503329544533850363,world,-0.155401289463,-0.034067530185,0.544178009033,-0.0717013478279,0.0109674558043,-0.997365534306,0.000875981058925
1503329544544256173,52,1503329544544087909,world,-0.155454307795,-0.0340845175087,0.544209778309,-0.0715651065111,0.0109865264967,-0.997374951839,0.000991766341031
1503329544564721570,53,1503329544564604054,world,-0.155458986759,-0.0340892188251,0.544256091118,-0.0715640261769,0.0110439406708,-0.997374355793,0.00103437469807
1503329544564725202,54,1503329544564634646,world,-0.155452892184,-0.0340350754559,0.544173240662,-0.0717168524861,0.0112040787935,-0.997361421585,0.00113363424316
1503329544573989537,55,1503329544573844310,world,-0.155415564775,-0.0340835228562,0.544201731682,-0.0716988295317,0.0108706969768,-0.99736648798,0.00106320541818
1503329544584205226,56,1503329544584079250,world,-0.155452921987,-0.0340867005289,0.544242918491,-0.0715756490827,0.0110575957224,-0.997373342514,0.00104721414391
1503329544594352658,57,1503329544594281958,world,-0.15542550385,-0.0340567268431,0.544173061848,-0.0717646330595,0.0108508951962,-0.997361958027,0.0011355059687
1503329544604699815,58,1503329544604547864,world,-0.155465215445,-0.0340481437743,0.544214487076,-0.0716939419508,0.01112041343,-0.997363984585,0.00115380855277
1503329544614079425,59,1503329544613917146,world,-0.155426815152,-0.0340454280376,0.544149160385,-0.071805126965,0.0110489865765,-0.997357010841,0.00096349202795
1503329544624341923,60,1503329544624200318,world,-0.155468836427,-0.0341006629169,0.544249176979,-0.0716705173254,0.0110458387062,-0.997366607189,0.00104917562567
1503329544634501798,61,1503329544634417617,world,-0.155494347215,-0.0340897142887,0.544242918491,-0.0716568008065,0.0111052487046,-0.997366905212,0.00111556146294
1503329544643644648,62,1503329544643537644,world,-0.155417531729,-0.0340641625226,0.54416513443,-0.0717016533017,0.0109155774117,-0.997366070747,0.000837901374325
1503329544653962656,63,1503329544653806721,world,-0.155477508903,-0.0341069586575,0.544230043888,-0.0717857331038,0.0109175527468,-0.99735969305,0.00107438513078
1503329544664235614,64,1503329544664108913,world,-0.155462503433,-0.0340475812554,0.544212281704,-0.0717616379261,0.0111821191385,-0.997358560562,0.001106438227
1503329544683766275,65,1503329544683591856,world,-0.155413359404,-0.0340392887592,0.544202268124,-0.071619220078,0.0109219625592,-0.997371792793,0.000970380089711
1503329544683782108,66,1503329544683612028,world,-0.155472949147,-0.0341137982905,0.544249236584,-0.0715254023671,0.0110084414482,-0.99737739563,0.00110789295286
1503329544694005318,67,1503329544693851824,world,-0.155409112573,-0.0340405479074,0.544141173363,-0.0717403739691,0.0109304850921,-0.997362792492,0.00110078474972
1503329544704213909,68,1503329544704105700,world,-0.155407950282,-0.0340649820864,0.5442289114,-0.0716058835387,0.0108362725005,-0.997373521328,0.0010386708891
1503329544714523337,69,1503329544714398927,world,-0.155415162444,-0.0340467467904,0.544148981571,-0.0717110782862,0.0110359620303,-0.997363746166,0.00112321646884
1503329544723714679,70,1503329544723578997,world,-0.155445441604,-0.0340421199799,0.544226646423,-0.0717303529382,0.0110800284892,-0.997361838818,0.00112026615534
1503329544733919018,71,1503329544733813057,world,-0.155471429229,-0.0340499356389,0.544215261936,-0.0717500075698,0.0111465966329,-0.99735969305,0.00113678025082
1503329544744192736,72,1503329544744075277,world,-0.155449971557,-0.0340847596526,0.544187307358,-0.0716231539845,0.0111056873575,-0.997369468212,0.000913241354283
1503329544754501687,73,1503329544754363373,world,-0.15545527637,-0.034118078649,0.544246792793,-0.0715341940522,0.0108487242833,-0.997378528118,0.00105862924829
1503329544763717764,74,1503329544763567766,world,-0.15545283258,-0.034039825201,0.544200062752,-0.0715917497873,0.0110613051802,-0.997372090816,0.00106374395546
1503329544774100017,75,1503329544773864821,world,-0.155425995588,-0.0340636111796,0.544196367264,-0.0717544853687,0.0109229292721,-0.997361898422,0.00106123718433
1503329544784261424,76,1503329544784106585,world,-0.155464202166,-0.0340953320265,0.544236958027,-0.0715760588646,0.0110290450975,-0.997373700142,0.000978776835836
1503329544794508974,77,1503329544794379229,world,-0.155478313565,-0.0340567566454,0.544181466103,-0.0715843141079,0.0112239224836,-0.997370779514,0.0010659112595
1503329544803751458,78,1503329544803564200,world,-0.155463248491,-0.034055326134,0.544197320938,-0.071818202734,0.0110167907551,-0.997356235981,0.00110350223258
1503329544814022821,79,1503329544813826055,world,-0.15546990931,-0.0340850576758,0.544210910797,-0.0716483741999,0.0111596817151,-0.997366726398,0.0012395499507
1503329544824163435,80,1503329544824050852,world,-0.15544013679,-0.0340688899159,0.544222474098,-0.0716888308525,0.0110434675589,-0.997365534306,0.000942442333326
1503329544834430802,81,1503329544834309031,world,-0.155461937189,-0.0340699143708,0.544244945049,-0.071523219347,0.0110882809386,-0.997376799583,0.00102447532117
1503329544844756456,82,1503329544844578375,world,-0.155424207449,-0.034043058753,0.544180333614,-0.0717077627778,0.0111053064466,-0.997363269329,0.00105635565706
1503329544854052682,83,1503329544853863840,world,-0.155470386147,-0.0340735279024,0.544222772121,-0.0717861056328,0.0111580779776,-0.997356951237,0.00117302138824
1503329544864325843,84,1503329544864136614,world,-0.155460566282,-0.0341033712029,0.544217050076,-0.0715722441673,0.0109334494919,-0.99737483263,0.00116514333058
1503329544874609484,85,1503329544874424369,world,-0.155423030257,-0.0340830162168,0.544189870358,-0.0716657564044,0.0107761761174,-0.997369885445,0.00104488118086
1503329544883909610,86,1503329544883726552,world,-0.15546643734,-0.0340444371104,0.54420953989,-0.071607299149,0.0112433638424,-0.99736893177,0.00110463646706
1503329544894135498,87,1503329544893941178,world,-0.15546220541,-0.0341133773327,0.544242084026,-0.071611829102,0.0109069962054,-0.99737226963,0.0011338815093
1503329544904362219,88,1503329544904193259,world,-0.155411154032,-0.0340437144041,0.544177472591,-0.071730196476,0.0110738184303,-0.997362017632,0.00109196384437
1503329544914611707,89,1503329544914435355,world,-0.155464559793,-0.0340801402926,0.544233679771,-0.0715365484357,0.0110750226304,-0.997375845909,0.00111929641571
1503329544923722891,90,1503329544923651101,world,-0.155469492078,-0.0340817086399,0.544167280197,-0.0718958303332,0.0112307779491,-0.997348189354,0.00118353322614
1503329544934139232,91,1503329544933969223,world,-0.15544526279,-0.0340462587774,0.544198215008,-0.0716733112931,0.0111098093912,-0.997365653515,0.00113849749323
1503329544953889419,92,1503329544953717463,world,-0.155391082168,-0.0340342633426,0.544233620167,-0.0715231671929,0.010875926353,-0.997379243374,0.000849338772241
1503329544964172172,93,1503329544964007028,world,-0.155476495624,-0.0341040827334,0.544170856476,-0.0717276632786,0.0110858259723,-0.997361898422,0.00125567649957
1503329544974447025,94,1503329544974273734,world,-0.155482918024,-0.0340836197138,0.54415678978,-0.0718740746379,0.011122093536,-0.997350931168,0.00127221818548
1503329544974450422,95,1503329544974302360,world,-0.155414864421,-0.0340778343379,0.544222891331,-0.0716611891985,0.0108691826463,-0.997369408607,0.000906483677682
1503329544984686258,96,1503329544984591130,world,-0.155432462692,-0.0340358056128,0.544230282307,-0.0714821517467,0.0108209457248,-0.997382938862,0.00078278768342
1503329545004183005,97,1503329545004081419,world,-0.155451998115,-0.0340601876378,0.54419618845,-0.0717712938786,0.0110073452815,-0.997359752655,0.00110874837264
1503329545004186706,98,1503329545004110173,world,-0.155456393957,-0.0340752564371,0.544209480286,-0.0717434361577,0.0109988972545,-0.997362077236,0.00096217088867
1503329545014544629,99,1503329545014422459,world,-0.155471399426,-0.0340827554464,0.544220328331,-0.0716126561165,0.0110466619954,-0.997370839119,0.000991319189779
1503329545023900501,100,1503329545023626898,world,-0.15545527637,-0.0340967923403,0.544255435467,-0.0716157332063,0.0110017843544,-0.997371017933,0.00104708166327
1503329545034007965,101,1503329545033836825,world,-0.155468448997,-0.0340593680739,0.544163227081,-0.0718305185437,0.0111654093489,-0.997353732586,0.00105109659489
1503329545044217433,102,1503329545044087808,world,-0.155469730496,-0.0340563543141,0.544214725494,-0.0718609243631,0.0110505148768,-0.997352838516,0.00112126173917
1503329545054525152,103,1503329545054357946,world,-0.155415430665,-0.0340837687254,0.544206142426,-0.0716466680169,0.0108436504379,-0.99737071991,0.000885939167347
1503329545063772239,104,1503329545063585182,world,-0.155405700207,-0.0340692549944,0.544201433659,-0.0716253221035,0.0108880978078,-0.997371792793,0.000891107192729
1503329545074118131,105,1503329545073931481,world,-0.155416086316,-0.0340478383005,0.544180810452,-0.0716841220856,0.0109172994271,-0.997367143631,0.000983551959507
1503329545084470162,106,1503329545084174736,world,-0.155424922705,-0.0340580418706,0.544154644012,-0.0718292742968,0.0110506974161,-0.997355103493,0.00106908183079
1503329545103740305,107,1503329545103568005,world,-0.155482620001,-0.034088011831,0.54425239563,-0.0715153664351,0.0111428434029,-0.997376799583,0.00101357896347
1503329545103751329,108,1503329545103586282,world,-0.155453234911,-0.034044649452,0.54422545433,-0.0717473700643,0.0110850445926,-0.997360646725,0.00110861007124
1503329545113936639,109,1503329545113791895,world,-0.155420422554,-0.0340308770537,0.54414242506,-0.0717865899205,0.0109863942489,-0.997359037399,0.000963088474236
1503329545124083048,110,1503329545123990926,world,-0.155469879508,-0.0341123491526,0.544248282909,-0.0717473104596,0.0109298806638,-0.997362375259,0.00108589802403
1503329545134385639,111,1503329545134231780,world,-0.155455291271,-0.0340257957578,0.544215559959,-0.0717753246427,0.0111197093502,-0.99735814333,0.00119141500909
1503329545144647563,112,1503329545144505996,world,-0.155407577753,-0.0340628921986,0.544224023819,-0.0715260878205,0.0109570808709,-0.99737817049,0.000820894667413
1503329545153962304,113,1503329545153781220,world,-0.155450105667,-0.0340653471649,0.54424059391,-0.0714582800865,0.0109951868653,-0.997382462025,0.00102799222805
1503329545164244845,114,1503329545164070891,world,-0.155411988497,-0.034052580595,0.544172644615,-0.0716981813312,0.010972538963,-0.99736571312,0.000775349501055
1503329545174485862,115,1503329545174316413,world,-0.155476525426,-0.0340864434838,0.544199168682,-0.0717887878418,0.0111942170188,-0.99735635519,0.00115574430674
1503329545184622594,116,1503329545184538290,world,-0.155409321189,-0.0340526923537,0.544175565243,-0.0717122703791,0.0110158231109,-0.99736392498,0.00110246613622
1503329545204232017,117,1503329545204053650,world,-0.155399009585,-0.0340782739222,0.5442314744,-0.0714909136295,0.0107537666336,-0.997382819653,0.000963060185313
1503329545204268635,118,1503329545204075087,world,-0.155458748341,-0.0340507440269,0.544178962708,-0.0718015730381,0.0111101912335,-0.9973564744,0.00106784526724
1503329545214597742,119,1503329545214414853,world,-0.155452534556,-0.0340820886195,0.544221222401,-0.0715490877628,0.0110424328595,-0.997375488281,0.000923846673686
1503329545233927491,120,1503329545233778243,world,-0.155390128493,-0.0340831913054,0.544211864471,-0.0715142935514,0.0107268644497,-0.997381448746,0.000978180905804
1503329545233968051,121,1503329545233813462,world,-0.15547773242,-0.0340710058808,0.54416769743,-0.0718467608094,0.0111853238195,-0.997352361679,0.00105495052412
1503329545244142913,122,1503329545244028674,world,-0.15546309948,-0.0340487994254,0.544206917286,-0.0718585550785,0.0110426833853,-0.99735301733,0.00114205991849
1503329545254518389,123,1503329545254341260,world,-0.15540599823,-0.034019857645,0.54415088892,-0.0717283561826,0.0109616918489,-0.997363507748,0.000917866069358
1503329545274073680,124,1503329545273908149,world,-0.155467242002,-0.0340565294027,0.544211983681,-0.0716105625033,0.0112312892452,-0.997368812561,0.00109969091136
1503329545274078669,125,1503329545273928870,world,-0.155455559492,-0.0340629220009,0.54420953989,-0.0717661678791,0.0111418329179,-0.997358739376,0.00104346428998
1503329545284331810,126,1503329545284181538,world,-0.15545552969,-0.0340584851801,0.544188380241,-0.0718197748065,0.0111830709502,-0.997354209423,0.00120249774773
1503329545303756903,127,1503329545303643261,world,-0.155419841409,-0.0340485684574,0.544178843498,-0.0717336460948,0.0109102558345,-0.997363686562,0.000978321419097
1503329545303784634,128,1503329545303663034,world,-0.155461758375,-0.0340824872255,0.54423648119,-0.071705006063,0.0109290927649,-0.997365534306,0.000987352454104
1503329545314207991,129,1503329545314048197,world,-0.155453756452,-0.0340605080128,0.544213116169,-0.0715655237436,0.0111663658172,-0.997372925282,0.000993729219772
1503329545324348034,130,1503329545324250153,world,-0.155464619398,-0.0340775251389,0.54420620203,-0.0717578083277,0.0111217927188,-0.997359514236,0.00104629190173
1503329545344028943,131,1503329545343847057,world,-0.155474692583,-0.0340611971915,0.54416936636,-0.0717064812779,0.0110087851062,-0.997364163399,0.00133498059586
1503329545354375973,132,1503329545354155222,world,-0.155415534973,-0.034050732851,0.54420876503,-0.0716819018126,0.0110354879871,-0.997365772724,0.00114823679905
1503329545364685201,133,1503329545364486055,world,-0.155443713069,-0.0340884514153,0.544237792492,-0.0715386345983,0.0109193427488,-0.997377634048,0.00101044541225
1503329545364695515,134,1503329545364512990,world,-0.155416727066,-0.034048397094,0.544121861458,-0.0717690214515,0.010946190916,-0.997360646725,0.00104683754034
1503329545374016520,135,1503329545373828447,world,-0.155428364873,-0.0340707227588,0.544195234776,-0.071765974164,0.0109072253108,-0.997361302376,0.00109840359073
1503329545384222579,136,1503329545384096267,world,-0.155461698771,-0.0340403728187,0.544186651707,-0.0717720165849,0.0111796660349,-0.997357726097,0.00116704311222
1503329545394537675,137,1503329545394384667,world,-0.155461609364,-0.0340875275433,0.544245421886,-0.0714954957366,0.0110328774899,-0.997379302979,0.00105889781844
1503329545414068072,138,1503329545413775756,world,-0.155474737287,-0.0340834334493,0.544202685356,-0.071844175458,0.0111594684422,-0.997352778912,0.0010737888515
1503329545414073692,139,1503329545413799247,world,-0.155390501022,-0.0340288579464,0.544206678867,-0.0715545192361,0.0108941318467,-0.997376799583,0.00085208658129
1503329545424198854,140,1503329545424071747,world,-0.155470013618,-0.0340920612216,0.544225037098,-0.0716421380639,0.0110400933772,-0.997368454933,0.00122738420032
1503329545444732575,141,1503329545444539537,world,-0.155476406217,-0.0340767353773,0.544207274914,-0.0717912465334,0.011149469763,-0.997356712818,0.00107508513611
1503329545444742723,142,1503329545444562826,world,-0.155426710844,-0.0340314768255,0.544156014919,-0.0718750357628,0.0110026774928,-0.997352302074,0.00107191305142
1503329545464303963,143,1503329545464111712,world,-0.15541999042,-0.0340586714447,0.544197380543,-0.0717881694436,0.0109211960807,-0.997359633446,0.00102709117346
1503329545464309258,144,1503329545464133583,world,-0.155470192432,-0.0340793952346,0.544169306755,-0.0716595351696,0.0110810156912,-0.997366845608,0.00121162156574
1503329545474599253,145,1503329545474409598,world,-0.155448555946,-0.0340659692883,0.544245243073,-0.0715191140771,0.0110255917534,-0.997377812862,0.00103208748624
1503329545493882330,146,1503329545493774120,world,-0.15547759831,-0.0340986177325,0.544192612171,-0.0718089714646,0.0110322525725,-0.997356653214,0.0012489692308
1503329545493900216,147,1503329545493791917,world,-0.155418366194,-0.0340676158667,0.544186711311,-0.0714877992868,0.0110640404746,-0.997379779816,0.000777557434049
1503329545504184687,148,1503329545504059920,world,-0.155415296555,-0.0340856462717,0.544233679771,-0.0715390741825,0.010781227611,-0.997379004955,0.00099494215101
1503329545514495144,149,1503329545514342327,world,-0.155462011695,-0.0340715870261,0.544226467609,-0.0714903622866,0.0111400075257,-0.997378706932,0.000953176058829
1503329545524677380,150,1503329545524565291,world,-0.155425235629,-0.0340872965753,0.544192254543,-0.0716603919864,0.0107918223366,-0.997370183468,0.00103505083825
1503329545534105010,151,1503329545533965784,world,-0.155471995473,-0.0340614169836,0.544223427773,-0.0716517269611,0.0111385816708,-0.997366666794,0.0012803832069
1503329545544427341,152,1503329545544265045,world,-0.155443817377,-0.0340712554753,0.544223546982,-0.071646861732,0.0109496675432,-0.997369527817,0.000910726550501
1503329545554739947,153,1503329545554553981,world,-0.155469119549,-0.0340820029378,0.544208049774,-0.0717868134379,0.0110386535525,-0.997358083725,0.00126311043277
1503329545564027756,154,1503329545563840417,world,-0.155420258641,-0.0340292826295,0.544152677059,-0.0717292428017,0.0110609428957,-0.997362375259,0.00094365311088
1503329545574277796,155,1503329545574095536,world,-0.155417382717,-0.0340333208442,0.544194161892,-0.0716639459133,0.010970171541,-0.997367918491,0.00106441928074
1503329545584592687,156,1503329545584499165,world,-0.155434057117,-0.0340622700751,0.544201254845,-0.0716949999332,0.0110813165084,-0.997364461422,0.00109253497794
1503329545593883182,157,1503329545593735355,world,-0.155427619815,-0.0340395607054,0.54415333271,-0.071707546711,0.0110889011994,-0.997363507748,0.00104351236951
1503329545614225521,158,1503329545614120000,world,-0.155459031463,-0.0340563990176,0.544188201427,-0.0718362405896,0.0111305350438,-0.997353732586,0.00107231666334
1503329545614238470,159,1503329545614149833,world,-0.155460208654,-0.0340485163033,0.544218122959,-0.0717501565814,0.0111241079867,-0.997359871864,0.00119851797353
1503329545634762685,160,1503329545634591676,world,-0.155415475368,-0.0340393334627,0.544176638126,-0.0717335417867,0.0110240057111,-0.99736225605,0.00117803376634
1503329545644021131,161,1503329545643847634,world,-0.155413046479,-0.0340392328799,0.544173777103,-0.0716890692711,0.0109636140987,-0.997366368771,0.000867913942784
1503329545644032922,162,1503329545643881793,world,-0.155473083258,-0.0340711064637,0.544185221195,-0.071891374886,0.0109730707482,-0.997351288795,0.00128359021619
1503329545654335961,163,1503329545654192737,world,-0.155403420329,-0.0340500511229,0.544192910194,-0.0715847164392,0.0110210450366,-0.997373282909,0.000885425775778
1503329545673952342,164,1503329545673775255,world,-0.155396074057,-0.0340557098389,0.544241070747,-0.0714647620916,0.0107574919239,-0.997384667397,0.000951170339249
1503329545674090721,165,1503329545673800853,world,-0.155462950468,-0.0340617932379,0.544178724289,-0.0716277211905,0.011259178631,-0.99736738205,0.00104410410859
1503329545684215820,166,1503329545684070789,world,-0.155455946922,-0.0340361781418,0.544188857079,-0.0718135014176,0.0111035602167,-0.997355639935,0.00115987949539
1503329545704755018,167,1503329545704545732,world,-0.155391842127,-0.0340470485389,0.544208228588,-0.0716181024909,0.0107623357326,-0.997373759747,0.000790131336544
1503329545704771132,168,1503329545704570721,world,-0.155409067869,-0.0340675413609,0.544192194939,-0.0716162845492,0.0109060984105,-0.997372210026,0.000913392927032
1503329545714094954,169,1503329545713909592,world,-0.155467793345,-0.0340962931514,0.544243276119,-0.071535602212,0.0109982881695,-0.997376918793,0.000992822344415
1503329545724242439,170,1503329545724143169,world,-0.155408218503,-0.0340439267457,0.544211804867,-0.0716012939811,0.0110415667295,-0.997371792793,0.000955797673669
1503329545743767367,171,1503329545743564028,world,-0.155410006642,-0.0340477526188,0.544142007828,-0.0717220678926,0.0110913179815,-0.997362554073,0.000893539923709
1503329545743787181,172,1503329545743586013,world,-0.155446454883,-0.0340545512736,0.544240176678,-0.0717141628265,0.0110277775675,-0.997363686562,0.00109244475607
1503329545754019617,173,1503329545753836756,world,-0.15542383492,-0.0340241603553,0.544156730175,-0.0717524141073,0.0110844708979,-0.997360467911,0.000955453317147
1503329545764182014,174,1503329545764065930,world,-0.155417457223,-0.0340724624693,0.544208288193,-0.0716329663992,0.0109011912718,-0.997371077538,0.000931759423111
1503329545774515667,175,1503329545774320898,world,-0.155424356461,-0.0340719111264,0.544176697731,-0.0717689543962,0.0108647737652,-0.99736148119,0.00112033216283
1503329545783687699,176,1503329545783549767,world,-0.155479475856,-0.0340496376157,0.544155657291,-0.0718835517764,0.0112457433715,-0.997348964214,0.00113349210005
1503329545794027908,177,1503329545793841766,world,-0.155445575714,-0.0341036058962,0.544209003448,-0.0717029795051,0.0108736408874,-0.997366070747,0.00114026165102
1503329545804263865,178,1503329545804077741,world,-0.155462026596,-0.0340523049235,0.544208526611,-0.07157484442,0.0110831027851,-0.997373044491,0.00108645600267
1503329545824596149,179,1503329545824456664,world,-0.155450925231,-0.034070648253,0.544219374657,-0.0717492625117,0.0109050255269,-0.997362554073,0.00103934458457
1503329545824599779,180,1503329545824505289,world,-0.155449360609,-0.0340795591474,0.544202744961,-0.0717947483063,0.0111567182466,-0.997356414795,0.00107067462523
1503329545834004554,181,1503329545833857096,world,-0.155457913876,-0.0340372622013,0.544161200523,-0.0717114135623,0.0111937113106,-0.997361958027,0.00110998435412
1503329545844187982,182,1503329545844083272,world,-0.155406400561,-0.0340814068913,0.544219374657,-0.0717059373856,0.0106498813257,-0.997368335724,0.00111582351383
1503329545854511429,183,1503329545854365132,world,-0.155464813113,-0.0340600050986,0.544169723988,-0.0717770159245,0.0111757088453,-0.997357487679,0.0010709031485
1503329545863717347,184,1503329545863549073,world,-0.155460685492,-0.0340387001634,0.544167816639,-0.0718717053533,0.0110179753974,-0.997352421284,0.00105036073364
1503329545873851380,185,1503329545873762912,world,-0.155427485704,-0.0340972095728,0.544223964214,-0.0715136528015,0.0109240151942,-0.997379422188,0.000848709431011
1503329545884139852,186,1503329545884016537,world,-0.155465945601,-0.0340899936855,0.544141411781,-0.0717890709639,0.0111606009305,-0.997356891632,0.00103668635711
1503329545894395854,187,1503329545894269751,world,-0.155460014939,-0.0340838320553,0.544235169888,-0.0717068463564,0.0108603434637,-0.997366189957,0.000972820969764
1503329545913873266,188,1503329545913707284,world,-0.155410021544,-0.0340443216264,0.54419195652,-0.0716305375099,0.0109230885282,-0.997370839119,0.0011193981627
1503329545913878301,189,1503329545913727563,world,-0.155467346311,-0.0340732745826,0.544181585312,-0.0716272071004,0.0111426562071,-0.997368454933,0.00127206672914
1503329545924112867,190,1503329545924009029,world,-0.155477806926,-0.0340702831745,0.544217526913,-0.0718127638102,0.0110824210569,-0.997355937958,0.0010883215582
1503329545934446579,191,1503329545934271368,world,-0.155461579561,-0.0340546034276,0.544145464897,-0.0717665478587,0.0111237186939,-0.997358798981,0.00111581827514
1503329545944712194,192,1503329545944549816,world,-0.155458897352,-0.0341004133224,0.544224739075,-0.0717307552695,0.0109024066478,-0.997363626957,0.00127353926655
1503329545954025490,193,1503329545953851971,world,-0.155461341143,-0.0340473800898,0.544166147709,-0.0718475580215,0.0111118815839,-0.997353196144,0.000996122136712
1503329545964207041,194,1503329545964080985,world,-0.155463352799,-0.034046497196,0.54415678978,-0.0719166919589,0.0110928090289,-0.997348248959,0.0011725560762
1503329545974472950,195,1503329545974295314,world,-0.155417695642,-0.0340666398406,0.544200718403,-0.0716681107879,0.0109556512907,-0.997368037701,0.000882292166352
1503329545984622818,196,1503329545984510176,world,-0.155460163951,-0.0340341702104,0.544189929962,-0.0718248561025,0.0112030245364,-0.997353672981,0.00114115071483
1503329545993922102,197,1503329545993750002,world,-0.155414834619,-0.034084290266,0.544227361679,-0.0716601088643,0.0108621353284,-0.997369527817,0.000972956710029
1503329546014356014,198,1503329546014214939,world,-0.155405819416,-0.0340338014066,0.544166326523,-0.0717023834586,0.0109202833846,-0.997365832329,0.000933693139814
1503329546014361306,199,1503329546014237000,world,-0.155417844653,-0.0340278744698,0.544170320034,-0.0716998055577,0.0109945777804,-0.997365236282,0.00101570773404
1503329546024551931,200,1503329546024462310,world,-0.155472129583,-0.0340580493212,0.544195115566,-0.0717101097107,0.0111792180687,-0.997362136841,0.00115197582636
1503329546044114900,201,1503329546043961919,world,-0.155460759997,-0.0340646095574,0.544207572937,-0.0717740431428,0.0110173579305,-0.997359633446,0.00101114448626
1503329546044119136,202,1503329546043983719,world,-0.155477821827,-0.0340686962008,0.544221043587,-0.07176361233,0.0112079549581,-0.99735802412,0.00115262460895
1503329546054446463,203,1503329546054274630,world,-0.155416190624,-0.0340470932424,0.544177234173,-0.0716817975044,0.0108746113256,-0.997367858887,0.000914053351153
1503329546073902302,204,1503329546073757584,world,-0.155440211296,-0.0340840145946,0.544251322746,-0.071677044034,0.0110145863146,-0.99736648798,0.00108325225301
1503329546073905996,205,1503329546073777240,world,-0.15543885529,-0.0340992361307,0.544247150421,-0.0714858695865,0.0110250515863,-0.997380256653,0.000973053567577
1503329546084234147,206,1503329546084099850,world,-0.155405968428,-0.0340387262404,0.544204831123,-0.0716500878334,0.0110318735242,-0.997368335724,0.000984139274806
1503329546103631969,207,1503329546103535648,world,-0.155455499887,-0.034057110548,0.544190824032,-0.0717977285385,0.0110773714259,-0.997357070446,0.00112532707863
1503329546113945805,208,1503329546113787278,world,-0.155460879207,-0.034082788974,0.544235467911,-0.0715473517776,0.0110798925161,-0.997375190258,0.00103638623841
1503329546113956866,209,1503329546113808300,world,-0.155450880527,-0.0340772420168,0.54425817728,-0.0715622529387,0.0110715031624,-0.997374117374,0.00106497376692
1503329546124186970,210,1503329546124071847,world,-0.155452892184,-0.0340280458331,0.544203698635,-0.0718041658401,0.011069512926,-0.997356832027,0.00100705155637
1503329546134485888,211,1503329546134343533,world,-0.155416041613,-0.034035038203,0.544221699238,-0.0714506953955,0.0109543176368,-0.997383534908,0.000939567398746
1503329546154022743,212,1503329546153852646,world,-0.155466794968,-0.0340818427503,0.544240415096,-0.0716895833611,0.0109637249261,-0.997366249561,0.000994387781247
1503329546164231705,213,1503329546164098345,world,-0.155429214239,-0.0340552069247,0.5441660285,-0.0717059075832,0.0110554452986,-0.997364223003,0.000829009979498
1503329546164237953,214,1503329546164117057,world,-0.155440613627,-0.0340849608183,0.54425662756,-0.0716625228524,0.0109091056511,-0.997368633747,0.0011092631612
1503329546184749486,215,1503329546184619379,world,-0.155461117625,-0.0341012366116,0.544256329536,-0.0715107321739,0.0110690491274,-0.997377991676,0.000961066572927
1503329546184770407,216,1503329546184639904,world,-0.155457958579,-0.0340615361929,0.544219195843,-0.0715526416898,0.011141887866,-0.997373998165,0.00107174064033
1503329546194003927,217,1503329546193874063,world,-0.155454099178,-0.0340643562376,0.544209003448,-0.0716368407011,0.0111250560731,-0.997368037701,0.00121923733968
1503329546214466095,218,1503329546214315944,world,-0.155469983816,-0.0340430997312,0.544206678867,-0.0716784968972,0.0112372236326,-0.997363805771,0.00119143363554
1503329546214478953,219,1503329546214335216,world,-0.155451506376,-0.0340943336487,0.544252634048,-0.0714571997523,0.0110796373338,-0.997381687164,0.000973524525762
1503329546224835894,220,1503329546224652755,world,-0.155411154032,-0.0340678505599,0.544226229191,-0.0714345425367,0.0109092788771,-0.997385263443,0.000884326873347
1503329546244432552,221,1503329546244273479,world,-0.155459046364,-0.0340691842139,0.544211983681,-0.0715361684561,0.0108992261812,-0.997377812862,0.00113761774264
1503329546244438771,222,1503329546244292584,world,-0.155410289764,-0.0340858958662,0.544251441956,-0.0715846642852,0.0108960950747,-0.997374534607,0.00098787387833
1503329546254716602,223,1503329546254533927,world,-0.155465751886,-0.0340781323612,0.544191479683,-0.071641035378,0.0110826343298,-0.997368514538,0.000909725786187
1503329546263944465,224,1503329546263778467,world,-0.155485391617,-0.0340914614499,0.544219791889,-0.0718914270401,0.0111246779561,-0.997349619865,0.0012511680834
1503329546274122710,225,1503329546274037039,world,-0.155467480421,-0.0340776480734,0.544202208519,-0.0716771408916,0.0111874872819,-0.997364521027,0.00116512994282
1503329546284422601,226,1503329546284318387,world,-0.155416175723,-0.034030187875,0.544190049171,-0.0716250911355,0.0110745979473,-0.997369706631,0.000910166359972
1503329546294803475,227,1503329546294610680,world,-0.155479133129,-0.0340823605657,0.544202923775,-0.0718305781484,0.0109882391989,-0.997355520725,0.00130736583378
1503329546304073512,228,1503329546303875741,world,-0.15541370213,-0.0340688303113,0.544171273708,-0.0716333240271,0.0110212275758,-0.99736982584,0.000779663911089
1503329546314160990,229,1503329546314086511,world,-0.155432164669,-0.0340469330549,0.544192135334,-0.0717307403684,0.0111094154418,-0.997361540794,0.0010639479151
1503329546324422175,230,1503329546324309280,world,-0.155405670404,-0.0340278334916,0.544212758541,-0.0716501995921,0.0110060395673,-0.997368574142,0.00100604153704
1503329546334732317,231,1503329546334585592,world,-0.155419483781,-0.0340185165405,0.544188439846,-0.0716439411044,0.0110829966143,-0.997368097305,0.00104273867328
1503329546343897134,232,1503329546343781336,world,-0.155472233891,-0.034067876637,0.544194757938,-0.0718230381608,0.0110425008461,-0.997355639935,0.00106344756205
1503329546364386290,233,1503329546364258027,world,-0.155463859439,-0.0340825729072,0.544171273708,-0.0718666315079,0.0111028505489,-0.997351765633,0.00119434657972
1503329546364411534,234,1503329546364279362,world,-0.155469343066,-0.0340947322547,0.544215738773,-0.071665532887,0.0110618770123,-0.997366905212,0.00102725240868
1503329546374594582,235,1503329546374495870,world,-0.155454993248,-0.0340732485056,0.5442045331,-0.0717004165053,0.0109773753211,-0.997365176678,0.00117518659681
1503329546383968467,236,1503329546383770841,world,-0.155476629734,-0.0340751670301,0.544205069542,-0.0717453509569,0.0111715262756,-0.99735969305,0.00121221598238
1503329546394094275,237,1503329546394009373,world,-0.155478537083,-0.0340935140848,0.544225096703,-0.0718896239996,0.0111368335783,-0.997349739075,0.00121022539679
1503329546404341363,238,1503329546404249990,world,-0.155419424176,-0.0340206846595,0.544147789478,-0.0717931985855,0.0110382465646,-0.997357964516,0.00103135756217
1503329546414645293,239,1503329546414523679,world,-0.155450314283,-0.0340704135597,0.544187605381,-0.0717550888658,0.0110373739153,-0.997360706329,0.000993788708001
1503329546423941104,240,1503329546423797996,world,-0.155413895845,-0.0340404435992,0.544199824333,-0.0716478228569,0.0110270874575,-0.997368574142,0.00098422227893
1503329546434184084,241,1503329546434039511,world,-0.155461266637,-0.0340411886573,0.544180512428,-0.07165453583,0.0113104665652,-0.997364878654,0.00104876235127
1503329546444469770,242,1503329546444322726,world,-0.155463188887,-0.0340720564127,0.544208645821,-0.0718243643641,0.0110061299056,-0.997355937958,0.00110548303928
1503329546454721885,243,1503329546454562849,world,-0.155470341444,-0.0340838991106,0.54419273138,-0.0716572105885,0.0111101837829,-0.997366845608,0.00104686978739
1503329546463898251,244,1503329546463781354,world,-0.155454829335,-0.0341058820486,0.544214367867,-0.0717909708619,0.0109492819756,-0.99735891819,0.00114825484343
1503329546474218238,245,1503329546474037207,world,-0.155467063189,-0.0341003201902,0.54423314333,-0.071564860642,0.0110117727891,-0.997374713421,0.000981361721642
1503329546484392855,246,1503329546484258804,world,-0.155467301607,-0.0340559482574,0.544177830219,-0.0718702077866,0.0111794751137,-0.997350633144,0.00120070204139
1503329546494667507,247,1503329546494579429,world,-0.155398249626,-0.0340455695987,0.544210612774,-0.0716630667448,0.0107264164835,-0.997370839119,0.0009440589929
1503329546514213667,248,1503329546514065443,world,-0.155382975936,-0.0340514034033,0.544204890728,-0.0715796872973,0.0108950957656,-0.997375011444,0.00088858359959
1503329546524471244,249,1503329546524338166,world,-0.15544731915,-0.0340580865741,0.54422545433,-0.0716874450445,0.0110458862036,-0.997365355492,0.0011199376313
1503329546524483860,250,1503329546524356218,world,-0.155429333448,-0.0340601094067,0.544215381145,-0.0714713707566,0.0109163513407,-0.997382462025,0.000952353700995
1503329546534169433,251,1503329546533862432,world,-0.155461013317,-0.0340819172561,0.544200241566,-0.0717712640762,0.0109928995371,-0.997359931469,0.0010686905589
1503329546554418661,252,1503329546554307099,world,-0.155448287725,-0.0340684242547,0.5442237854,-0.0717326179147,0.0109568377957,-0.997363269329,0.000930519658141
1503329546564710466,253,1503329546564557682,world,-0.155463367701,-0.0340822227299,0.544202983379,-0.0717486813664,0.0110850930214,-0.997360706329,0.000960096076597
1503329546564717744,254,1503329546564586987,world,-0.15547516942,-0.0340927951038,0.544179916382,-0.0716906189919,0.0111803272739,-0.997363746166,0.0010036660824
1503329546573982633,255,1503329546573849593,world,-0.155474975705,-0.0340536683798,0.544200897217,-0.0716854259372,0.011125751771,-0.997364640236,0.00109621253796
1503329546584232938,256,1503329546584111466,world,-0.155407398939,-0.0340516380966,0.54419708252,-0.0714762508869,0.0109981326386,-0.997381269932,0.000886775262188
1503329546594486439,257,1503329546594363332,world,-0.155470892787,-0.0341017618775,0.544211387634,-0.0718056187034,0.0111771421507,-0.997355401516,0.00107579107862
1503329546604729926,258,1503329546604618921,world,-0.155462890863,-0.0340534672141,0.544246077538,-0.0715664625168,0.0110067846254,-0.997374475002,0.00110414449591
1503329546614002814,259,1503329546613874577,world,-0.155399248004,-0.0340530239046,0.544204115868,-0.0715234354138,0.0109787900001,-0.99737817049,0.000769802951254
1503329546624275646,260,1503329546624170221,world,-0.15545463562,-0.0340684354305,0.544204175472,-0.0717086046934,0.0111659402028,-0.997362434864,0.0011388619896
1503329546634602210,261,1503329546634434006,world,-0.155457228422,-0.0340611338615,0.544193208218,-0.0717511847615,0.0111257303506,-0.997359991074,0.00103313091677
1503329546643811768,262,1503329546643656296,world,-0.155466839671,-0.0340678617358,0.544183194637,-0.0718764290214,0.0112172467634,-0.997349858284,0.00109114591032
1503329546664257385,263,1503329546664104720,world,-0.155461639166,-0.0341056361794,0.544241011143,-0.0715289115906,0.0110434973612,-0.997376859188,0.00100568332709
1503329546664262343,264,1503329546664125691,world,-0.155403777957,-0.0340346805751,0.544193863869,-0.071583725512,0.0109022669494,-0.997374594212,0.000900225539226
1503329546674558206,265,1503329546674405755,world,-0.155420348048,-0.0340642146766,0.544190049171,-0.0717206299305,0.010973743163,-0.997363984585,0.000884908484295
1503329546683757497,266,1503329546683578805,world,-0.155474260449,-0.0340947397053,0.544196128845,-0.0718519166112,0.0109723694623,-0.997354209423,0.00126042496413
1503329546694109737,267,1503329546693840996,world,-0.155463606119,-0.0340489223599,0.544209778309,-0.071669600904,0.0111030070111,-0.997365951538,0.00113006762695
1503329546714442038,268,1503329546714302522,world,-0.155463963747,-0.0340417698026,0.54422301054,-0.0716178938746,0.0111202867702,-0.997369527817,0.00107441062573
1503329546714445341,269,1503329546714324231,world,-0.155469223857,-0.0340650714934,0.544171631336,-0.0718411579728,0.0111572835594,-0.99735301733,0.0011207186617
1503329546724719577,270,1503329546724596168,world,-0.155450388789,-0.0340635105968,0.544179737568,-0.0717879086733,0.011052663438,-0.997358202934,0.00103696610313
1503329546733970997,271,1503329546733816616,world,-0.155471801758,-0.0340625010431,0.544211030006,-0.0718050226569,0.0110696684569,-0.997356653214,0.00105799210723
1503329546744314365,272,1503329546744121727,world,-0.155469819903,-0.0340863354504,0.5442096591,-0.0715794414282,0.0110329510644,-0.997373223305,0.00111249054316
1503329546764705055,273,1503329546764587860,world,-0.155461475253,-0.034077282995,0.544195711613,-0.071795552969,0.0109570184723,-0.997358739376,0.00101421237923
1503329546774033699,274,1503329546773865654,world,-0.155419185758,-0.0340612158179,0.544219791889,-0.0716515630484,0.0109117478132,-0.997369706631,0.000872940174304
1503329546774040476,275,1503329546773888565,world,-0.155428767204,-0.0340824201703,0.544147014618,-0.0717402100563,0.0110178925097,-0.997361898422,0.00104866514448
1503329546784303947,276,1503329546784150582,world,-0.155447468162,-0.0340828634799,0.544236600399,-0.0714982673526,0.0108670080081,-0.997380852699,0.00115712371189
1503329546794482633,277,1503329546794398476,world,-0.155408516526,-0.0340422950685,0.544225037098,-0.0715507566929,0.0109215611592,-0.997376680374,0.000924505991861
1503329546813984879,278,1503329546813808186,world,-0.155465573072,-0.0340582430363,0.544158518314,-0.0718747675419,0.0112306242809,-0.997349798679,0.00111115747131
1503329546813990920,279,1503329546813830487,world,-0.155447214842,-0.0340692251921,0.54424059391,-0.0717436075211,0.011069633998,-0.997361063957,0.00115837703925
1503329546824293416,280,1503329546824141265,world,-0.155461698771,-0.0340615510941,0.544214844704,-0.0715719163418,0.0111007774249,-0.9973731637,0.000986737548374
1503329546834587775,281,1503329546834417909,world,-0.155413746834,-0.034106194973,0.544206440449,-0.0715885385871,0.0107961911708,-0.997375369072,0.000951144495048
1503329546843876629,282,1503329546843723147,world,-0.155407696962,-0.034056480974,0.544223368168,-0.0716498419642,0.0108784334734,-0.997370183468,0.000867546768859
1503329546864221501,283,1503329546864115479,world,-0.155452042818,-0.0340245999396,0.544200003147,-0.0717147737741,0.0111649483442,-0.997362077236,0.00107618514448
1503329546864225574,284,1503329546864156494,world,-0.155427083373,-0.0340788140893,0.544209301472,-0.0715894699097,0.0110559100285,-0.997372210026,0.0011622197926
1503329546874584848,285,1503329546874431483,world,-0.155471220613,-0.0340407267213,0.544170379639,-0.0718629136682,0.0111495731398,-0.997351586819,0.00109991896898
1503329546883882467,286,1503329546883751485,world,-0.155417501926,-0.0340663939714,0.544214904308,-0.0716483816504,0.0108368825167,-0.997370660305,0.000925257569179
1503329546904404110,287,1503329546904186603,world,-0.155482321978,-0.0341056920588,0.544159650803,-0.071920260787,0.0110948756337,-0.997347891331,0.0012366832234
1503329546904411594,288,1503329546904209444,world,-0.155448570848,-0.0340091995895,0.54418104887,-0.0717866569757,0.0110362824053,-0.997358500957,0.000967345258687
1503329546914620488,289,1503329546914477311,world,-0.155469670892,-0.0340833105147,0.544227004051,-0.0717509016395,0.0109431035817,-0.997361779213,0.00124594022054
1503329546934202484,290,1503329546934012318,world,-0.155468031764,-0.0340654328465,0.544156253338,-0.071857355535,0.0110294921324,-0.997353315353,0.00113272725139
1503329546934205768,291,1503329546934034589,world,-0.155419617891,-0.0340648107231,0.544215321541,-0.0716109350324,0.0108940396458,-0.997372806072,0.000869947660249
1503329546944453148,292,1503329546944286837,world,-0.155402064323,-0.034058727324,0.544200718403,-0.0716406852007,0.010817527771,-0.997371435165,0.000933503382839
1503329546963941022,293,1503329546963763599,world,-0.155454277992,-0.0340993963182,0.54421710968,-0.0716628134251,0.0109931509942,-0.997367620468,0.00115541415289
1503329546963945068,294,1503329546963780602,world,-0.155409306288,-0.0340472608805,0.544226586819,-0.0715396553278,0.0108212241903,-0.997378587723,0.000940498081036
1503329546984395362,295,1503329546984303430,world,-0.155391916633,-0.0340323895216,0.544175624847,-0.0716590285301,0.0108615113422,-0.997369706631,0.000865215668455
1503329546984555656,296,1503329546984399364,world,-0.155460491776,-0.0340858288109,0.544239282608,-0.0715889856219,0.0109189497307,-0.997373878956,0.00103740755003
1503329546993663152,297,1503329546993564274,world,-0.155460834503,-0.0340965911746,0.544210731983,-0.0715337991714,0.0109319183975,-0.997377812862,0.000985096208751
1503329547014289361,298,1503329547014089211,world,-0.155470177531,-0.0340724810958,0.544210791588,-0.0715913027525,0.011188599281,-0.99737071991,0.00109013658948
1503329547014293115,299,1503329547014111243,world,-0.155409172177,-0.0340754017234,0.544228136539,-0.0716761350632,0.0108151752502,-0.99736893177,0.000932894414291
1503329547024431502,300,1503329547024298294,world,-0.155445978045,-0.0340613201261,0.544179916382,-0.0716329216957,0.0110986633226,-0.997368812561,0.00100769137498
1503329547034726050,301,1503329547034538955,world,-0.155460253358,-0.0340591520071,0.544222414494,-0.0717544332147,0.0110641401261,-0.997360229492,0.00123301253188
1503329547044042076,302,1503329547043831867,world,-0.155473873019,-0.0340654663742,0.544194757938,-0.0718151032925,0.0111119868234,-0.997355461121,0.00109099107794
1503329547064644039,303,1503329547064456951,world,-0.155430629849,-0.0340222492814,0.544132292271,-0.0718433186412,0.0110417334363,-0.997354090214,0.00115365104284
1503329547064649672,304,1503329547064478839,world,-0.155471533537,-0.0340908020735,0.544231593609,-0.0717401504517,0.0109152672812,-0.997362792492,0.00131564901676
1503329547073973266,305,1503329547073761282,world,-0.155414760113,-0.0340385101736,0.544164836407,-0.0716618970037,0.0111106559634,-0.997366726398,0.000893933116458
1503329547094316822,306,1503329547094208269,world,-0.155453056097,-0.0340917520225,0.544226646423,-0.0717056319118,0.0109950797632,-0.997364759445,0.00101535150316
1503329547094320722,307,1503329547094236988,world,-0.155471175909,-0.0340750291944,0.54421454668,-0.0717974081635,0.011093233712,-0.997356891632,0.00113242410589
1503329547104709101,308,1503329547104536652,world,-0.155468419194,-0.0340803526342,0.544153869152,-0.0718281269073,0.0111184250563,-0.997354388237,0.00110608933028
1503329547114005581,309,1503329547113834101,world,-0.15545424819,-0.034102935344,0.544283092022,-0.0716071277857,0.0108603490517,-0.997373342514,0.000989652238786
1503329547134522914,310,1503329547134331223,world,-0.155419290066,-0.0340409986675,0.544150412083,-0.0717615559697,0.011069633998,-0.997359991074,0.000957341515459
1503329547134532118,311,1503329547134356910,world,-0.155478715897,-0.0340813919902,0.544200658798,-0.0717956796288,0.0112361731008,-0.997355461121,0.00107093947008
1503329547144696895,312,1503329547144574639,world,-0.155411362648,-0.034039799124,0.544185757637,-0.0717109516263,0.0109200365841,-0.997365236282,0.000955380848609
1503329547164274521,313,1503329547164077227,world,-0.155450195074,-0.0340865403414,0.544210851192,-0.0715679302812,0.0108902910724,-0.997375607491,0.001147058676
1503329547164304412,314,1503329547164100978,world,-0.155417233706,-0.0341021046042,0.544182538986,-0.0716982185841,0.0107249068096,-0.997368097305,0.00110126903746
1503329547184695349,315,1503329547184597375,world,-0.155410557985,-0.0340177677572,0.544162273407,-0.0717388466001,0.0110984034836,-0.997361242771,0.000999377924018
1503329547184700322,316,1503329547184615231,world,-0.155460834503,-0.0340867415071,0.544216454029,-0.0717935040593,0.0107542993501,-0.997360825539,0.0011955620721
1503329547194056562,317,1503329547193869074,world,-0.15545809269,-0.0341027118266,0.544217228889,-0.0717076063156,0.011019741185,-0.997364044189,0.00124411541037
1503329547204352537,318,1503329547204157523,world,-0.155445948243,-0.0340249463916,0.5441660285,-0.0718172639608,0.0110477963462,-0.997356235981,0.000941820966545
1503329547214662722,319,1503329547214476207,world,-0.15545655787,-0.0340923964977,0.54424738884,-0.0717458724976,0.0109218042344,-0.997362494469,0.00107690715231
1503329547223955891,320,1503329547223769368,world,-0.155416935682,-0.0340603850782,0.544143140316,-0.071808360517,0.0108077581972,-0.997359097004,0.00120489264373
1503329547244476072,321,1503329547244342315,world,-0.15545836091,-0.0341240726411,0.544260323048,-0.0716487839818,0.0108572756872,-0.997370243073,0.00111714890227
1503329547244480385,322,1503329547244376205,world,-0.155466929078,-0.0340903438628,0.544202566147,-0.0717632099986,0.0109533779323,-0.997360885143,0.00114293640945
1503329547254744375,323,1503329547254610583,world,-0.155406787992,-0.0340326018631,0.544168114662,-0.0717125758529,0.010863667354,-0.997365653515,0.00100302754436
1503329547263967638,324,1503329547263817847,world,-0.155418753624,-0.0340864732862,0.544201016426,-0.0717000737786,0.0108720669523,-0.997366547585,0.000982647994533
1503329547274160713,325,1503329547274054719,world,-0.155398890376,-0.0340407602489,0.544197320938,-0.0715664997697,0.010996167548,-0.997374773026,0.000940683297813
1503329547284358177,326,1503329547284249884,world,-0.155468702316,-0.0340940281749,0.544192016125,-0.0717945471406,0.0110287442803,-0.997357785702,0.00120982597582
1503329547294685292,327,1503329547294523158,world,-0.155398458242,-0.0340226665139,0.544174730778,-0.0717181488872,0.0108306435868,-0.99736571312,0.000950375688262
1503329547303993183,328,1503329547303811396,world,-0.155465006828,-0.0340823344886,0.544216990471,-0.0717324540019,0.0109587935731,-0.997362911701,0.00125721096992
1503329547314245892,329,1503329547314056309,world,-0.155419096351,-0.0340614505112,0.544173657894,-0.0717449709773,0.0107866115868,-0.997364044189,0.0011636686977
1503329547324487740,330,1503329547324352888,world,-0.155470222235,-0.0340653769672,0.544207930565,-0.0717959776521,0.0110986502841,-0.997356951237,0.0011003514519
1503329547333800591,331,1503329547333583763,world,-0.155461162329,-0.0340976640582,0.544172942638,-0.0717841014266,0.0110284909606,-0.997358441353,0.00121836503968
1503329547344011440,332,1503329547343862129,world,-0.155404374003,-0.0340533927083,0.544209003448,-0.0714255645871,0.0108320210129,-0.997386693954,0.000923510116991
1503329547354315326,333,1503329547354168985,world,-0.155409231782,-0.0340429320931,0.544204175472,-0.0716240853071,0.0109292473644,-0.997371315956,0.000982095021755
1503329547364633029,334,1503329547364454431,world,-0.155442595482,-0.0341029167175,0.54421299696,-0.0715306848288,0.0108955064788,-0.997378408909,0.0010095591424
1503329547373933460,335,1503329547373767820,world,-0.155469596386,-0.0341117084026,0.544223845005,-0.0715952217579,0.0109807671979,-0.997372686863,0.00110685743857
1503329547384205516,336,1503329547384015560,world,-0.155461221933,-0.0340878181159,0.544238805771,-0.0717249140143,0.0109485499561,-0.997363746166,0.00110060011502
1503329547394494401,337,1503329547394372518,world,-0.155399873853,-0.0340603068471,0.544192314148,-0.0715835765004,0.0109180286527,-0.997374236584,0.00105358089786
1503329547414076028,338,1503329547413876845,world,-0.15545026958,-0.0340854823589,0.544259548187,-0.0716195702553,0.0109224598855,-0.997371673584,0.00100339995697
1503329547414103125,339,1503329547413900252,world,-0.155459940434,-0.0340681634843,0.544191122055,-0.0717392712831,0.0110865170136,-0.997361004353,0.00125927687623
1503329547434604835,340,1503329547434355898,world,-0.155421584845,-0.0340877771378,0.544213235378,-0.0716435611248,0.0108610456809,-0.99737071991,0.000919950718526
1503329547434644111,341,1503329547434383055,world,-0.155412346125,-0.0340700931847,0.544216632843,-0.0716102570295,0.0107270777225,-0.997374713421,0.000856755126733
1503329547443633614,342,1503329547443543852,world,-0.155413806438,-0.034088332206,0.544197797775,-0.0715701058507,0.0109298564494,-0.997375190258,0.000992074841633
1503329547464251678,343,1503329547464086804,world,-0.155455768108,-0.034043032676,0.544188141823,-0.0718227773905,0.0110501665622,-0.99735558033,0.00110801239498
1503329547464256821,344,1503329547464108768,world,-0.155453950167,-0.034061472863,0.544185996056,-0.0717081204057,0.0110695492476,-0.997363507748,0.00120626948774
1503329547474544609,345,1503329547474364419,world,-0.155414089561,-0.0340584181249,0.54420799017,-0.0716058835387,0.0109433466569,-0.997372329235,0.00107871228829
1503329547483630000,346,1503329547483533962,world,-0.15548543632,-0.0340860672295,0.544199466705,-0.0718102827668,0.0112312100828,-0.997354447842,0.00108337390702
1503329547504189192,347,1503329547504060505,world,-0.155459493399,-0.0340450145304,0.544154942036,-0.0718724578619,0.0111704487354,-0.997350692749,0.00110705173574
1503329547514529269,348,1503329547514355076,world,-0.155469372869,-0.0340670756996,0.544212222099,-0.071697331965,0.0111189801246,-0.997363865376,0.00107399106491
1503329547514549282,349,1503329547514377221,world,-0.155454844236,-0.0340605638921,0.544206738472,-0.0717219561338,0.0112425228581,-0.997360646725,0.00114410731476
1503329547523696057,350,1503329547523566271,world,-0.155463531613,-0.0340390913188,0.544205129147,-0.0717064365745,0.0110407555476,-0.997364044189,0.0011230717646
1503329547544377762,351,1503329547544219383,world,-0.155466243625,-0.0340661369264,0.544214904308,-0.0717037543654,0.0109498770908,-0.997365415096,0.00101409165654
1503329547544382895,352,1503329547544241708,world,-0.155431702733,-0.0340608172119,0.544175088406,-0.071711987257,0.0108902771026,-0.997365295887,0.0010667454917
1503329547554664919,353,1503329547554523523,world,-0.155423268676,-0.0340512990952,0.544194221497,-0.0715996026993,0.0109771518037,-0.997372627258,0.000969111861195
1503329547563897161,354,1503329547563815434,world,-0.155459374189,-0.0340662524104,0.544198870659,-0.0717809051275,0.0110832145438,-0.997358262539,0.00105584575795
1503329547574126712,355,1503329547574020135,world,-0.155463933945,-0.034061037004,0.544190466404,-0.0718068405986,0.0110831316561,-0.997356414795,0.00104363181163
1503329547584455477,356,1503329547584322584,world,-0.15546117723,-0.0340628251433,0.544199109077,-0.0718078836799,0.0110813342035,-0.997356414795,0.00102545600384
1503329547604040689,357,1503329547603858299,world,-0.155406579375,-0.0340363010764,0.544155657291,-0.071744568646,0.0109754391015,-0.997362196445,0.000979263801128
1503329547604057875,358,1503329547603877898,world,-0.155463531613,-0.0340664535761,0.544228196144,-0.0717042014003,0.0111393602565,-0.99736303091,0.00113956315909
1503329547614350428,359,1503329547614170955,world,-0.155464544892,-0.034087665379,0.544172286987,-0.0718708336353,0.0110214920714,-0.997352302074,0.0012038788991
1503329547624604807,360,1503329547624446881,world,-0.155458375812,-0.0340471379459,0.544206857681,-0.071805126965,0.0109972953796,-0.997357547283,0.00102908338886
1503329547633825449,361,1503329547633689261,world,-0.15544834733,-0.034067042172,0.544241130352,-0.0715839713812,0.011077594012,-0.997372448444,0.00112155254465
1503329547654279470,362,1503329547654150541,world,-0.155422195792,-0.0340440012515,0.544145405293,-0.0717505738139,0.0109639568254,-0.997361898422,0.000962768390309
1503329547664585443,363,1503329547664372464,world,-0.155458703637,-0.0340886600316,0.544237971306,-0.0717162415385,0.0110354321077,-0.997363388538,0.00107572006527
1503329547664599182,364,1503329547664390485,world,-0.155470922589,-0.0340617001057,0.544194161892,-0.0716547295451,0.0111365709454,-0.997366845608,0.000992342247628
1503329547683950334,365,1503329547683770668,world,-0.155446439981,-0.0340922139585,0.544258594513,-0.071642100811,0.0109700402245,-0.997369468212,0.00108296680264
