%time,field.header.seq,field.header.stamp,field.header.frame_id,field.pose.position.x,field.pose.position.y,field.pose.position.z,field.pose.orientation.x,field.pose.orientation.y,field.pose.orientation.z,field.pose.orientation.w
1503174255017785964,6846,1503174255017643044,world,0.109441049397,0.00434098020196,-0.793872058392,0.00938125979155,-0.00282643549144,-0.0100718261674,0.999901294708
1503174255028194658,6847,1503174255028050977,world,0.109446041286,0.00433348771185,-0.793854594231,0.0094567714259,-0.00289519084617,-0.00997354835272,0.999901354313
1503174255037505712,6848,1503174255037260944,world,0.109450891614,0.00434080325067,-0.793855011463,0.00935830827802,-0.0026956575457,-0.00986084062606,0.999903976917
1503174255047600096,6849,1503174255047504863,world,0.109439656138,0.00432535028085,-0.793864250183,0.00938081368804,-0.00281583680771,-0.0100988876075,0.99990105629
1503174255057917421,6850,1503174255057765541,world,0.10944532603,0.004351652693,-0.793867647648,0.00922116916627,-0.00281912204809,-0.00990522280335,0.999904453754
1503174255068180293,6851,1503174255068057813,world,0.109440840781,0.00432345177978,-0.793857038021,0.00936783663929,-0.00280651333742,-0.00998659711331,0.999902307987
1503174255077490523,6852,1503174255077292828,world,0.10945045203,0.00432854890823,-0.793859183788,0.00944193359464,-0.00281724706292,-0.0100685143843,0.999900758266
1503174255087707468,6853,1503174255087567486,world,0.109444417059,0.0043405694887,-0.793861508369,0.00929216761142,-0.00280881486833,-0.00995430815965,0.999903321266
1503174255098051201,6854,1503174255097858799,world,0.109444826841,0.00432793516666,-0.793868243694,0.0094126034528,-0.00286818295717,-0.0100681837648,0.999900877476
1503174255108261553,6855,1503174255108140025,world,0.109458431602,0.00434412015602,-0.793856263161,0.00934062805027,-0.00286779226735,-0.00992901623249,0.999902963638
1503174255117601993,6856,1503174255117434338,world,0.10943736881,0.00433487677947,-0.793836116791,0.00935319252312,-0.00245237047784,-0.00977521389723,0.999905467033
1503174255127858717,6857,1503174255127707712,world,0.109445236623,0.00434307660908,-0.793861508369,0.00943973939866,-0.00283343694173,-0.0101172504947,0.999900281429
1503174255138193463,6858,1503174255138037470,world,0.10944442451,0.00435443362221,-0.793860256672,0.0094514368102,-0.00287019647658,-0.0100551145151,0.999900639057
1503174255147429713,6859,1503174255147271826,world,0.109439283609,0.00432896940038,-0.793855309486,0.00936054717749,-0.00281121744774,-0.010004603304,0.999902188778
1503174255157705939,6860,1503174255157536016,world,0.109443865716,0.00432237936184,-0.793870270252,0.00933116022497,-0.00282741058618,-0.00998565461487,0.99990260601
1503174255168002462,6861,1503174255167815045,world,0.109444648027,0.00433258479461,-0.793854594231,0.00936828646809,-0.00283267395571,-0.0100119924173,0.999902009964
1503174255178355705,6862,1503174255178125854,world,0.109446518123,0.004341668915,-0.793846487999,0.00947114266455,-0.00283790170215,-0.0101711107418,0.999899446964
1503174255187555649,6863,1503174255187396424,world,0.109439820051,0.00435163127258,-0.79386305809,0.00933822151273,-0.00280397059396,-0.0100056044757,0.999902486801
1503174255197737611,6864,1503174255197605915,world,0.109435863793,0.00434235809371,-0.793855190277,0.00942872278392,-0.00282214884646,-0.0101245287806,0.999900341034
1503174255207973484,6865,1503174255207856687,world,0.109446749091,0.00433807400987,-0.793856203556,0.00937391631305,-0.00281060510315,-0.0101013872772,0.999901115894
1503174255218306818,6866,1503174255218140793,world,0.109454981983,0.00431893765926,-0.793868601322,0.00931865070015,-0.00282585853711,-0.00995125994086,0.999903142452
1503174255227564108,6867,1503174255227442352,world,0.10944082588,0.00432538473979,-0.793851256371,0.00955569557846,-0.00282190716825,-0.0101729324088,0.999898672104
1503174255238023655,6868,1503174255237831198,world,0.109455987811,0.00433911057189,-0.793866693974,0.00934794917703,-0.0028447334189,-0.0100088780746,0.999902188778
1503174255248225661,6869,1503174255248095182,world,0.109445348382,0.00435173837468,-0.793863177299,0.00933587830514,-0.0028285686858,-0.0101021723822,0.999901354313
1503174255257449271,6870,1503174255257296892,world,0.109435014427,0.00435595866293,-0.793857514858,0.00940281711519,-0.0028229271993,-0.0101074604318,0.999900817871
1503174255267702034,6871,1503174255267566889,world,0.109446384013,0.00432543363422,-0.793867945671,0.00936459656805,-0.00280506722629,-0.00998561177403,0.999902427197
1503174255278071873,6872,1503174255277839904,world,0.109448365867,0.00431597325951,-0.793857336044,0.00931005552411,-0.00247538648546,-0.00964008178562,0.999907135963
1503174255288346169,6873,1503174255288115102,world,0.109449319541,0.0043456046842,-0.793863117695,0.00939907878637,-0.00281082559377,-0.0100674554706,0.999901175499
1503174255297514481,6874,1503174255297350227,world,0.109444528818,0.00435275351629,-0.793874084949,0.00939099676907,-0.00285437190905,-0.0100783482194,0.99990105629
1503174255307659347,6875,1503174255307564213,world,0.109442777932,0.00433714874089,-0.793859481812,0.00933059398085,-0.00284311990254,-0.00999073125422,0.999902546406
1503174255318032454,6876,1503174255317865876,world,0.109449833632,0.00433506676927,-0.793866932392,0.00932126305997,-0.0028477460146,-0.0100016538054,0.999902427197
1503174255328292858,6877,1503174255328158337,world,0.109439045191,0.00431907828897,-0.79386472702,0.00925726071,-0.00245182635263,-0.00961313862354,0.999907910824
1503174255337623542,6878,1503174255337496608,world,0.109450608492,0.00434355204925,-0.793850541115,0.00930689275265,-0.00281376251951,-0.00996057968587,0.999903142452
1503174255347961225,6879,1503174255347766425,world,0.109454870224,0.00434586266056,-0.793861865997,0.00928204599768,-0.00282663013786,-0.0100005371496,0.999902963638
1503174255358193819,6880,1503174255358054056,world,0.109438851476,0.00431367475539,-0.793864369392,0.00949514657259,-0.00284928479232,-0.0101727265865,0.999899148941
1503174255367357631,6881,1503174255367224009,world,0.109442576766,0.004327386152,-0.793851554394,0.00928939413279,-0.00280627259053,-0.00993997044861,0.999903619289
1503174255377802413,6882,1503174255377639001,world,0.109444327652,0.00433877343312,-0.793872773647,0.0094980224967,-0.0028449378442,-0.0102090304717,0.999898672104
1503174255387999231,6883,1503174255387901457,world,0.109440974891,0.00433740764856,-0.79386985302,0.00944316294044,-0.00281884265132,-0.0101550826803,0.999899923801
1503174255398301503,6884,1503174255398153170,world,0.109448611736,0.00434208801016,-0.793851315975,0.00921953935176,-0.00244787149131,-0.00965220760554,0.999907910824
1503174255407593867,6885,1503174255407490521,world,0.109438709915,0.00433721672744,-0.793856203556,0.00944632664323,-0.00284746452235,-0.0101713696495,0.999899625778
1503174255418019102,6886,1503174255417862074,world,0.109445922077,0.00435321591794,-0.793854475021,0.00935377087444,-0.00279736006632,-0.0100762499496,0.999901592731
1503174255428255454,6887,1503174255428108647,world,0.109446302056,0.00435388972983,-0.793865978718,0.00933994911611,-0.00283164903522,-0.0100765815005,0.999901652336
1503174255437558100,6888,1503174255437393055,world,0.109440453351,0.0043134666048,-0.793850898743,0.00942527875304,-0.00280084321275,-0.0100634973496,0.99990105629
1503174255447789842,6889,1503174255447671457,world,0.109453588724,0.00434583239257,-0.793856203556,0.00935904402286,-0.00270543806255,-0.00984466262162,0.999904036522
1503174255458074896,6890,1503174255457952751,world,0.109449900687,0.00433009536937,-0.793861865997,0.00926157645881,-0.00246992404573,-0.00968295056373,0.999907195568
1503174255468425681,6891,1503174255468248043,world,0.109453052282,0.00434005819261,-0.793861210346,0.00935437437147,-0.00284848711453,-0.00998661108315,0.999902307987
1503174255477847200,6892,1503174255477611706,world,0.109451025724,0.004342015367,-0.793859302998,0.0093667190522,-0.00281379907392,-0.0100781088695,0.999901354313
1503174255488087639,6893,1503174255487927192,world,0.109446883202,0.00432230997831,-0.793855369091,0.00946424901485,-0.00282085407525,-0.0101271271706,0.999899983406
1503174255498386582,6894,1503174255498199906,world,0.109453231096,0.00435314001516,-0.793866276741,0.00943459942937,-0.00282690650783,-0.0101067731157,0.999900460243
1503174255507613149,6895,1503174255507500053,world,0.109450414777,0.00434591528028,-0.793857514858,0.00940993055701,-0.00281527079642,-0.0101469000801,0.999900281429
1503174255517978701,6896,1503174255517803124,world,0.109449438751,0.00431085331365,-0.793852329254,0.00951562542468,-0.00282919988967,-0.0101235182956,0.999899506569
1503174255528272030,6897,1503174255528085690,world,0.109455727041,0.00432969862595,-0.793849170208,0.00939767435193,-0.00286153936759,-0.00999266561121,0.99990183115
1503174255537439193,6898,1503174255537288544,world,0.109439738095,0.00433435244486,-0.793849825859,0.00933874305338,-0.00282346876338,-0.010082077235,0.999901652336
1503174255547734915,6899,1503174255547589658,world,0.109442360699,0.0043404516764,-0.793857038021,0.00950503628701,-0.00283258897252,-0.0101792104542,0.999898970127
1503174255558093098,6900,1503174255557858624,world,0.109438188374,0.00432565296069,-0.793853342533,0.00929672922939,-0.00281293387525,-0.00996277108788,0.999903202057
1503174255568219852,6901,1503174255568094619,world,0.109443515539,0.00434457650408,-0.79384469986,0.00950317364186,-0.00284508359618,-0.0101649593562,0.999899148941
1503174255577495614,6902,1503174255577294538,world,0.109443470836,0.00432375213131,-0.793850421906,0.00946505274624,-0.00286906701513,-0.0100246677175,0.999900877476
1503174255587603233,6903,1503174255587516166,world,0.109461441636,0.00435117445886,-0.793876826763,0.00937982369214,-0.00285279727541,-0.0100663807243,0.999901294708
1503174255597905527,6904,1503174255597782638,world,0.109452597797,0.00433740438893,-0.793848395348,0.00954295229167,-0.002865499584,-0.0102301668376,0.999898016453
1503174255608208306,6905,1503174255608043447,world,0.109449893236,0.00437651900575,-0.793845772743,0.00932251662016,-0.00280572776683,-0.0100248297676,0.999902307987
1503174255617449681,6906,1503174255617234250,world,0.109442085028,0.00434276787564,-0.793857634068,0.00943743716925,-0.00284150219522,-0.0101216295734,0.999900221825
1503174255627598327,6907,1503174255627504939,world,0.109440013766,0.00434015505016,-0.793851554394,0.00947986822575,-0.00281799864024,-0.0101774279028,0.999899327755
1503174255637898612,6908,1503174255637772094,world,0.109451644123,0.00436527235433,-0.793856203556,0.00927728880197,-0.00286328606308,-0.00996867846698,0.999903202057
1503174255648224524,6909,1503174255648080873,world,0.109444752336,0.00430239364505,-0.793854534626,0.00938842538744,-0.00247354269959,-0.00967086199671,0.999906122684
1503174255657487724,6910,1503174255657311275,world,0.109455615282,0.00433782441542,-0.793862402439,0.00931613426656,-0.00267748185433,-0.00985957030207,0.999904453754
1503174255667700047,6911,1503174255667578168,world,0.109442539513,0.00433048186824,-0.793858349323,0.00941797811538,-0.00283114309423,-0.0101249450818,0.999900400639
1503174255678028846,6912,1503174255677825650,world,0.109437644482,0.00433749007061,-0.793861448765,0.00939781870693,-0.00285824248567,-0.0101443249732,0.999900281429
1503174255688191831,6913,1503174255688069352,world,0.109435237944,0.00432517100126,-0.793851971626,0.00937866885215,-0.00285142916255,-0.00999705307186,0.999901950359
1503174255697398395,6914,1503174255697254416,world,0.109444268048,0.00431794021279,-0.793844759464,0.00940101686865,-0.00285595934838,-0.0100819794461,0.99990093708
1503174255707690394,6915,1503174255707566265,world,0.109442643821,0.004352894146,-0.793858647346,0.0093618677929,-0.00285125849769,-0.01002595108,0.99990183115
1503174255717996049,6916,1503174255717816899,world,0.109445728362,0.00432342709973,-0.793856918812,0.0092860814184,-0.00282248225994,-0.0099323624745,0.999903619289
1503174255728237405,6917,1503174255728067697,world,0.109425924718,0.00431554019451,-0.793845117092,0.00930487178266,-0.00243883393705,-0.00972964521497,0.999906420708
1503174255737446277,6918,1503174255737293856,world,0.109454169869,0.0043618590571,-0.793857932091,0.00933403708041,-0.00286992662586,-0.010021080263,0.999902069569
1503174255747634514,6919,1503174255747530895,world,0.109443478286,0.00433983933181,-0.793863832951,0.00937693659216,-0.00281666428782,-0.0100411586463,0.999901711941
1503174255757923788,6920,1503174255757778693,world,0.109455175698,0.00430254079401,-0.793868303299,0.00935194827616,-0.00284562632442,-0.00998639129102,0.999902427197
1503174255768316032,6921,1503174255768148695,world,0.109452560544,0.00434793438762,-0.793860137463,0.00937121268362,-0.00285224593244,-0.0100849801674,0.999901175499
1503174255777670925,6922,1503174255777446725,world,0.109442129731,0.00433647446334,-0.793856978416,0.00936367083341,-0.00282989838161,-0.0100069353357,0.999902069569
1503174255787833402,6923,1503174255787704945,world,0.109443813562,0.00433561624959,-0.793854117393,0.00938993133605,-0.00284713041037,-0.0100345863029,0.999901533127
1503174255798082122,6924,1503174255797963787,world,0.109447091818,0.00434787850827,-0.793849468231,0.00940267648548,-0.00282865506597,-0.0100615415722,0.999901175499
1503174255808314631,6925,1503174255808185252,world,0.109453953803,0.00433862628415,-0.793858706951,0.00934238359332,-0.00282691256143,-0.0100128641352,0.999902188778
1503174255829748359,6926,1503174255828187873,world,0.109450124204,0.00434383843094,-0.793858885765,0.0093716531992,-0.00282960617915,-0.0100561529398,0.999901533127
1503174255829787364,6927,1503174255828239418,world,0.109455943108,0.00434991205111,-0.793864667416,0.00941760931164,-0.00283668376505,-0.0101587846875,0.999900043011
1503174255837641084,6928,1503174255837511521,world,0.109448567033,0.00434137834236,-0.793868660927,0.00938417389989,-0.00284296041355,-0.0100542036816,0.999901473522
1503174255847881323,6929,1503174255847757598,world,0.109441816807,0.00432588532567,-0.793850839138,0.00924583151937,-0.00246129883453,-0.00962667074054,0.999907851219
1503174255858257229,6930,1503174255858041772,world,0.109445735812,0.00433704163879,-0.793854832649,0.00936895236373,-0.00270690000616,-0.00987124443054,0.999903678894
1503174255867438533,6931,1503174255867261899,world,0.109435006976,0.00434131082147,-0.793854355812,0.00943624414504,-0.00281909620389,-0.0101522915065,0.999899983406
1503174255877798857,6932,1503174255877579041,world,0.10944596678,0.00434739468619,-0.793856203556,0.00938289985061,-0.002874012338,-0.0100335841998,0.999901533127
1503174255887927323,6933,1503174255887762309,world,0.109447941184,0.0043341498822,-0.793869197369,0.00942715164274,-0.00284716137685,-0.0101264156401,0.999900221825
1503174255898231115,6934,1503174255898045941,world,0.109449878335,0.00434040045366,-0.793857693672,0.0093654403463,-0.00282000866719,-0.0100552635267,0.999901652336
1503174255907369090,6935,1503174255907231669,world,0.109441146255,0.00433153659105,-0.793856024742,0.00945879984647,-0.00287697953172,-0.0100258979946,0.999900877476
1503174255918318311,6936,1503174255918170229,world,0.109444156289,0.0043332404457,-0.793862879276,0.00930900685489,-0.00288269878365,-0.010026505217,0.999902248383
1503174255927500401,6937,1503174255927391633,world,0.109444379807,0.00431791041046,-0.793865978718,0.00938470475376,-0.00288149667904,-0.0100315175951,0.999901473522
1503174255937905479,6938,1503174255937675158,world,0.109440818429,0.00435404619202,-0.793841540813,0.00932231824845,-0.00280456454493,-0.0100375786424,0.999902248383
1503174255948139499,6939,1503174255947963134,world,0.109444528818,0.00434788642451,-0.793858528137,0.00937861111015,-0.00283650238998,-0.0100623108447,0.999901354313
1503174255958392594,6940,1503174255958245521,world,0.109435029328,0.00432556169108,-0.793849110603,0.00943644624203,-0.00282363174483,-0.0101014841348,0.999900519848
1503174255967598182,6941,1503174255967472326,world,0.109438233078,0.00435654725879,-0.793849110603,0.00942311808467,-0.0028491273988,-0.0100846746936,0.999900639057
1503174255977907613,6942,1503174255977776950,world,0.109443664551,0.0043412479572,-0.79386818409,0.00942878518254,-0.00287191779353,-0.010115285404,0.999900221825
1503174255988245206,6943,1503174255988036633,world,0.109438300133,0.00431220373139,-0.793865025043,0.00939088035375,-0.00283112609759,-0.0100287608802,0.999901652336
1503174255997478359,6944,1503174255997279908,world,0.109436646104,0.00433779228479,-0.793854475021,0.00926890317351,-0.00246608583257,-0.00966855604202,0.999907255173
1503174256007737222,6945,1503174256007568595,world,0.109433971345,0.00434311991557,-0.793848991394,0.00939156208187,-0.00283161643893,-0.0100230164826,0.999901652336
1503174256017876643,6946,1503174256017776771,world,0.109436117113,0.00435344828293,-0.793866157532,0.00934584718198,-0.00280848937109,-0.0100228842348,0.999902188778
1503174256028343175,6947,1503174256028199363,world,0.109438590705,0.00432493118569,-0.793852746487,0.00938921049237,-0.00282901059836,-0.0100518837571,0.999901413918
1503174256037616441,6948,1503174256037475530,world,0.109434738755,0.00433139968663,-0.793848931789,0.0093884607777,-0.00281580886804,-0.0100807966664,0.999901175499
1503174256047920409,6949,1503174256047751703,world,0.109440669417,0.00433144858107,-0.79386729002,0.00939575117081,-0.002862455789,-0.0100516546518,0.999901294708
1503174256058309616,6950,1503174256058090566,world,0.109434694052,0.00431694416329,-0.793842971325,0.00953603256494,-0.00284485099837,-0.0102049773559,0.999898374081
1503174256067468541,6951,1503174256067272073,world,0.109454274178,0.00435706740245,-0.793874800205,0.00941540114582,-0.00290063465945,-0.01007027179,0.999900758266
1503174256077742565,6952,1503174256077549115,world,0.109441034496,0.00434116506949,-0.793858885765,0.00932679977268,-0.00282665598206,-0.00999733433127,0.999902546406
1503174256087990941,6953,1503174256087781922,world,0.1094449386,0.00433248886839,-0.79385972023,0.0095367077738,-0.00282390159555,-0.0102045452222,0.999898433685
1503174256098154200,6954,1503174256098038325,world,0.109447665513,0.00433925166726,-0.793867349625,0.00931546743959,-0.0028201690875,-0.00998825486749,0.999902784824
1503174256107429339,6955,1503174256107244965,world,0.109443284571,0.00432120403275,-0.793850004673,0.00936964619905,-0.00281635671854,-0.0100271850824,0.999901890755
1503174256117766547,6956,1503174256117549445,world,0.109446540475,0.00435464363545,-0.793853342533,0.0093280589208,-0.00281332968734,-0.0100336177275,0.999902188778
1503174256128010531,6957,1503174256127820756,world,0.109448671341,0.0043145804666,-0.793863594532,0.00931918807328,-0.00281883683056,-0.0100312763825,0.999902307987
1503174256138246795,6958,1503174256138100107,world,0.109445780516,0.00430663302541,-0.793846011162,0.00936989951879,-0.00284559233114,-0.0100296735764,0.999901771545
1503174256147499053,6959,1503174256147344906,world,0.109461523592,0.00434681912884,-0.793865919113,0.00933975540102,-0.00286089093424,-0.0100172655657,0.999902188778
1503174256157776599,6960,1503174256157634813,world,0.109446190298,0.00429674517363,-0.793860554695,0.00944031681865,-0.00280892732553,-0.0101158292964,0.999900341034
1503174256168056347,6961,1503174256167934136,world,0.109457336366,0.00434693042189,-0.793852865696,0.00943439174443,-0.00289461039938,-0.0100307865068,0.99990105629
1503174256178435867,6962,1503174256178251312,world,0.109450727701,0.00433024624363,-0.793868303299,0.00936843734235,-0.00282651628368,-0.0100364321843,0.999901771545
1503174256187697193,6963,1503174256187546453,world,0.109441690147,0.0042968345806,-0.79385727644,0.00940314959735,-0.00288294139318,-0.00999695248902,0.999901652336
1503174256198057313,6964,1503174256197837623,world,0.109452113509,0.00435206340626,-0.793857932091,0.00935006886721,-0.00281136971898,-0.0100335227326,0.999902009964
1503174256208265188,6965,1503174256208097209,world,0.109447449446,0.00433891732246,-0.793862998486,0.00936544965953,-0.00283939973451,-0.0101205203682,0.999900877476
1503174256217491737,6966,1503174256217361971,world,0.109453201294,0.00431849202141,-0.793870270252,0.00935006421059,-0.00283219711855,-0.0100208539516,0.999902069569
1503174256227887555,6967,1503174256227663795,world,0.109457202256,0.00434535462409,-0.793846786022,0.00933440960944,-0.00282445596531,-0.0100014861673,0.999902427197
1503174256238232950,6968,1503174256238021463,world,0.1094462201,0.00430756853893,-0.793855190277,0.00922808423638,-0.00243472121656,-0.0096631096676,0.999907791615
1503174256247391845,6969,1503174256247244604,world,0.109443761408,0.00434051500633,-0.793859004974,0.00925914850086,-0.00243746885099,-0.00970689486712,0.999907016754
1503174256257756801,6970,1503174256257547322,world,0.109453938901,0.00432911282405,-0.793859422207,0.00936088524759,-0.00284037692472,-0.0100311888382,0.99990183115
1503174256267941299,6971,1503174256267784454,world,0.109459169209,0.00433630077168,-0.793862998486,0.00935888849199,-0.00284834369086,-0.0100515270606,0.999901652336
1503174256278321719,6972,1503174256278031449,world,0.109457015991,0.00432917987928,-0.793860316277,0.00940109416842,-0.0028458063025,-0.00999561231583,0.999901771545
1503174256288477911,6973,1503174256288292298,world,0.109446525574,0.00432215305045,-0.793854534626,0.00943398382515,-0.00283589190803,-0.0101209599525,0.999900281429
1503174256297811165,6974,1503174256297580198,world,0.109461791813,0.00432464107871,-0.79386472702,0.0093278279528,-0.00271545583382,-0.00986352842301,0.999904155731
1503174256307994612,6975,1503174256307853672,world,0.109453193843,0.00433942209929,-0.793854475021,0.00930761918426,-0.0028007957153,-0.00991817191243,0.999903619289
1503174256318387132,6976,1503174256318169948,world,0.109442390501,0.0043189059943,-0.793851971626,0.00956496782601,-0.00283953500912,-0.0102037144825,0.999898195267
1503174256327652481,6977,1503174256327468573,world,0.109450735152,0.00433727353811,-0.793852508068,0.00935529731214,-0.00284078530967,-0.00996983423829,0.999902546406
1503174256337943481,6978,1503174256337737562,world,0.109451264143,0.00434239488095,-0.793857038021,0.00934846699238,-0.00280996412039,-0.0100186914206,0.999902129173
1503174256348218494,6979,1503174256348049518,world,0.109440483153,0.00431746570393,-0.793859779835,0.0094408839941,-0.00282822758891,-0.0101343113929,0.999900102615
1503174256357501927,6980,1503174256357282716,world,0.109458453953,0.00435996754095,-0.793865978718,0.00935808010399,-0.00287075689994,-0.0100551843643,0.999901533127
1503174256367815222,6981,1503174256367596812,world,0.109449803829,0.00431926362216,-0.793852806091,0.00938157550991,-0.00285016279668,-0.0100455023348,0.999901473522
1503174256378159011,6982,1503174256377901118,world,0.109445631504,0.0043284506537,-0.79385894537,0.00934972707182,-0.00286429747939,-0.0100192753598,0.999902009964
1503174256388328189,6983,1503174256388217020,world,0.109466001391,0.00434416718781,-0.793862164021,0.00930058397353,-0.00287550454959,-0.0099630644545,0.999903023243
1503174256397808225,6984,1503174256397548732,world,0.109436310828,0.00430944655091,-0.79385381937,0.00963241048157,-0.00285693118349,-0.0102831684053,0.999896705151
1503174256407943646,6985,1503174256407829168,world,0.1094648242,0.004337023478,-0.793869972229,0.00924161728472,-0.00281517999247,-0.00988414790481,0.999904453754
1503174256417504002,6986,1503174256417311788,world,0.109455682337,0.00434685731307,-0.793859601021,0.00936854816973,-0.00246405159123,-0.00981182046235,0.999904930592
1503174256427858804,6987,1503174256427672684,world,0.109444074333,0.00433668633923,-0.793847799301,0.00943437032402,-0.00283090537414,-0.010139323771,0.999900102615
1503174256438212023,6988,1503174256437992107,world,0.109454967082,0.00433521391824,-0.793869078159,0.00931932311505,-0.00286718760617,-0.00996889732778,0.999902784824
1503174256448508445,6989,1503174256448301347,world,0.109449028969,0.00432122731581,-0.793857216835,0.00942361913621,-0.00285164499655,-0.0100873336196,0.999900639057
1503174256457853098,6990,1503174256457629454,world,0.109462864697,0.00434888061136,-0.793855547905,0.00932841282338,-0.00284356274642,-0.0100024398416,0.999902427197
1503174256468247656,6991,1503174256468015210,world,0.109459348023,0.00433643022552,-0.793850958347,0.0093621853739,-0.00282645691186,-0.010050800629,0.999901652336
1503174256477477948,6992,1503174256477258921,world,0.109444506466,0.00431723101065,-0.79385715723,0.00931304693222,-0.00282943551429,-0.00996960699558,0.999902963638
1503174256487743984,6993,1503174256487564072,world,0.109456814826,0.00435567228124,-0.793865859509,0.0093322461471,-0.00286409724504,-0.00998631492257,0.999902546406
1503174256498105855,6994,1503174256497873602,world,0.109438031912,0.00430539995432,-0.793861091137,0.00945515278727,-0.00283812405542,-0.010107409209,0.999900221825
1503174256508331907,6995,1503174256508131182,world,0.10944930464,0.00432869093493,-0.793854057789,0.00936827529222,-0.00277222669683,-0.00996598415077,0.99990260601
1503174256517637969,6996,1503174256517450820,world,0.109447181225,0.00434563262388,-0.793852388859,0.0093265036121,-0.00281949993223,-0.0100100450218,0.999902486801
1503174256527936964,6997,1503174256527772556,world,0.109436027706,0.00433361902833,-0.793855190277,0.00940775219351,-0.00283403974026,-0.0102125061676,0.999899625778
1503174256538285725,6998,1503174256538046387,world,0.109451055527,0.00434070173651,-0.793864190578,0.00936476327479,-0.0028123864904,-0.0100407144055,0.99990183115
1503174256547425442,6999,1503174256547248596,world,0.109445586801,0.00431885942817,-0.79385894537,0.0093793971464,-0.00285804597661,-0.00999013148248,0.999902009964
1503174256557698852,7000,1503174256557509862,world,0.109459653497,0.00432874821126,-0.793864667416,0.00938898231834,-0.00282542058267,-0.0100702615455,0.999901235104
1503174256567940949,7001,1503174256567803036,world,0.109454840422,0.00435393769294,-0.793853759766,0.00933251809329,-0.00280383485369,-0.0100359367207,0.999902248383
1503174256578338264,7002,1503174256578132561,world,0.109449468553,0.00431573111564,-0.793844103813,0.00942604243755,-0.00282415025868,-0.0100798374042,0.999900817871
1503174256587594828,7003,1503174256587414669,world,0.109437599778,0.00432703457773,-0.79386729002,0.00933782290667,-0.00281370524317,-0.00999276526272,0.999902546406
1503174256597954213,7004,1503174256597730452,world,0.109438881278,0.00435163639486,-0.793853521347,0.0094196582213,-0.00280654523522,-0.0101788155735,0.999899864197
1503174256608124292,7005,1503174256608015177,world,0.109444119036,0.00432737683877,-0.793851315975,0.00937091931701,-0.0028205672279,-0.0100556463003,0.999901592731
1503174256617541622,7006,1503174256617293735,world,0.109449408948,0.00433479668573,-0.793872714043,0.00940242316574,-0.00287546007894,-0.0100402440876,0.999901294708
1503174256638084811,7007,1503174256637812645,world,0.10945315659,0.00433265557513,-0.793843328953,0.00942610669881,-0.00282560754567,-0.010116731748,0.999900400639
1503174256638095387,7008,1503174256637847611,world,0.109461076558,0.00433706957847,-0.793861329556,0.00935109704733,-0.00281341280788,-0.010005325079,0.999902307987
1503174256648206714,7009,1503174256648070939,world,0.109461724758,0.00432283943519,-0.793864786625,0.00928596686572,-0.00246779457666,-0.00966028310359,0.999907195568
1503174256667566830,7010,1503174256667439207,world,0.109456844628,0.00435429392383,-0.793852746487,0.00939851906151,-0.00286960974336,-0.010010833852,0.999901592731
1503174256667583526,7011,1503174256667496801,world,0.109451279044,0.00435372302309,-0.793854236603,0.00935552176088,-0.00269114808179,-0.00989697128534,0.999903619289
1503174256678286223,7012,1503174256677747635,world,0.109443306923,0.00431472808123,-0.793857812881,0.00941359996796,-0.00283948029391,-0.0100676370785,0.999900996685
1503174256688135070,7013,1503174256687990081,world,0.109448075294,0.00436051096767,-0.793835759163,0.00936153624207,-0.00279482407495,-0.0100084217265,0.999902188778
1503174256698398007,7014,1503174256698261852,world,0.109449259937,0.00435283686966,-0.79384958744,0.00927332416177,-0.00279669510201,-0.010010833852,0.999903023243
1503174256707606217,7015,1503174256707497984,world,0.109450861812,0.00433908775449,-0.793860197067,0.00942804571241,-0.00287641957402,-0.0101177524775,0.999900281429
1503174256717923766,7016,1503174256717752436,world,0.109466388822,0.00436213193461,-0.793844461441,0.00932248216122,-0.00281865149736,-0.00995866209269,0.999903023243
1503174256728229862,7017,1503174256728054535,world,0.109443798661,0.00434262212366,-0.793843567371,0.00934199336916,-0.00245200633071,-0.00982582010329,0.999905109406
1503174256737474525,7018,1503174256737259743,world,0.109451115131,0.00435494398698,-0.793831825256,0.00937739014626,-0.00281462469138,-0.0100177386776,0.999901950359
1503174256747647047,7019,1503174256747527129,world,0.10945148766,0.00435060448945,-0.793865740299,0.00941334571689,-0.00287464749999,-0.0100722573698,0.999900877476
1503174256757901045,7020,1503174256757765487,world,0.109437167645,0.00433007441461,-0.793860137463,0.00958537496626,-0.00284154689871,-0.0102976392955,0.999896943569
1503174256768213244,7021,1503174256768011792,world,0.109450779855,0.00436712568626,-0.793846666813,0.00931003503501,-0.00286002247594,-0.0100048473105,0.999902546406
1503174256777304584,7022,1503174256777211032,world,0.109438993037,0.00432396261021,-0.793844997883,0.00937800761312,-0.00281891715713,-0.0100462259725,0.999901652336
1503174256787604601,7023,1503174256787469385,world,0.10944083333,0.00433020759374,-0.793849766254,0.00945827737451,-0.00285201426595,-0.0101261464879,0.999899923801
1503174256797900307,7024,1503174256797758510,world,0.109449587762,0.00435569835827,-0.793843388557,0.00932864379138,-0.00284997583367,-0.0100462986156,0.999901950359
1503174256808474989,7025,1503174256808158800,world,0.109442956746,0.00430788006634,-0.793861091137,0.009596276097,-0.00287350849248,-0.0102200265974,0.999897658825
1503174256817693260,7026,1503174256817443923,world,0.109458342195,0.00433092797175,-0.793857455254,0.0092953229323,-0.00279743992724,-0.00994954165071,0.999903440475
1503174256827897430,7027,1503174256827708229,world,0.109442584217,0.00434707151726,-0.793847858906,0.00938773434609,-0.00281739770435,-0.0100361257792,0.999901652336
1503174256838192215,7028,1503174256838021838,world,0.109446913004,0.00432467134669,-0.793844640255,0.00949953962117,-0.00281251012348,-0.0101578002796,0.999899327755
1503174256848403439,7029,1503174256848252106,world,0.109451770782,0.00435122102499,-0.793861567974,0.0093308351934,-0.00270561175421,-0.009870368056,0.999904036522
1503174256857747377,7030,1503174256857529970,world,0.109433725476,0.0043239411898,-0.793844342232,0.0094225499779,-0.00282499939203,-0.0101370373741,0.999900221825
1503174256868038333,7031,1503174256867843375,world,0.109448119998,0.00434099137783,-0.793861985207,0.00932477694005,-0.00279625179246,-0.010033630766,0.999902307987
1503174256878464445,7032,1503174256878198856,world,0.109438814223,0.00432056374848,-0.793848216534,0.00931652914733,-0.00281555624679,-0.0100000454113,0.999902665615
1503174256887666094,7033,1503174256887521679,world,0.10944584012,0.004329347983,-0.793854832649,0.00948296487331,-0.00285951956175,-0.0101545266807,0.999899446964
1503174256898004964,7034,1503174256897823283,world,0.109445378184,0.00434189196676,-0.793856620789,0.00929193105549,-0.00286745885387,-0.00996335875243,0.999903082848
1503174256908311519,7035,1503174256908156157,world,0.109431192279,0.0043322830461,-0.79383957386,0.0094823949039,-0.0028103790246,-0.0101487571374,0.999899625778
1503174256917525248,7036,1503174256917378858,world,0.109439432621,0.00432060239837,-0.793863415718,0.00920213386416,-0.00245220283978,-0.00963683240116,0.999908268452
1503174256928714526,7037,1503174256927680691,world,0.109451368451,0.00434444565326,-0.793850779533,0.00934031512588,-0.00271010678262,-0.00984618999064,0.999904215336
1503174256938190730,7038,1503174256938035076,world,0.109434738755,0.0043307505548,-0.793842196465,0.00950070563704,-0.00284823100083,-0.0101333102211,0.999899446964
1503174256947428739,7039,1503174256947271842,world,0.109434142709,0.00433474127203,-0.793861448765,0.00938777811825,-0.00279910559766,-0.0101028634235,0.999900996685
1503174256957795222,7040,1503174256957570980,world,0.109440326691,0.0043503693305,-0.793853104115,0.00942017044872,-0.00284341513179,-0.0101249581203,0.999900400639
1503174256967997285,7041,1503174256967887129,world,0.109444364905,0.00433441996574,-0.793860852718,0.00950146652758,-0.00285341753624,-0.0101915514097,0.999898850918
1503174256978212818,7042,1503174256978086509,world,0.109448321164,0.0043236897327,-0.793872237206,0.00937751494348,-0.00285906833597,-0.0100576626137,0.999901413918
1503174256987362493,7043,1503174256987233056,world,0.109449118376,0.00433692196384,-0.793856859207,0.0094626089558,-0.00282956962474,-0.0101389335468,0.999899804592
1503174256997719392,7044,1503174256997525438,world,0.109454929829,0.00434694811702,-0.793854951859,0.00932616554201,-0.00280962814577,-0.00998216215521,0.999902784824
1503174257007968924,7045,1503174257007820065,world,0.109448246658,0.00434573180974,-0.793868422508,0.00931557267904,-0.00267879338935,-0.00983400642872,0.999904692173
1503174257018351478,7046,1503174257018108087,world,0.109431415796,0.00432927859947,-0.793846547604,0.00946974754333,-0.00284253084101,-0.010093851015,0.999900221825
1503174257027681905,7047,1503174257027547783,world,0.109447419643,0.00434406427667,-0.793857395649,0.00931399315596,-0.00285925529897,-0.00996208656579,0.999902963638
1503174257037881996,7048,1503174257037746600,world,0.109456591308,0.00433784397319,-0.793871998787,0.00931414123625,-0.00285368412733,-0.0099594630301,0.999902963638
1503174257048206446,7049,1503174257048015313,world,0.109442993999,0.00432386528701,-0.793854594231,0.00946134980768,-0.00283531541936,-0.0101021882147,0.999900221825
1503174257058506261,7050,1503174257058320062,world,0.109454654157,0.00433058291674,-0.79385882616,0.00933743547648,-0.00280652730726,-0.00997778214514,0.999902665615
1503174257067679427,7051,1503174257067577807,world,0.109444893897,0.00433379877359,-0.793864607811,0.00928212143481,-0.00246007321402,-0.0096748098731,0.999907076359
1503174257078099351,7052,1503174257077902524,world,0.109445296228,0.00434140767902,-0.793853342533,0.00948955211788,-0.00283468840644,-0.0101729063317,0.99989926815
1503174257088357657,7053,1503174257088185595,world,0.109456986189,0.00433389237151,-0.793878674507,0.00933868251741,-0.00291006616317,-0.0100036626682,0.999902129173
1503174257097683820,7054,1503174257097504536,world,0.10945033282,0.00433538667858,-0.793858289719,0.00940226670355,-0.00282067479566,-0.0100634163246,0.999901235104
1503174257107947220,7055,1503174257107814834,world,0.109455637634,0.00433847727254,-0.793850362301,0.0093533443287,-0.00287129008211,-0.0099446894601,0.999902665615
1503174257118306512,7056,1503174257118128723,world,0.109443798661,0.00432174699381,-0.79386818409,0.00940754450858,-0.00287091662176,-0.0100287860259,0.999901354313
1503174257127625874,7057,1503174257127456528,world,0.109448522329,0.00434202561155,-0.793846428394,0.00940090138465,-0.00280830170959,-0.0100963478908,0.999900877476
1503174257137998520,7058,1503174257137732323,world,0.109453521669,0.00433942349628,-0.79386049509,0.00929377134889,-0.0028554298915,-0.00998214446008,0.999902963638
1503174257148255916,7059,1503174257148005137,world,0.109445571899,0.00431992532685,-0.793865859509,0.00932974554598,-0.00272383005358,-0.00982151087373,0.999904453754
1503174257158526788,7060,1503174257158278101,world,0.10945443064,0.00434423564002,-0.793859660625,0.00937339756638,-0.00284026423469,-0.0101000200957,0.99990105629
1503174257167696077,7061,1503174257167546992,world,0.109456934035,0.00434354040772,-0.793861448765,0.00934722926468,-0.00281110825017,-0.0100732278079,0.999901592731
1503174257178065432,7062,1503174257177805817,world,0.109437540174,0.0043101105839,-0.793865680695,0.0094029083848,-0.00284189870581,-0.0100587727502,0.999901235104
1503174257188309670,7063,1503174257188093052,world,0.109449148178,0.00434883730486,-0.793850421906,0.00936621241271,-0.00285154022276,-0.00999545771629,0.999902069569
1503174257197466077,7064,1503174257197268896,world,0.109441593289,0.00431450409815,-0.793864965439,0.00940230302513,-0.00286759180017,-0.010035648942,0.999901354313
1503174257207778225,7065,1503174257207609128,world,0.109449535608,0.00431495346129,-0.793867886066,0.00930755306035,-0.00281555834226,-0.00996955018491,0.999903082848
1503174257218106668,7066,1503174257217911191,world,0.109448380768,0.0043188133277,-0.793845713139,0.00925600063056,-0.00246616755612,-0.00961627904326,0.999907851219
1503174257228375882,7067,1503174257228181361,world,0.109443105757,0.00430350378156,-0.793856561184,0.00943250767887,-0.00282062357292,-0.0100757386535,0.999900817871
1503174257237656251,7068,1503174257237480448,world,0.109455779195,0.00434951437637,-0.793869793415,0.00932672526687,-0.00287930062041,-0.00997385475785,0.999902665615
1503174257247916794,7069,1503174257247772982,world,0.109437145293,0.00433679996058,-0.793855428696,0.00950133986771,-0.00282787671313,-0.0101492060348,0.99989938736
1503174257258304844,7070,1503174257258076000,world,0.109446622431,0.00433679996058,-0.793868839741,0.00935568194836,-0.00281461211853,-0.00998925790191,0.999902367592
1503174257267517088,7071,1503174257267284624,world,0.109446212649,0.00433193147182,-0.793860673904,0.00928587839007,-0.00282118655741,-0.00993418879807,0.999903619289
1503174257277722385,7072,1503174257277546864,world,0.109435260296,0.00432598032057,-0.793843865395,0.00948349945247,-0.00281985127367,-0.0101568168029,0.999899506569
1503174257287938247,7073,1503174257287793340,world,0.109451793134,0.00434910738841,-0.793877363205,0.00925315637141,-0.00281071430072,-0.00996654946357,0.999903559685
1503174257298278741,7074,1503174257298095778,world,0.109442412853,0.00432515889406,-0.793854117393,0.0095029361546,-0.00286277057603,-0.0101784178987,0.999899029732
1503174257307516850,7075,1503174257307380993,world,0.109444156289,0.00434269895777,-0.793853342533,0.00925508141518,-0.0024684574455,-0.00973825156689,0.999906718731
1503174257317929599,7076,1503174257317696821,world,0.109450548887,0.00435013324022,-0.793871581554,0.0093374075368,-0.00286304042675,-0.00992021616548,0.999903142452
1503174257328113300,7077,1503174257327991016,world,0.109439134598,0.00433329911903,-0.793846905231,0.00929534807801,-0.00267286691815,-0.0101319607347,0.999901890755
1503174257338446087,7078,1503174257338294841,world,0.1094436571,0.00433816108853,-0.793855011463,0.0092842252925,-0.00285220635124,-0.00996081531048,0.999903202057
1503174257347691994,7079,1503174257347559401,world,0.109437711537,0.00429502315819,-0.793851613998,0.00943516939878,-0.00284149171785,-0.0100522171706,0.99990093708
1503174257357976727,7080,1503174257357813166,world,0.109456650913,0.00433418666944,-0.793845295906,0.00936021283269,-0.00283013912849,-0.00998508092016,0.999902307987
1503174257368252363,7081,1503174257368071352,world,0.109448470175,0.00434017460793,-0.793862342834,0.00928892660886,-0.00284000462852,-0.0099399862811,0.99990350008
1503174257377543188,7082,1503174257377307697,world,0.109433494508,0.00432751933113,-0.793861448765,0.00938021298498,-0.00246341852471,-0.00978372525424,0.999905109406
1503174257387775739,7083,1503174257387594892,world,0.109449915588,0.00434093968943,-0.793842315674,0.00934497546405,-0.00282007851638,-0.00993920769542,0.999903023243
1503174257398138252,7084,1503174257397884834,world,0.109452165663,0.0043294550851,-0.79387062788,0.00934759899974,-0.00279940036125,-0.00999520998448,0.999902427197
1503174257408428290,7085,1503174257408203406,world,0.109440438449,0.00432305876166,-0.793861687183,0.00937718432397,-0.00285513885319,-0.0100940261036,0.99990105629
1503174257417727945,7086,1503174257417490480,world,0.109449133277,0.00437582936138,-0.793842375278,0.00937884487212,-0.00289230979979,-0.0100237578154,0.999901592731
1503174257427891329,7087,1503174257427739140,world,0.109433628619,0.00433052517474,-0.793867588043,0.00949048157781,-0.0028125543613,-0.0101655339822,0.99989938736
1503174257438233670,7088,1503174257438032657,world,0.109451979399,0.00432167621329,-0.793860733509,0.00936765689403,-0.00288264639676,-0.00999010633677,0.999902069569
1503174257447448516,7089,1503174257447246730,world,0.109454885125,0.00435230042785,-0.793864965439,0.00940273329616,-0.0029159609694,-0.0100370272994,0.999901175499
1503174257457755936,7090,1503174257457580142,world,0.109444312751,0.00431292643771,-0.793877363205,0.00939805805683,-0.00283114262857,-0.0100765060633,0.99990105629
1503174257468016517,7091,1503174257467842669,world,0.109448596835,0.00433418760076,-0.793852746487,0.00930994283408,-0.00284843379632,-0.00998962298036,0.999902665615
1503174257478329376,7092,1503174257478088982,world,0.109448492527,0.00434530572966,-0.793860793114,0.00932951550931,-0.0027884838637,-0.00999217201024,0.999902665615
1503174257487395839,7093,1503174257487275809,world,0.109440013766,0.00433477666229,-0.793872356415,0.00950238481164,-0.00287320907228,-0.0102216657251,0.99989849329
1503174257497760395,7094,1503174257497591915,world,0.109444372356,0.00434559164569,-0.793841660023,0.00936169549823,-0.00287101138383,-0.00998741295189,0.999902188778
1503174257507960534,7095,1503174257507821748,world,0.109435431659,0.00432447297499,-0.793860316277,0.00939943920821,-0.00283838994801,-0.0100798001513,0.999900996685
1503174257518239396,7096,1503174257518091631,world,0.109449066222,0.00433189561591,-0.793857634068,0.00941465981305,-0.00283553847112,-0.0100702382624,0.999900996685
1503174257527478798,7097,1503174257527287725,world,0.109454780817,0.00436101527885,-0.793870389462,0.00927231647074,-0.00279972748831,-0.00999525282532,0.999903142452
1503174257537687306,7098,1503174257537536800,world,0.109443970025,0.00432043196633,-0.793864905834,0.0093257278204,-0.00244218041189,-0.00969036668539,0.999906599522
1503174257547967350,7099,1503174257547784852,world,0.10945212841,0.00432455912232,-0.793854534626,0.00932671781629,-0.00280765234493,-0.00994580425322,0.999903142452
1503174257558275511,7100,1503174257558078181,world,0.109446294606,0.00434123119339,-0.793852865696,0.00927032995969,-0.00246709096245,-0.00964524038136,0.999907433987
1503174257567390795,7101,1503174257567289410,world,0.109449893236,0.0043179388158,-0.793870270252,0.00939544383436,-0.00286319525912,-0.0100703099743,0.999901115894
1503174257577814506,7102,1503174257577615403,world,0.109455250204,0.00432668020949,-0.793874025345,0.0093885678798,-0.00286596082151,-0.0100018465891,0.999901771545
1503174257588072553,7103,1503174257587883631,world,0.109443239868,0.00432509323582,-0.793855249882,0.00945107545704,-0.00284056854434,-0.0101574966684,0.999899744987
1503174257598372667,7104,1503174257598162594,world,0.109448865056,0.00433673663065,-0.793873667717,0.00942879822105,-0.00287335296161,-0.0101136593148,0.999900281429
1503174257607593504,7105,1503174257607459484,world,0.109442524612,0.00434990646318,-0.793851315975,0.00936727691442,-0.00280269188806,-0.0100931599736,0.999901294708
1503174257618050175,7106,1503174257617774607,world,0.109445005655,0.00431634252891,-0.793844938278,0.00938065070659,-0.00282985344529,-0.0100298495963,0.999901711941
1503174257628261109,7107,1503174257628063988,world,0.109450772405,0.00432992307469,-0.793853163719,0.00939027406275,-0.00281326868571,-0.0100501347333,0.999901473522
1503174257637500323,7108,1503174257637289834,world,0.109449505806,0.00433910405263,-0.793865799904,0.00944661535323,-0.00285622454248,-0.0101646138355,0.999899685383
1503174257647745958,7109,1503174257647556615,world,0.109445020556,0.0043360600248,-0.793874084949,0.00935153104365,-0.00285464525223,-0.0100084291771,0.999902129173
1503174257657998824,7110,1503174257657856775,world,0.109453357756,0.00432534189895,-0.7938554883,0.00937868002802,-0.00288142357022,-0.0100345751271,0.999901533127
1503174257668316984,7111,1503174257668175424,world,0.109455108643,0.00432579265907,-0.793853759766,0.00941789895296,-0.00285383337177,-0.0100264586508,0.999901294708
1503174257677618784,7112,1503174257677435613,world,0.109447292984,0.0043530408293,-0.793860912323,0.0093736955896,-0.00286668189801,-0.0100380629301,0.999901533127
1503174257698135220,7113,1503174257697917022,world,0.109441272914,0.00433174427599,-0.793856322765,0.00949086993933,-0.00282959546894,-0.0101891197264,0.999899089336
1503174257698143455,7114,1503174257697951899,world,0.109451636672,0.0043409015052,-0.793867230415,0.00929680000991,-0.00280908471905,-0.0100240902975,0.99990260601
1503174257717752737,7115,1503174257717582797,world,0.109448514879,0.00430760253221,-0.793854773045,0.00946184247732,-0.00286478968337,-0.0100795868784,0.999900281429
1503174257717758603,7116,1503174257717614384,world,0.109445177019,0.0043374360539,-0.793855786324,0.00934177171439,-0.00280718971044,-0.0100067639723,0.999902307987
1503174257727994680,7117,1503174257727861673,world,0.109449982643,0.00434118509293,-0.793862521648,0.0093477955088,-0.0028121098876,-0.0100232437253,0.999902129173
1503174257747527363,7118,1503174257747364123,world,0.109443500638,0.00431785639375,-0.793861985207,0.00943772122264,-0.00283225928433,-0.0101229697466,0.999900221825
1503174257747560323,7119,1503174257747395432,world,0.109448805451,0.0043303607963,-0.793861269951,0.00936849229038,-0.00286934245378,-0.00999879837036,0.999902009964
1503174257757778840,7120,1503174257757622656,world,0.10944211483,0.00433093681931,-0.793856739998,0.00935955625027,-0.00283247069456,-0.0100521873683,0.999901652336
1503174257778245578,7121,1503174257778087182,world,0.109439022839,0.00433199806139,-0.79385304451,0.00945187266916,-0.00284175877459,-0.0101807704195,0.999899506569
1503174257778270722,7122,1503174257778167910,world,0.109442658722,0.00434561632574,-0.79385137558,0.00937239453197,-0.00267201475799,-0.00991922803223,0.999903321266
1503174257787525941,7123,1503174257787379015,world,0.109437808394,0.00433519948274,-0.793866932392,0.00944567192346,-0.00283855013549,-0.0101213445887,0.99990016222
1503174257797843069,7124,1503174257797718063,world,0.109447099268,0.00432943971828,-0.793866038322,0.00949698593467,-0.00287691364065,-0.0100564351305,0.999900221825
1503174257808251952,7125,1503174257808071764,world,0.109452858567,0.00432548532262,-0.793867409229,0.00930260308087,-0.00283936713822,-0.00994766689837,0.999903202057
1503174257817472696,7126,1503174257817268247,world,0.109447911382,0.00430901860818,-0.793853640556,0.00932381581515,-0.00270320125856,-0.00979747995734,0.999904811382
1503174257827634632,7127,1503174257827518981,world,0.109449990094,0.00433945376426,-0.793856203556,0.00946374237537,-0.00282820733264,-0.010149192065,0.999899744987
1503174257838070354,7128,1503174257837830546,world,0.109456077218,0.00432741409168,-0.793872892857,0.00934845395386,-0.00287513085641,-0.0100046023726,0.999902129173
1503174257848231031,7129,1503174257848118107,world,0.109452389181,0.00432899594307,-0.793849766254,0.00949705764651,-0.00285421637818,-0.0102178864181,0.999898612499
1503174257858130366,7130,1503174257857991740,world,0.109438538551,0.00434461934492,-0.793861210346,0.00932195037603,-0.00270859664306,-0.00989201012999,0.999903917313
1503174257868360851,7131,1503174257868221793,world,0.109454855323,0.00432076351717,-0.79386562109,0.00932025257498,-0.00283136987127,-0.00996036548167,0.999902963638
1503174257877673307,7132,1503174257877488137,world,0.109444580972,0.00432531954721,-0.793860137463,0.00955521129072,-0.00285232043825,-0.0102890571579,0.999897360802
1503174257887899107,7133,1503174257887767702,world,0.109455779195,0.00434825848788,-0.793864369392,0.00935080181807,-0.00285885646008,-0.010014035739,0.999902069569
1503174257898231517,7134,1503174257898025506,world,0.109439089894,0.0042988108471,-0.793850243092,0.0095266290009,-0.00282882782631,-0.0101601378992,0.999899029732
1503174257908456050,7135,1503174257908312404,world,0.109456568956,0.00434423936531,-0.793856561184,0.00934588909149,-0.00279122334905,-0.0100292246789,0.999902188778
1503174257917781225,7136,1503174257917566456,world,0.109448254108,0.00435037631541,-0.793868601322,0.00930606294423,-0.00287454458885,-0.0100209433585,0.999902367592
1503174257927949799,7137,1503174257927796378,world,0.109443791211,0.00433027837425,-0.793851912022,0.0094201574102,-0.00283470540307,-0.0101457051933,0.99990016222
1503174257938242412,7138,1503174257938059253,world,0.109446898103,0.00434318650514,-0.793848931789,0.0093422178179,-0.00279184104875,-0.0099731599912,0.99990272522
1503174257947441736,7139,1503174257947264337,world,0.109439872205,0.00432512303814,-0.793848216534,0.00929477252066,-0.00244977441616,-0.00968195404857,0.999906897545
1503174257957721750,7140,1503174257957545972,world,0.109442003071,0.0043317056261,-0.793851554394,0.00940575450659,-0.00280683860183,-0.010081358254,0.999900996685
1503174257967927683,7141,1503174257967831863,world,0.109452791512,0.00433090701699,-0.793861627579,0.00938962586224,-0.0028754202649,-0.0100415432826,0.999901413918
1503174257978289530,7142,1503174257978116579,world,0.109456576407,0.00432948768139,-0.793863177299,0.00939709879458,-0.00282147270627,-0.0100462911651,0.999901473522
1503174257987544485,7143,1503174257987414006,world,0.109446845949,0.00433930847794,-0.793859481812,0.00931107252836,-0.00281880469993,-0.0100797247142,0.999901890755
1503174257997889028,7144,1503174257997704083,world,0.109448947012,0.00431609293446,-0.793864548206,0.00929941330105,-0.00281673716381,-0.00994964689016,0.999903321266
1503174258008234310,7145,1503174258008039430,world,0.109448865056,0.00431400816888,-0.793864309788,0.00940715149045,-0.00283547560684,-0.0100646857172,0.999901115894
1503174258017483910,7146,1503174258017285566,world,0.10944429785,0.00435586180538,-0.793852090836,0.00927305594087,-0.00268090958707,-0.00982878170907,0.999905109406
1503174258027868552,7147,1503174258027697568,world,0.109442777932,0.00433007394895,-0.79385393858,0.00951733067632,-0.00285159563646,-0.0101953689009,0.999898672104
1503174258038061596,7148,1503174258037944715,world,0.109457671642,0.00433310680091,-0.793866455555,0.00934146996588,-0.00286156055517,-0.00996390078217,0.999902665615
1503174258048366542,7149,1503174258048177498,world,0.109444469213,0.00433185417205,-0.793855011463,0.00938405934721,-0.00280883256346,-0.0100901108235,0.999901115894
1503174258057697846,7150,1503174258057464171,world,0.109446123242,0.00432759802788,-0.793852031231,0.00937651004642,-0.00288278353401,-0.00998912751675,0.999902069569
1503174258067855542,7151,1503174258067708942,world,0.109444506466,0.00433017360047,-0.793857812881,0.00938951130956,-0.00280601950362,-0.0100307324901,0.999901652336
1503174258078200757,7152,1503174258078015937,world,0.109445564449,0.00433377223089,-0.793858885765,0.00939721986651,-0.00281981448643,-0.010118198581,0.999900698662
1503174258088482202,7153,1503174258088268522,world,0.109452322125,0.00434761773795,-0.793846547604,0.00934527534992,-0.00285593629815,-0.0100039867684,0.999902248383
1503174258097810422,7154,1503174258097602334,world,0.109449312091,0.00433551706374,-0.793852984905,0.00934522133321,-0.00244549661875,-0.00974053796381,0.999905884266
1503174258108114786,7155,1503174258107868039,world,0.109437838197,0.00432908767834,-0.793860971928,0.00949776545167,-0.00284646917135,-0.0102130435407,0.999898672104
1503174258118387576,7156,1503174258118168015,world,0.109448634088,0.00434703985229,-0.793851077557,0.00933836959302,-0.00285914773121,-0.0100130261853,0.999902188778
1503174258127516599,7157,1503174258127383992,world,0.109447203577,0.00432919431478,-0.793864250183,0.00935137737542,-0.00282487436198,-0.0100141493604,0.999902188778
1503174258137825622,7158,1503174258137653048,world,0.109454713762,0.0043204408139,-0.793856322765,0.00946044642478,-0.0028265058063,-0.0101192258298,0.999900043011
1503174258148099172,7159,1503174258147954111,world,0.109449163079,0.00433872127905,-0.793851435184,0.00940166320652,-0.00282182102092,-0.0100332489237,0.999901533127
1503174258158382546,7160,1503174258158238032,world,0.109452284873,0.00431798445061,-0.793872237206,0.00932357087731,-0.00281252409332,-0.00998676102608,0.99990272522
1503174258167608313,7161,1503174258167476060,world,0.109447486699,0.0043340655975,-0.793861210346,0.00942015927285,-0.00286287255585,-0.0100879492238,0.999900698662
1503174258177884474,7162,1503174258177745596,world,0.109454542398,0.00432039471343,-0.793846845627,0.00930246058851,-0.00267139170319,-0.00978995021433,0.999905228615
1503174258188206345,7163,1503174258188019831,world,0.109429143369,0.00431193318218,-0.793880701065,0.00925983581692,-0.00251570506953,-0.00968022737652,0.999907135963
1503174258197525773,7164,1503174258197259642,world,0.109484672546,0.00431780004874,-0.793858587742,0.0094394152984,-0.00294713745825,-0.00991266686469,0.999901950359
1503174258207635926,7165,1503174258207513156,world,0.109422817826,0.0043339994736,-0.793893694878,0.00960089825094,-0.00244451896288,-0.0101110925898,0.999899804592
1503174258217924046,7166,1503174258217750323,world,0.109442062676,0.00431346194819,-0.793889343739,0.00931880902499,-0.00256007374264,-0.0101046599448,0.999902248383
1503174258228196487,7167,1503174258228031882,world,0.109508574009,0.00432558311149,-0.793874204159,0.00927653536201,-0.00335801881738,-0.00988508481532,0.999902486801
1503174258237437776,7168,1503174258237259973,world,0.109429903328,0.00434937560931,-0.79391258955,0.00952008366585,-0.00286988937296,-0.0100031318143,0.999900519848
1503174258247794064,7169,1503174258247624049,world,0.109461277723,0.00431849248707,-0.793859362602,0.00915664620697,-0.00212430139072,-0.00974518805742,0.999908328056
1503174258258014036,7170,1503174258257868799,world,0.10943479836,0.00430789776146,-0.793938875198,0.0093451552093,-0.00266152410768,-0.0101577192545,0.999901175499
1503174258268238306,7171,1503174258268101734,world,0.10949704051,0.00428355392069,-0.793913960457,0.00958084501326,-0.00287303701043,-0.0102775515988,0.999897181988
1503174258277634810,7172,1503174258277467343,world,0.109491340816,0.00433796085417,-0.793913006783,0.00915068015456,-0.00284284260124,-0.0098284566775,0.999905765057
1503174258287880901,7173,1503174258287748130,world,0.109489694238,0.00429680803791,-0.793928623199,0.0089508080855,-0.00256390403956,-0.00973141752183,0.999909281731
1503174258298325621,7174,1503174258298135389,world,0.109454981983,0.0042943097651,-0.793984293938,0.00923528429121,-0.0023132157512,-0.0100494511425,0.999904155731
1503174258307485501,7175,1503174258307369824,world,0.109528832138,0.00428830971941,-0.793973624706,0.00878501031548,-0.00240654079244,-0.0102561647072,0.999905943871
1503174258317743838,7176,1503174258317610264,world,0.109569326043,0.00430310284719,-0.793925881386,0.00868788827211,-0.00266997911967,-0.0101916668937,0.999906778336
1503174258328165073,7177,1503174258328015664,world,0.109591022134,0.00430082157254,-0.79394030571,0.00819477345794,-0.00266098976135,-0.00991114974022,0.999913811684
1503174258337470090,7178,1503174258337261651,world,0.109540909529,0.00431190896779,-0.793934226036,0.00841413903981,-0.00251352973282,-0.0101018007845,0.999910414219
1503174258347694274,7179,1503174258347562830,world,0.109579108655,0.00425653951243,-0.793932855129,0.00834881700575,-0.0022047215607,-0.00992662925273,0.999913454056
1503174258358153985,7180,1503174258358038928,world,0.109576880932,0.00430388748646,-0.793934583664,0.00875445175916,-0.00277008395642,-0.0102270506322,0.999905526638
1503174258368463144,7181,1503174258368311764,world,0.109575822949,0.00430370727554,-0.793918669224,0.00884839892387,-0.00286106835119,-0.010040121153,0.999906361103
1503174258377735810,7182,1503174258377609855,world,0.109565325081,0.00428537046537,-0.793917238712,0.00888634193689,-0.00255694054067,-0.0101146334782,0.999906122684
1503174258388084867,7183,1503174258387924004,world,0.109564200044,0.00427883816883,-0.793941259384,0.00858257431537,-0.00247967406176,-0.0102975703776,0.999907076359
1503174258398421003,7184,1503174258398223390,world,0.10957493633,0.00430079596117,-0.793943107128,0.00838558748364,-0.00290634296834,-0.0102255102247,0.999908328056
1503174258407643627,7185,1503174258407504000,world,0.109567582607,0.00427828216925,-0.793943524361,0.00868717581034,-0.00290410965681,-0.0100879166275,0.999907135963
1503174258418869958,7186,1503174258418752195,world,0.109558187425,0.00429697707295,-0.793920576572,0.00851248856634,-0.00230955937877,-0.0100161684677,0.999910950661
1503174258428050567,7187,1503174258427963668,world,0.10956390202,0.00429378682747,-0.793922483921,0.00860366784036,-0.00242755562067,-0.0102567141876,0.999907433987
1503174258438408429,7188,1503174258438270025,world,0.109563685954,0.00426906486973,-0.793940901756,0.0088105853647,-0.00291686365381,-0.010481310077,0.999902009964
1503174258447631409,7189,1503174258447531468,world,0.109583780169,0.0043275039643,-0.793919503689,0.00864307861775,-0.00296849012375,-0.0100187817588,0.999908030033
1503174258458099348,7190,1503174258457894694,world,0.109563261271,0.00429773656651,-0.793921887875,0.00871795136482,-0.00251083495095,-0.0100816925988,0.999908030033
1503174258468296492,7191,1503174258468134753,world,0.109566874802,0.00426868023351,-0.793959319592,0.00844538025558,-0.00200851983391,-0.0098822992295,0.99991351366
1503174258477530915,7192,1503174258477385463,world,0.109568923712,0.00428815372288,-0.793937563896,0.0085192732513,-0.00262917554937,-0.0102171897888,0.999908030033
1503174258487853222,7193,1503174258487661227,world,0.109573036432,0.00428401492536,-0.793932974339,0.00869183428586,-0.00287854345515,-0.0101988920942,0.99990606308
1503174258498149016,7194,1503174258497967389,world,0.109565861523,0.00430766865611,-0.793921649456,0.0088895810768,-0.00270721572451,-0.0100684454665,0.999906122684
1503174258508442838,7195,1503174258508205611,world,0.109564580023,0.00430917646736,-0.793927252293,0.00856185145676,-0.00256002531387,-0.0100433919579,0.999909639359
1503174258517570648,7196,1503174258517468570,world,0.109569549561,0.00425876723602,-0.793955504894,0.00841152481735,-0.00257614953443,-0.0101143913344,0.999910235405
1503174258527909690,7197,1503174258527745464,world,0.109558463097,0.00428245216608,-0.793938755989,0.00851900875568,-0.00275113712996,-0.0102103129029,0.999907791615
1503174258538218235,7198,1503174258538044304,world,0.109564378858,0.00431031640619,-0.793904185295,0.00839454773813,-0.00246492517181,-0.00993688590825,0.999912381172
1503174258547470872,7199,1503174258547300178,world,0.109555579722,0.00428937189281,-0.793942034245,0.00873415730894,-0.00260301539674,-0.010248103179,0.999905943871
1503174258557683028,7200,1503174258557524819,world,0.109572157264,0.00430471962318,-0.79393529892,0.00860796216875,-0.00263510434888,-0.0103504899889,0.999905884266
1503174258567856446,7201,1503174258567754727,world,0.109576970339,0.00427977880463,-0.793945014477,0.00849145557731,-0.00265038688667,-0.010065135546,0.999909758568
1503174258578199812,7202,1503174258578058091,world,0.109564274549,0.00430864049122,-0.793939471245,0.00842040777206,-0.00252572563477,-0.0100603066385,0.999910771847
1503174258587378195,7203,1503174258587231671,world,0.10957467556,0.00433169538155,-0.793914377689,0.00860066805035,-0.00272321887314,-0.0101841697469,0.999907433987
1503174258597765548,7204,1503174258597526309,world,0.109564684331,0.00428053410724,-0.793939590454,0.00861275661737,-0.00268977158703,-0.0102224452421,0.999907016754
1503174258607943890,7205,1503174258607749102,world,0.109574444592,0.00430316012353,-0.793932795525,0.00852268375456,-0.00265806890093,-0.0101543972269,0.99990862608
