%time,field.header.seq,field.header.stamp,field.header.frame_id,field.vector.x,field.vector.y,field.vector.z
1505356812449674777,11183,1505356812449490310,-0.704934418201,-0.0783260464668,-0.704934418201
1505356812454336040,11184,1505356812454129297,-0.704934418201,-0.0783260464668,-0.704934418201
1505356812464920238,11185,1505356812464692628,-0.770528972149,-0.0335012599826,-0.636523962021
1505356812464923299,11186,1505356812464717354,-0.770528972149,-0.0335012599826,-0.636523962021
1505356812469676289,11187,1505356812469315708,-0.791154801846,-0.0608580596745,-0.608580589294
1505356812474628154,11188,1505356812474335048,-0.791154801846,-0.0608580596745,-0.608580589294
1505356812479619476,11189,1505356812479433359,-0.842516720295,0.0936129689217,-0.530473530293
1505356812485054538,11190,1505356812484909874,-0.842516720295,0.0936129689217,-0.530473530293
1505356812489711270,11191,1505356812489380969,-0.725318551064,0.197814151645,-0.659380495548
1505356812498257711,11192,1505356812498034226,-0.725318551064,0.197814151645,-0.659380495548
1505356812499560525,11193,1505356812499382519,-0.67267280817,0.0,-0.739940047264
1505356812504448637,11194,1505356812504273942,-0.67267280817,0.0,-0.739940047264
1505356812511952155,11195,1505356812511707426,-0.795758783817,-0.0318303517997,-0.60477668047
1505356812516129336,11196,1505356812515952103,-0.795758783817,-0.0318303517997,-0.60477668047
1505356812519581784,11197,1505356812519382533,-0.738271653652,-0.0671156048775,-0.671156048775
1505356812524515811,11198,1505356812524371554,-0.738271653652,-0.0671156048775,-0.671156048775
1505356812536883809,11199,1505356812536658325,-0.76665186882,-0.063887655735,-0.63887655735
1505356812536913290,11200,1505356812536696822,-0.76665186882,-0.063887655735,-0.63887655735
1505356812539737855,11201,1505356812539569168,-0.822885036469,-0.0987462028861,-0.55956184864
1505356812544905287,11202,1505356812544720523,-0.822885036469,-0.0987462028861,-0.55956184864
1505356812550006986,11203,1505356812549697167,-0.824163377285,-0.137360557914,-0.549442231655
1505356812554746655,11204,1505356812554589329,-0.824163377285,-0.137360557914,-0.549442231655
1505356812563735304,11205,1505356812563497143,-0.815692543983,-0.125491172075,-0.564710259438
1505356812564575913,11206,1505356812564354250,-0.815692543983,-0.125491172075,-0.564710259438
1505356812571582875,11207,1505356812571166824,-0.845154285431,-0.169030860066,-0.507092535496
1505356812579158684,11208,1505356812578920300,-0.845154285431,-0.169030860066,-0.507092535496
1505356812579856501,11209,1505356812579634934,-0.792982339859,-0.132163718343,-0.594736754894
1505356812585411166,11210,1505356812585146198,-0.792982339859,-0.132163718343,-0.594736754894
1505356812590070308,11211,1505356812589809517,-0.792982339859,-0.132163718343,-0.594736754894
1505356812597361644,11212,1505356812597128386,-0.792982339859,-0.132163718343,-0.594736754894
1505356812599803923,11213,1505356812599578682,-0.700140058994,-0.140028014779,-0.700140058994
1505356812605016015,11214,1505356812604767470,-0.700140058994,-0.140028014779,-0.700140058994
1505356812611617723,11215,1505356812611257377,-0.735083222389,-0.0958804190159,-0.671162903309
1505356812615057249,11216,1505356812614820908,-0.735083222389,-0.0958804190159,-0.671162903309
1505356812620100657,11217,1505356812619882998,-0.737409710884,-0.105344250798,-0.667180240154
1505356812625012968,11218,1505356812624813092,-0.737409710884,-0.105344250798,-0.667180240154
1505356812632233056,11219,1505356812631910932,-0.799788355827,-0.104320220649,-0.591147899628
1505356812639125866,11220,1505356812638837124,-0.799788355827,-0.104320220649,-0.591147899628
1505356812642176869,11221,1505356812641999090,-0.667180240154,-0.105344250798,-0.737409710884
1505356812645172568,11222,1505356812644939002,-0.667180240154,-0.105344250798,-0.737409710884
1505356812651881957,11223,1505356812651631090,-0.702740371227,0.110959008336,-0.702740371227
1505356812655140603,11224,1505356812654980065,-0.702740371227,0.110959008336,-0.702740371227
1505356812665319392,11225,1505356812665105731,-0.707106769085,0.0,-0.707106769085
1505356812665323778,11226,1505356812665133692,-0.707106769085,0.0,-0.707106769085
1505356812670682717,11227,1505356812670526950,-0.822885036469,-0.0987462028861,-0.55956184864
1505356812677147393,11228,1505356812676926572,-0.822885036469,-0.0987462028861,-0.55956184864
1505356812682858150,11229,1505356812682690267,-0.830057382584,-0.0691714510322,-0.553371608257
1505356812685561593,11230,1505356812685399219,-0.830057382584,-0.0691714510322,-0.553371608257
1505356812690360894,11231,1505356812690145830,-0.670495390892,0.0352892316878,-0.741073906422
1505356812695400001,11232,1505356812695153509,-0.670495390892,0.0352892316878,-0.741073906422
1505356812700302667,11233,1505356812700081151,-0.8158441782,-0.16316883266,-0.554774045944
1505356812707680696,11234,1505356812707393377,-0.8158441782,-0.16316883266,-0.554774045944
1505356812711293255,11235,1505356812710672206,-0.882352948189,0.0,-0.470588237047
1505356812715517341,11236,1505356812715293611,-0.882352948189,0.0,-0.470588237047
1505356812720726726,11237,1505356812720507060,-0.730241537094,-0.173867031932,-0.660694718361
1505356812725466889,11238,1505356812725219265,-0.730241537094,-0.173867031932,-0.660694718361
1505356812730974010,11239,1505356812730694734,-0.786333620548,-0.087370403111,-0.611592829227
1505356812741219620,11240,1505356812741010673,-0.786333620548,-0.087370403111,-0.611592829227
1505356812741436133,11241,1505356812741042070,-0.770528972149,-0.0335012599826,-0.636523962021
1505356812745594798,11242,1505356812745423110,-0.770528972149,-0.0335012599826,-0.636523962021
1505356812751034357,11243,1505356812750738673,-0.832050323486,0.0,-0.554700195789
1505356812755743405,11244,1505356812755542601,-0.832050323486,0.0,-0.554700195789
1505356812764245816,11245,1505356812764048132,-0.706706225872,0.0336526781321,-0.706706225872
1505356812771186499,11246,1505356812770691533,-0.706706225872,0.0336526781321,-0.706706225872
1505356812771198450,11247,1505356812770727579,-0.856988966465,-0.0342795588076,-0.514193415642
1505356812775684664,11248,1505356812775467052,-0.856988966465,-0.0342795588076,-0.514193415642
1505356812780678933,11249,1505356812780445052,-0.765345931053,-0.0306138377637,-0.642890572548
1505356812789905120,11250,1505356812789517512,-0.765345931053,-0.0306138377637,-0.642890572548
1505356812790813418,11251,1505356812790558896,-0.886658668518,0.0354663468897,-0.46106249094
1505356812798399693,11252,1505356812798175854,-0.886658668518,0.0354663468897,-0.46106249094
1505356812804664837,11253,1505356812804385275,-0.817431569099,-0.0302752424031,-0.575229585171
1505356812806085609,11254,1505356812805816315,-0.817431569099,-0.0302752424031,-0.575229585171
1505356812811241162,11255,1505356812811002779,-0.837055742741,0.0363937281072,-0.545905888081
1505356812815749761,11256,1505356812815619207,-0.837055742741,0.0363937281072,-0.545905888081
1505356812820906853,11257,1505356812820750489,-0.74329417944,0.0,-0.668964743614
1505356812825728525,11258,1505356812825519530,-0.74329417944,0.0,-0.668964743614
1505356812830974639,11259,1505356812830614636,-0.79262393713,0.0,-0.609710752964
1505356812836685462,11260,1505356812836462499,-0.79262393713,0.0,-0.609710752964
1505356812842864247,11261,1505356812842665662,-0.661693155766,-0.147042915225,-0.735214591026
1505356812845938605,11262,1505356812845739380,-0.661693155766,-0.147042915225,-0.735214591026
1505356812851633771,11263,1505356812850791947,-0.822192192078,0.0,-0.569209992886
1505356812857660779,11264,1505356812857443411,-0.822192192078,0.0,-0.569209992886
1505356812864619688,11265,1505356812864378722,-0.861549794674,0.0717958137393,-0.502570688725
1505356812868072868,11266,1505356812867770877,-0.861549794674,0.0717958137393,-0.502570688725
1505356812871397395,11267,1505356812871204322,-0.799788355827,0.104320220649,-0.591147899628
1505356812876178964,11268,1505356812875953762,-0.799788355827,0.104320220649,-0.591147899628
1505356812881148228,11269,1505356812880952540,-0.780868768692,0.0,-0.624695062637
1505356812886712940,11270,1505356812886263023,-0.780868768692,0.0,-0.624695062637
1505356812892408753,11271,1505356812892189249,-0.773957312107,0.0,-0.63323777914
1505356812897556684,11272,1505356812897362745,-0.773957312107,0.0,-0.63323777914
1505356812902709463,11273,1505356812902495857,-0.691280066967,-0.210389569402,-0.691280066967
1505356812906028273,11274,1505356812905895551,-0.691280066967,-0.210389569402,-0.691280066967
1505356812911606079,11275,1505356812911413334,-0.824163377285,-0.137360557914,-0.549442231655
1505356812916473083,11276,1505356812916277671,-0.824163377285,-0.137360557914,-0.549442231655
1505356812921276895,11277,1505356812921119171,-0.843661487103,0.0,-0.536875486374
1505356812928847034,11278,1505356812928582442,-0.843661487103,0.0,-0.536875486374
1505356812935366076,11279,1505356812935071164,-0.824163377285,-0.137360557914,-0.549442231655
1505356812936728605,11280,1505356812936593093,-0.824163377285,-0.137360557914,-0.549442231655
1505356812945739689,11281,1505356812945451945,-0.735083222389,0.0958804190159,-0.671162903309
1505356812946571440,11282,1505356812946381814,-0.735083222389,0.0958804190159,-0.671162903309
1505356812951625254,11283,1505356812951400265,-0.813123226166,-0.0387201532722,-0.580802321434
1505356812956395160,11284,1505356812956199086,-0.813123226166,-0.0387201532722,-0.580802321434
1505356812964931171,11285,1505356812964490331,-0.766406297684,-0.139346599579,-0.627059698105
1505356812967657425,11286,1505356812967333231,-0.766406297684,-0.139346599579,-0.627059698105
1505356812971784444,11287,1505356812971537617,-0.765345931053,0.0306138377637,-0.642890572548
1505356812976400466,11288,1505356812976281443,-0.765345931053,0.0306138377637,-0.642890572548
1505356812981634402,11289,1505356812981449702,-0.863778948784,0.0,-0.503871023655
1505356812986970876,11290,1505356812986575737,-0.863778948784,0.0,-0.503871023655
1505356812997498260,11291,1505356812997242550,-0.792553246021,-0.0951063930988,-0.602340459824
1505356812998312284,11292,1505356812998150014,-0.792553246021,-0.0951063930988,-0.602340459824
1505356813001935482,11293,1505356813001685198,-0.731652855873,-0.121942147613,-0.670681774616
1505356813006698772,11294,1505356813006481076,-0.731652855873,-0.121942147613,-0.670681774616
1505356813012047659,11295,1505356813011731862,-0.741073906422,-0.0352892316878,-0.670495390892
1505356813017764217,11296,1505356813017597074,-0.741073906422,-0.0352892316878,-0.670495390892
1505356813021562829,11297,1505356813021337432,-0.734803438187,0.0,-0.678280055523
1505356813030814566,11298,1505356813030558380,-0.734803438187,0.0,-0.678280055523
1505356813032127227,11299,1505356813031908013,-0.806559145451,0.0733235552907,-0.586588442326
1505356813037179985,11300,1505356813036975056,-0.806559145451,0.0733235552907,-0.586588442326
1505356813041881474,11301,1505356813041700123,-0.695173621178,-0.18294043839,-0.695173621178
1505356813047750833,11302,1505356813047571852,-0.695173621178,-0.18294043839,-0.695173621178
1505356813052014244,11303,1505356813051612903,-0.697293579578,-0.166022285819,-0.697293579578
1505356813056751011,11304,1505356813056482908,-0.697293579578,-0.166022285819,-0.697293579578
1505356813064171650,11305,1505356813063938498,-0.800000011921,0.0,-0.600000023842
1505356813068390413,11306,1505356813068103611,-0.800000011921,0.0,-0.600000023842
1505356813072023285,11307,1505356813071743572,-0.856988966465,-0.0342795588076,-0.514193415642
1505356813078821145,11308,1505356813078589494,-0.856988966465,-0.0342795588076,-0.514193415642
1505356813082058643,11309,1505356813081869327,-0.776713073254,-0.036986336112,-0.628767728806
1505356813087073490,11310,1505356813086835373,-0.776713073254,-0.036986336112,-0.628767728806
1505356813091936876,11311,1505356813091721676,-0.861549794674,-0.0717958137393,-0.502570688725
1505356813099041012,11312,1505356813098870774,-0.861549794674,-0.0717958137393,-0.502570688725
1505356813102107127,11313,1505356813101856414,-0.706772863865,-0.0307292565703,-0.706772863865
1505356813107131216,11314,1505356813106818138,-0.706772863865,-0.0307292565703,-0.706772863865
1505356813112248835,11315,1505356813111991562,-0.845817506313,-0.0313265733421,-0.532551765442
1505356813117159344,11316,1505356813116938098,-0.845817506313,-0.0313265733421,-0.532551765442
1505356813121977565,11317,1505356813121767566,-0.799788355827,0.104320220649,-0.591147899628
1505356813129920302,11318,1505356813129667546,-0.799788355827,0.104320220649,-0.591147899628
1505356813132416365,11319,1505356813132217985,-0.878458559513,-0.0675737336278,-0.473016142845
1505356813137150227,11320,1505356813136939373,-0.878458559513,-0.0675737336278,-0.473016142845
1505356813143518408,11321,1505356813143258156,-0.814613103867,-0.203653275967,-0.54307538271
1505356813151437347,11322,1505356813151209234,-0.814613103867,-0.203653275967,-0.54307538271
1505356813152060268,11323,1505356813151912714,-0.738105118275,-0.0320915281773,-0.67392206192
1505356813157091280,11324,1505356813156915032,-0.738105118275,-0.0320915281773,-0.67392206192
1505356813164176914,11325,1505356813163917481,-0.873699486256,-0.032359238714,-0.485388606787
1505356813167202579,11326,1505356813166991730,-0.873699486256,-0.032359238714,-0.485388606787
1505356813173770103,11327,1505356813173552389,-0.806559145451,0.0733235552907,-0.586588442326
1505356813177342100,11328,1505356813177071120,-0.806559145451,0.0733235552907,-0.586588442326
1505356813182394342,11329,1505356813182153351,-0.764268279076,-0.181968644261,-0.618693351746
1505356813187850957,11330,1505356813187603406,-0.764268279076,-0.181968644261,-0.618693351746
1505356813192838981,11331,1505356813192543842,-0.706495940685,0.0415585823357,-0.706495940685
1505356813198071608,11332,1505356813197852153,-0.706495940685,0.0415585823357,-0.706495940685
1505356813203790960,11333,1505356813203549661,-0.837055742741,-0.0363937281072,-0.545905888081
1505356813207639050,11334,1505356813207263717,-0.837055742741,-0.0363937281072,-0.545905888081
1505356813212460158,11335,1505356813212237997,-0.799788355827,0.104320220649,-0.591147899628
1505356813217325796,11336,1505356813217110521,-0.799788355827,0.104320220649,-0.591147899628
1505356813222520230,11337,1505356813222315679,-0.806559145451,0.0733235552907,-0.586588442326
1505356813231104288,11338,1505356813230907782,-0.806559145451,0.0733235552907,-0.586588442326
1505356813232584016,11339,1505356813232383041,-0.896520316601,0.0996133685112,-0.431657940149
1505356813237633702,11340,1505356813237408960,-0.896520316601,0.0996133685112,-0.431657940149
1505356813242645456,11341,1505356813242493033,-0.770528972149,0.0335012599826,-0.636523962021
1505356813253836117,11342,1505356813253571584,-0.770528972149,0.0335012599826,-0.636523962021
1505356813253839637,11343,1505356813253605333,-0.741073906422,-0.0352892316878,-0.670495390892
1505356813257822372,11344,1505356813257594421,-0.741073906422,-0.0352892316878,-0.670495390892
1505356813267308561,11345,1505356813267044143,-0.700140058994,-0.140028014779,-0.700140058994
1505356813268633239,11346,1505356813268391706,-0.700140058994,-0.140028014779,-0.700140058994
1505356813272944373,11347,1505356813272662284,-0.70661765337,-0.037190400064,-0.70661765337
1505356813277981127,11348,1505356813277729997,-0.70661765337,-0.037190400064,-0.70661765337
1505356813282891963,11349,1505356813282665948,-0.795758783817,0.0318303517997,-0.60477668047
1505356813287876727,11350,1505356813287689660,-0.795758783817,0.0318303517997,-0.60477668047
1505356813297586650,11351,1505356813297348299,-0.851658344269,0.0,-0.524097442627
1505356813299936657,11352,1505356813299753235,-0.851658344269,0.0,-0.524097442627
1505356813304898596,11353,1505356813304557464,-0.770528972149,0.0335012599826,-0.636523962021
1505356813307982364,11354,1505356813307771607,-0.770528972149,0.0335012599826,-0.636523962021
1505356813313087907,11355,1505356813312891616,-0.762000799179,-0.127000123262,-0.635000646114
1505356813317831823,11356,1505356813317620446,-0.762000799179,-0.127000123262,-0.635000646114
1505356813323193766,11357,1505356813322998896,-0.79262393713,0.0,-0.609710752964
1505356813329608107,11358,1505356813329371160,-0.79262393713,0.0,-0.609710752964
1505356813332996142,11359,1505356813332732015,-0.635000646114,0.127000123262,-0.762000799179
1505356813338002677,11360,1505356813337834543,-0.635000646114,0.127000123262,-0.762000799179
1505356813342952053,11361,1505356813342809281,-0.609710752964,0.0,-0.79262393713
1505356813348040841,11362,1505356813347818186,-0.609710752964,0.0,-0.79262393713
1505356813356699336,11363,1505356813356450044,-0.786318361759,0.0,-0.617821574211
1505356813360572475,11364,1505356813360226174,-0.786318361759,0.0,-0.617821574211
1505356813363872844,11365,1505356813363617090,-0.741073906422,0.0352892316878,-0.670495390892
1505356813371902148,11366,1505356813371638374,-0.741073906422,0.0352892316878,-0.670495390892
1505356813373115993,11367,1505356813372934115,-0.786333620548,-0.087370403111,-0.611592829227
1505356813378077996,11368,1505356813377919613,-0.786333620548,-0.087370403111,-0.611592829227
1505356813384277122,11369,1505356813384071710,-0.725240647793,0.241746887565,-0.644658386707
1505356813388196332,11370,1505356813387970136,-0.725240647793,0.241746887565,-0.644658386707
1505356813396729076,11371,1505356813396525436,-0.772048652172,-0.0701862424612,-0.631676197052
1505356813399023274,11372,1505356813398839458,-0.772048652172,-0.0701862424612,-0.631676197052
1505356813403319440,11373,1505356813403137300,-0.795758783817,0.0318303517997,-0.60477668047
1505356813408341617,11374,1505356813408006894,-0.795758783817,0.0318303517997,-0.60477668047
1505356813413358825,11375,1505356813412952404,-0.861549794674,0.0717958137393,-0.502570688725
1505356813418305536,11376,1505356813418111467,-0.861549794674,0.0717958137393,-0.502570688725
1505356813423690597,11377,1505356813423482921,-0.764268279076,-0.181968644261,-0.618693351746
1505356813430642255,11378,1505356813430292602,-0.764268279076,-0.181968644261,-0.618693351746
1505356813433622060,11379,1505356813433415884,-0.772497475147,0.110356777906,-0.625355124474
1505356813438535606,11380,1505356813438362341,-0.772497475147,0.110356777906,-0.625355124474
1505356813444799585,11381,1505356813444459306,-0.789015054703,0.0292227808386,-0.613678395748
1505356813448425850,11382,1505356813448108966,-0.789015054703,0.0292227808386,-0.613678395748
1505356813457507554,11383,1505356813457225906,-0.738271653652,0.0671156048775,-0.671156048775
1505356813458542895,11384,1505356813458377939,-0.738271653652,0.0671156048775,-0.671156048775
1505356813464160789,11385,1505356813463959024,-0.731334090233,0.0812593474984,-0.677161216736
1505356813470660913,11386,1505356813470447660,-0.731334090233,0.0812593474984,-0.677161216736
1505356813473628680,11387,1505356813473442523,-0.856988966465,-0.0342795588076,-0.514193415642
1505356813478740572,11388,1505356813478511901,-0.856988966465,-0.0342795588076,-0.514193415642
1505356813483698799,11389,1505356813483527349,-0.76665186882,0.063887655735,-0.63887655735
1505356813490157165,11390,1505356813489858870,-0.76665186882,0.063887655735,-0.63887655735
1505356813493671418,11391,1505356813493394748,-0.837055742741,-0.0363937281072,-0.545905888081
1505356813500059292,11392,1505356813499858682,-0.837055742741,-0.0363937281072,-0.545905888081
1505356813503576599,11393,1505356813503401339,-0.767092943192,-0.100055605173,-0.633685469627
1505356813508647403,11394,1505356813508389776,-0.767092943192,-0.100055605173,-0.633685469627
1505356813513734714,11395,1505356813513543793,-0.772048652172,-0.0701862424612,-0.631676197052
1505356813520223384,11396,1505356813520016953,-0.772048652172,-0.0701862424612,-0.631676197052
1505356813531806287,11397,1505356813531508957,-0.820552706718,0.0631194412708,-0.568074941635
1505356813531812492,11398,1505356813531548850,-0.820552706718,0.0631194412708,-0.568074941635
1505356813533870576,11399,1505356813533689496,-0.744668722153,-0.0391930900514,-0.666282534599
1505356813538768365,11400,1505356813538615035,-0.744668722153,-0.0391930900514,-0.666282534599
1505356813543654309,11401,1505356813543421779,-0.856988966465,-0.0342795588076,-0.514193415642
1505356813550172295,11402,1505356813549979966,-0.856988966465,-0.0342795588076,-0.514193415642
1505356813556511748,11403,1505356813556249144,-0.798228144646,-0.0665190070868,-0.598671078682
1505356813562522828,11404,1505356813562336202,-0.798228144646,-0.0665190070868,-0.598671078682
1505356813563948380,11405,1505356813563780147,-0.798228144646,-0.0665190070868,-0.598671078682
1505356813569141255,11406,1505356813568924739,-0.798228144646,-0.0665190070868,-0.598671078682
1505356813573863330,11407,1505356813573680318,-0.77849894762,0.077849894762,-0.622799158096
1505356813580517569,11408,1505356813580233645,-0.77849894762,0.077849894762,-0.622799158096
1505356813584740139,11409,1505356813584096408,-0.702740371227,-0.110959008336,-0.702740371227
1505356813589063978,11410,1505356813588911639,-0.702740371227,-0.110959008336,-0.702740371227
1505356813597394509,11411,1505356813597199419,-0.768221259117,0.0,-0.640184402466
1505356813599556777,11412,1505356813599365674,-0.768221259117,0.0,-0.640184402466
1505356813604019281,11413,1505356813603878129,-0.737409710884,-0.105344250798,-0.667180240154
1505356813608984380,11414,1505356813608781372,-0.737409710884,-0.105344250798,-0.667180240154
1505356813614120371,11415,1505356813613910465,-0.808290362358,0.115470044315,-0.577350258827
1505356813619427732,11416,1505356813619202241,-0.808290362358,0.115470044315,-0.577350258827
1505356813624186147,11417,1505356813623993013,-0.780868768692,0.0,-0.624695062637
1505356813630545052,11418,1505356813630244976,-0.780868768692,0.0,-0.624695062637
1505356813634543458,11419,1505356813634244429,-0.640184402466,0.0,-0.768221259117
1505356813639174775,11420,1505356813638990690,-0.640184402466,0.0,-0.768221259117
1505356813645477011,11421,1505356813645296906,-0.872502863407,-0.134231209755,-0.469809234142
1505356813649592978,11422,1505356813649322664,-0.872502863407,-0.134231209755,-0.469809234142
1505356813655592088,11423,1505356813655420136,-0.770528972149,-0.0335012599826,-0.636523962021
1505356813665426850,11424,1505356813665109997,-0.770528972149,-0.0335012599826,-0.636523962021
1505356813666488460,11425,1505356813666249031,-0.770528972149,0.0335012599826,-0.636523962021
1505356813669318100,11426,1505356813669141276,-0.770528972149,0.0335012599826,-0.636523962021
1505356813675819234,11427,1505356813675683211,-0.826474547386,-0.0330589823425,-0.562002658844
1505356813679500089,11428,1505356813679309407,-0.826474547386,-0.0330589823425,-0.562002658844
1505356813686225702,11429,1505356813686009893,-0.839664161205,0.05997601524,-0.539784133434
1505356813689552099,11430,1505356813689149364,-0.839664161205,0.05997601524,-0.539784133434
1505356813696634296,11431,1505356813696345656,-0.830057382584,0.0691714510322,-0.553371608257
1505356813699940596,11432,1505356813699766142,-0.830057382584,0.0691714510322,-0.553371608257
1505356813704288250,11433,1505356813704128368,-0.702740371227,-0.110959008336,-0.702740371227
1505356813709707009,11434,1505356813709262498,-0.702740371227,-0.110959008336,-0.702740371227
1505356813714944685,11435,1505356813714700889,-0.813733458519,0.0,-0.581238210201
1505356813719789218,11436,1505356813719503773,-0.813733458519,0.0,-0.581238210201
1505356813724840469,11437,1505356813724634880,-0.671156048775,0.0671156048775,-0.738271653652
1505356813733001440,11438,1505356813732695773,-0.671156048775,0.0671156048775,-0.738271653652
1505356813734541711,11439,1505356813734387055,-0.702740371227,0.110959008336,-0.702740371227
1505356813739566159,11440,1505356813739398566,-0.702740371227,0.110959008336,-0.702740371227
1505356813749645148,11441,1505356813749399823,-0.76665186882,0.063887655735,-0.63887655735
1505356813750566227,11442,1505356813750437175,-0.76665186882,0.063887655735,-0.63887655735
1505356813754746468,11443,1505356813754586749,-0.741073906422,-0.0352892316878,-0.670495390892
1505356813763054158,11444,1505356813762897379,-0.741073906422,-0.0352892316878,-0.670495390892
1505356813764885887,11445,1505356813764684826,-0.812362372875,-0.0580258853734,-0.580258846283
1505356813771370035,11446,1505356813771173561,-0.812362372875,-0.0580258853734,-0.580258846283
1505356813775675130,11447,1505356813775482518,-0.704118251801,-0.0918415114284,-0.704118251801
1505356813780490197,11448,1505356813780299460,-0.704118251801,-0.0918415114284,-0.704118251801
1505356813785083636,11449,1505356813784804787,-0.744668722153,-0.0391930900514,-0.666282534599
1505356813789846177,11450,1505356813789648348,-0.744668722153,-0.0391930900514,-0.666282534599
1505356813795405210,11451,1505356813795175271,-0.770528972149,-0.0335012599826,-0.636523962021
1505356813799922134,11452,1505356813799730683,-0.770528972149,-0.0335012599826,-0.636523962021
1505356813804977822,11453,1505356813804787146,-0.822192192078,0.0,-0.569209992886
1505356813813253636,11454,1505356813813019027,-0.822192192078,0.0,-0.569209992886
1505356813815257418,11455,1505356813815015804,-0.771516740322,-0.154303357005,-0.61721342802
1505356813819907169,11456,1505356813819746923,-0.771516740322,-0.154303357005,-0.61721342802
1505356813825148297,11457,1505356813824809313,-0.773957312107,0.0,-0.63323777914
1505356813830659859,11458,1505356813830353181,-0.773957312107,0.0,-0.63323777914
1505356813834925017,11459,1505356813834732776,-0.675724625587,0.0,-0.737154185772
1505356813840146937,11460,1505356813839938488,-0.675724625587,0.0,-0.737154185772
1505356813845810786,11461,1505356813845110896,-0.808736085892,0.0,-0.5881716609
1505356813851525268,11462,1505356813851235964,-0.808736085892,0.0,-0.5881716609
1505356813855116018,11463,1505356813854871983,-0.798228144646,-0.0665190070868,-0.598671078682
1505356813863183457,11464,1505356813862911922,-0.798228144646,-0.0665190070868,-0.598671078682
1505356813865616799,11465,1505356813865395279,-0.907264709473,0.0824786126614,-0.412393063307
1505356813870107706,11466,1505356813869882485,-0.907264709473,0.0824786126614,-0.412393063307
1505356813875778218,11467,1505356813875547207,-0.76665186882,-0.063887655735,-0.63887655735
1505356813880821404,11468,1505356813880678549,-0.76665186882,-0.063887655735,-0.63887655735
1505356813885807293,11469,1505356813885069867,-0.735612392426,-0.0294244941324,-0.676763355732
1505356813890332641,11470,1505356813890085134,-0.735612392426,-0.0294244941324,-0.676763355732
1505356813900422378,11471,1505356813900142842,-0.795758783817,0.0318303517997,-0.60477668047
1505356813901613685,11472,1505356813901472672,-0.795758783817,0.0318303517997,-0.60477668047
1505356813905447182,11473,1505356813905128458,-0.67392206192,0.0320915281773,-0.738105118275
1505356813910600228,11474,1505356813910394905,-0.67392206192,0.0320915281773,-0.738105118275
1505356813918462355,11475,1505356813918294113,-0.801783680916,-0.267261236906,-0.534522473812
1505356813920417580,11476,1505356813920256369,-0.801783680916,-0.267261236906,-0.534522473812
1505356813928256073,11477,1505356813928025943,-0.795758783817,0.0318303517997,-0.60477668047
1505356813930748478,11478,1505356813930537703,-0.795758783817,0.0318303517997,-0.60477668047
1505356813935296464,11479,1505356813935140456,-0.63323777914,0.0,-0.773957312107
1505356813941802326,11480,1505356813941551827,-0.63323777914,0.0,-0.773957312107
1505356813945678367,11481,1505356813945510774,-0.714526772499,-0.259827911854,-0.649569809437
1505356813953918849,11482,1505356813953703860,-0.714526772499,-0.259827911854,-0.649569809437
1505356813955706694,11483,1505356813955436050,-0.737154185772,0.0,-0.675724625587
1505356813965399684,11484,1505356813965138305,-0.737154185772,0.0,-0.675724625587
1505356813966203739,11485,1505356813965984678,-0.798228144646,-0.0665190070868,-0.598671078682
1505356813971931018,11486,1505356813971643782,-0.798228144646,-0.0665190070868,-0.598671078682
1505356813976180178,11487,1505356813975581961,-0.830057382584,0.0691714510322,-0.553371608257
1505356813983704342,11488,1505356813983522819,-0.830057382584,0.0691714510322,-0.553371608257
1505356813985596131,11489,1505356813985396027,-0.809626400471,-0.0279181525111,-0.586281180382
1505356813990725745,11490,1505356813990452353,-0.809626400471,-0.0279181525111,-0.586281180382
1505356813997065231,11491,1505356813996892689,-0.706706225872,0.0336526781321,-0.706706225872
1505356814000865513,11492,1505356814000712073,-0.706706225872,0.0336526781321,-0.706706225872
1505356814008633812,11493,1505356814008393987,-0.813123226166,0.0387201532722,-0.580802321434
1505356814011008082,11494,1505356814010698054,-0.813123226166,0.0387201532722,-0.580802321434
1505356814016267381,11495,1505356814016083305,-0.808736085892,0.0,-0.5881716609
1505356814021999506,11496,1505356814021805105,-0.808736085892,0.0,-0.5881716609
1505356814029391105,11497,1505356814029131926,-0.820552706718,-0.0631194412708,-0.568074941635
1505356814030684620,11498,1505356814030484430,-0.820552706718,-0.0631194412708,-0.568074941635
1505356814036015749,11499,1505356814035808721,-0.836113393307,-0.0288314949721,-0.547798395157
1505356814041212701,11500,1505356814041017954,-0.836113393307,-0.0288314949721,-0.547798395157
1505356814047379117,11501,1505356814047067524,-0.770528972149,-0.0335012599826,-0.636523962021
1505356814051033660,11502,1505356814050752233,-0.770528972149,-0.0335012599826,-0.636523962021
1505356814056049260,11503,1505356814055835604,-0.737409710884,-0.105344250798,-0.667180240154
1505356814063452960,11504,1505356814063184327,-0.737409710884,-0.105344250798,-0.667180240154
1505356814066099921,11505,1505356814065855156,-0.855379223824,-0.185952007771,-0.483475208282
1505356814074557890,11506,1505356814074211385,-0.855379223824,-0.185952007771,-0.483475208282
1505356814078178129,11507,1505356814078005294,-0.822885036469,0.0987462028861,-0.55956184864
1505356814081063133,11508,1505356814080913927,-0.822885036469,0.0987462028861,-0.55956184864
1505356814086083054,11509,1505356814085937474,-0.885270416737,-0.192450091243,-0.423390179873
1505356814091069317,11510,1505356814090872267,-0.885270416737,-0.192450091243,-0.423390179873
1505356814097159815,11511,1505356814096950222,-0.888715863228,-0.164577007294,-0.427900224924
1505356814101180353,11512,1505356814100998820,-0.888715863228,-0.164577007294,-0.427900224924
1505356814106326265,11513,1505356814106099740,-0.795758783817,-0.0318303517997,-0.60477668047
1505356814113286695,11514,1505356814113044075,-0.795758783817,-0.0318303517997,-0.60477668047
1505356814116206146,11515,1505356814116059758,-0.808452069759,0.161690413952,-0.565916478634
1505356814121197740,11516,1505356814121024092,-0.808452069759,0.161690413952,-0.565916478634
1505356814129938432,11517,1505356814129643540,-0.741073906422,-0.0352892316878,-0.670495390892
1505356814131421299,11518,1505356814131266701,-0.741073906422,-0.0352892316878,-0.670495390892
1505356814140747163,11519,1505356814140504138,-0.667180240154,-0.105344250798,-0.737409710884
1505356814143030977,11520,1505356814142797786,-0.667180240154,-0.105344250798,-0.737409710884
1505356814147568946,11521,1505356814147308924,-0.642890572548,0.0306138377637,-0.765345931053
1505356814151997805,11522,1505356814151789271,-0.642890572548,0.0306138377637,-0.765345931053
1505356814156493006,11523,1505356814156302695,-0.878458559513,-0.0675737336278,-0.473016142845
1505356814163626577,11524,1505356814163467608,-0.878458559513,-0.0675737336278,-0.473016142845
1505356814167682327,11525,1505356814167467825,-0.808736085892,0.0,-0.5881716609
1505356814174425112,11526,1505356814174162686,-0.808736085892,0.0,-0.5881716609
1505356814179482646,11527,1505356814179323134,-0.845154225826,-0.169030845165,-0.507092535496
1505356814181366703,11528,1505356814181232582,-0.845154225826,-0.169030845165,-0.507092535496
1505356814188160935,11529,1505356814187968898,-0.700140058994,0.140028014779,-0.700140058994
1505356814191468009,11530,1505356814191244846,-0.700140058994,0.140028014779,-0.700140058994
1505356814196888192,11531,1505356814196728666,-0.707106769085,0.0,-0.707106769085
1505356814203827470,11532,1505356814203687329,-0.707106769085,0.0,-0.707106769085
1505356814207051871,11533,1505356814206780974,-0.815692543983,0.125491172075,-0.564710259438
1505356814214304591,11534,1505356814214126600,-0.815692543983,0.125491172075,-0.564710259438
1505356814216567010,11535,1505356814216407219,-0.861549794674,-0.0717958137393,-0.502570688725
1505356814221613862,11536,1505356814221437433,-0.861549794674,-0.0717958137393,-0.502570688725
1505356814230052253,11537,1505356814229759156,-0.76665186882,-0.063887655735,-0.63887655735
1505356814231534342,11538,1505356814231345097,-0.76665186882,-0.063887655735,-0.63887655735
1505356814236993561,11539,1505356814236857366,-0.851658344269,0.0,-0.524097442627
1505356814243095400,11540,1505356814242895486,-0.851658344269,0.0,-0.524097442627
1505356814247186502,11541,1505356814246710618,-0.822885036469,0.0987462028861,-0.55956184864
1505356814251786776,11542,1505356814251556254,-0.822885036469,0.0987462028861,-0.55956184864
1505356814256823512,11543,1505356814256591535,-0.86231648922,-0.0297350510955,-0.505495846272
1505356814263968349,11544,1505356814263752799,-0.86231648922,-0.0297350510955,-0.505495846272
1505356814270175723,11545,1505356814269927597,-0.817431569099,-0.0302752424031,-0.575229585171
1505356814278289485,11546,1505356814278041099,-0.817431569099,-0.0302752424031,-0.575229585171
1505356814279518606,11547,1505356814279332947,-0.877895534039,0.0,-0.478852123022
1505356814282141090,11548,1505356814281873944,-0.877895534039,0.0,-0.478852123022
1505356814286886942,11549,1505356814286658937,-0.800132274628,0.145478591323,-0.581914365292
1505356814291823252,11550,1505356814291646501,-0.800132274628,0.145478591323,-0.581914365292
1505356814296906020,11551,1505356814296725187,-0.823841512203,0.25348970294,-0.50697940588
1505356814302151310,11552,1505356814301960425,-0.823841512203,0.25348970294,-0.50697940588
1505356814310647337,11553,1505356814310451451,-0.833907842636,0.151619613171,-0.530668616295
1505356814312016461,11554,1505356814311865394,-0.833907842636,0.151619613171,-0.530668616295
1505356814317142175,11555,1505356814316960198,-0.738105118275,0.0320915281773,-0.67392206192
1505356814322129886,11556,1505356814321966145,-0.738105118275,0.0320915281773,-0.67392206192
1505356814330086271,11557,1505356814329618965,-0.768221259117,0.0,-0.640184402466
1505356814336651579,11558,1505356814336417279,-0.768221259117,0.0,-0.640184402466
1505356814338813382,11559,1505356814338485830,-0.765345931053,0.0306138377637,-0.642890572548
1505356814342148079,11560,1505356814341934946,-0.765345931053,0.0306138377637,-0.642890572548
1505356814347188081,11561,1505356814346973263,-0.837055742741,0.0363937281072,-0.545905888081
1505356814352512849,11562,1505356814352154440,-0.837055742741,0.0363937281072,-0.545905888081
1505356814357268704,11563,1505356814357100424,-0.776713073254,-0.036986336112,-0.628767728806
1505356814365466091,11564,1505356814365283939,-0.776713073254,-0.036986336112,-0.628767728806
1505356814367756393,11565,1505356814367399655,-0.803685069084,0.0349428281188,-0.594028055668
1505356814375273978,11566,1505356814375001831,-0.803685069084,0.0349428281188,-0.594028055668
1505356814378881721,11567,1505356814378673948,-0.839664161205,0.05997601524,-0.539784133434
1505356814382257117,11568,1505356814382058026,-0.839664161205,0.05997601524,-0.539784133434
1505356814387384150,11569,1505356814387030139,-0.738271653652,-0.0671156048775,-0.671156048775
1505356814395410601,11570,1505356814395096193,-0.738271653652,-0.0671156048775,-0.671156048775
1505356814399083703,11571,1505356814398772619,-0.799788355827,-0.104320220649,-0.591147899628
1505356814402687606,11572,1505356814402480603,-0.799788355827,-0.104320220649,-0.591147899628
1505356814407533284,11573,1505356814407291820,-0.784464538097,-0.196116134524,-0.588348448277
1505356814412447783,11574,1505356814412226769,-0.784464538097,-0.196116134524,-0.588348448277
1505356814417489282,11575,1505356814417270163,-0.704934418201,0.0783260464668,-0.704934418201
1505356814423820702,11576,1505356814423611122,-0.704934418201,0.0783260464668,-0.704934418201
1505356814430492616,11577,1505356814430242491,-0.851658344269,0.0,-0.524097442627
1505356814432632503,11578,1505356814432466040,-0.851658344269,0.0,-0.524097442627
1505356814437861366,11579,1505356814437683509,-0.756881058216,0.151376217604,-0.635780096054
1505356814442558055,11580,1505356814442332599,-0.756881058216,0.151376217604,-0.635780096054
1505356814447775787,11581,1505356814447375701,-0.667180240154,-0.105344250798,-0.737409710884
1505356814453944123,11582,1505356814453765479,-0.667180240154,-0.105344250798,-0.737409710884
1505356814458199554,11583,1505356814458027947,-0.866578221321,-0.0618984438479,-0.495187550783
1505356814465206989,11584,1505356814465049753,-0.866578221321,-0.0618984438479,-0.495187550783
1505356814468376795,11585,1505356814468162824,-0.842516720295,-0.0936129689217,-0.530473530293
1505356814473695981,11586,1505356814473067100,-0.842516720295,-0.0936129689217,-0.530473530293
1505356814479805536,11587,1505356814479605610,-0.820552706718,0.0631194412708,-0.568074941635
1505356814482839388,11588,1505356814482700822,-0.820552706718,0.0631194412708,-0.568074941635
1505356814487906852,11589,1505356814487632567,-0.792982339859,0.132163718343,-0.594736754894
1505356814496860667,11590,1505356814496611927,-0.792982339859,0.132163718343,-0.594736754894
1505356814498115272,11591,1505356814497774684,-0.845817506313,-0.0313265733421,-0.532551765442
1505356814510992013,11592,1505356814510628458,-0.845817506313,-0.0313265733421,-0.532551765442
1505356814513731036,11593,1505356814513543463,-0.912159323692,-0.147122472525,-0.382518440485
1505356814515109515,11594,1505356814514880266,-0.912159323692,-0.147122472525,-0.382518440485
1505356814517869797,11595,1505356814517709002,-0.8158441782,-0.16316883266,-0.554774045944
1505356814524305327,11596,1505356814524006725,-0.8158441782,-0.16316883266,-0.554774045944
1505356814529713862,11597,1505356814528858120,-0.818387925625,-0.129219144583,-0.559949636459
1505356814536272139,11598,1505356814536035697,-0.818387925625,-0.129219144583,-0.559949636459
1505356814537930018,11599,1505356814537717215,-0.765345931053,-0.0306138377637,-0.642890572548
1505356814542904912,11600,1505356814542686788,-0.765345931053,-0.0306138377637,-0.642890572548
1505356814548063152,11601,1505356814547839449,-0.667124390602,0.0741249322891,-0.741249322891
1505356814553125593,11602,1505356814552900096,-0.667124390602,0.0741249322891,-0.741249322891
1505356814560134272,11603,1505356814560023155,-0.737154185772,0.0,-0.675724625587
1505356814565883401,11604,1505356814565666516,-0.737154185772,0.0,-0.675724625587
1505356814568174028,11605,1505356814567887081,-0.780868768692,0.0,-0.624695062637
1505356814573089174,11606,1505356814572838503,-0.780868768692,0.0,-0.624695062637
1505356814579059337,11607,1505356814578926252,-0.882230818272,-0.105867698789,-0.458760023117
1505356814583863744,11608,1505356814583663321,-0.882230818272,-0.105867698789,-0.458760023117
1505356814588134862,11609,1505356814587958156,-0.826474547386,0.0330589823425,-0.562002658844
1505356814597568386,11610,1505356814597362393,-0.826474547386,0.0330589823425,-0.562002658844
1505356814600413661,11611,1505356814600232094,-0.836113393307,0.0288314949721,-0.547798395157
1505356814603311581,11612,1505356814603142106,-0.836113393307,0.0288314949721,-0.547798395157
1505356814608480081,11613,1505356814608095895,-0.741073906422,0.0352892316878,-0.670495390892
1505356814613144396,11614,1505356814612963310,-0.741073906422,0.0352892316878,-0.670495390892
1505356814618218254,11615,1505356814618051682,-0.839664161205,-0.05997601524,-0.539784133434
1505356814623111888,11616,1505356814622910575,-0.839664161205,-0.05997601524,-0.539784133434
1505356814630622144,11617,1505356814630269201,-0.844440758228,-0.129913955927,-0.519655823708
1505356814634758906,11618,1505356814634598820,-0.844440758228,-0.129913955927,-0.519655823708
1505356814638373633,11619,1505356814638030383,-0.737409710884,0.105344250798,-0.667180240154
1505356814643609973,11620,1505356814643324929,-0.737409710884,0.105344250798,-0.667180240154
1505356814649776176,11621,1505356814649464618,-0.70661765337,0.037190400064,-0.70661765337
1505356814653367492,11622,1505356814653150140,-0.70661765337,0.037190400064,-0.70661765337
1505356814658557700,11623,1505356814658334031,-0.760940849781,0.0281829927117,-0.648208856583
1505356814665628004,11624,1505356814665432336,-0.760940849781,0.0281829927117,-0.648208856583
1505356814668938688,11625,1505356814668609715,-0.706772863865,-0.0307292565703,-0.706772863865
1505356814673566762,11626,1505356814673328668,-0.706772863865,-0.0307292565703,-0.706772863865
1505356814685965543,11627,1505356814685163257,-0.800000011921,0.0,-0.600000023842
1505356814685994750,11628,1505356814685202536,-0.800000011921,0.0,-0.600000023842
1505356814692176380,11629,1505356814691999184,-0.803685069084,-0.0349428281188,-0.594028055668
1505356814695068463,11630,1505356814694766413,-0.803685069084,-0.0349428281188,-0.594028055668
1505356814701777445,11631,1505356814701546450,-0.772048652172,-0.0701862424612,-0.631676197052
1505356814705153525,11632,1505356814704971469,-0.772048652172,-0.0701862424612,-0.631676197052
1505356814711740468,11633,1505356814711418106,-0.793492019176,0.0466760024428,-0.606788039207
1505356814716818813,11634,1505356814716612257,-0.793492019176,0.0466760024428,-0.606788039207
1505356814718673332,11635,1505356814718505892,-0.792162060738,0.172209143639,-0.585511088371
1505356814727750621,11636,1505356814727429298,-0.792162060738,0.172209143639,-0.585511088371
1505356814731419201,11637,1505356814731062969,-0.808290362358,0.115470044315,-0.577350258827
1505356814733805887,11638,1505356814733593507,-0.808290362358,0.115470044315,-0.577350258827
1505356814739570891,11639,1505356814739369441,-0.861045718193,-0.241092815995,-0.447743803263
1505356814746503282,11640,1505356814746320384,-0.861045718193,-0.241092815995,-0.447743803263
1505356814748754547,11641,1505356814748557064,-0.739940047264,0.0,-0.67267280817
1505356814754958316,11642,1505356814754798844,-0.739940047264,0.0,-0.67267280817
1505356814759067743,11643,1505356814758923495,-0.688247203827,-0.229415744543,-0.688247203827
1505356814763821035,11644,1505356814763552434,-0.688247203827,-0.229415744543,-0.688247203827
1505356814769047995,11645,1505356814768819644,-0.818387925625,0.129219144583,-0.559949636459
1505356814775107783,11646,1505356814774867554,-0.818387925625,0.129219144583,-0.559949636459
1505356814778972029,11647,1505356814778747170,-0.79887765646,-0.1902089715,-0.570626914501
1505356814788242316,11648,1505356814788051075,-0.79887765646,-0.1902089715,-0.570626914501
1505356814791877105,11649,1505356814791689396,-0.789015054703,0.0292227808386,-0.613678395748
1505356814794252292,11650,1505356814794097068,-0.789015054703,0.0292227808386,-0.613678395748
1505356814803162502,11651,1505356814802992737,-0.770528972149,-0.0335012599826,-0.636523962021
1505356814804121383,11652,1505356814803940539,-0.770528972149,-0.0335012599826,-0.636523962021
1505356814809206414,11653,1505356814809027444,-0.808736085892,0.0,-0.5881716609
1505356814813838717,11654,1505356814813623965,-0.808736085892,0.0,-0.5881716609
1505356814819100783,11655,1505356814818942307,-0.826474547386,-0.0330589823425,-0.562002658844
1505356814832466928,11656,1505356814831999292,-0.826474547386,-0.0330589823425,-0.562002658844
1505356814832476179,11657,1505356814832052771,-0.818043828011,-0.272681295872,-0.50640809536
1505356814834892987,11658,1505356814834692060,-0.818043828011,-0.272681295872,-0.50640809536
1505356814839679940,11659,1505356814839496649,-0.70565032959,-0.0641500279307,-0.70565032959
1505356814844660551,11660,1505356814844409778,-0.70565032959,-0.0641500279307,-0.70565032959
1505356814849275981,11661,1505356814849027812,-0.892607390881,-0.0637576729059,-0.44630369544
1505356814854278782,11662,1505356814854071129,-0.892607390881,-0.0637576729059,-0.44630369544
1505356814864012374,11663,1505356814863806033,-0.817431569099,-0.0302752424031,-0.575229585171
1505356814867044138,11664,1505356814866674526,-0.817431569099,-0.0302752424031,-0.575229585171
1505356814869538561,11665,1505356814869326829,-0.768221259117,0.0,-0.640184402466
1505356814874404068,11666,1505356814874018784,-0.768221259117,0.0,-0.640184402466
1505356814879391236,11667,1505356814879219897,-0.770528972149,-0.0335012599826,-0.636523962021
1505356814884287978,11668,1505356814884094065,-0.770528972149,-0.0335012599826,-0.636523962021
1505356814891195666,11669,1505356814891036315,-0.832050323486,0.0,-0.554700195789
1505356814896860526,11670,1505356814896653591,-0.832050323486,0.0,-0.554700195789
1505356814900726735,11671,1505356814900547459,-0.856988966465,0.0342795588076,-0.514193415642
1505356814904724906,11672,1505356814904557012,-0.856988966465,0.0342795588076,-0.514193415642
1505356814909481738,11673,1505356814909263902,-0.882230818272,-0.105867698789,-0.458760023117
1505356814914062245,11674,1505356814913878319,-0.882230818272,-0.105867698789,-0.458760023117
1505356814920982564,11675,1505356814920712524,-0.786256849766,-0.157251358032,-0.597555160522
1505356814925161637,11676,1505356814924888391,-0.786256849766,-0.157251358032,-0.597555160522
1505356814931857516,11677,1505356814931580131,-0.817431569099,0.0302752424031,-0.575229585171
1505356814934571072,11678,1505356814934354658,-0.817431569099,0.0302752424031,-0.575229585171
1505356814939892383,11679,1505356814939623625,-0.873570740223,-0.174714148045,-0.454256772995
1505356814944505898,11680,1505356814944356360,-0.873570740223,-0.174714148045,-0.454256772995
1505356814951098097,11681,1505356814950590908,-0.795758783817,-0.0318303517997,-0.60477668047
1505356814955474960,11682,1505356814955223883,-0.795758783817,-0.0318303517997,-0.60477668047
1505356814961830731,11683,1505356814961653041,-0.808290362358,0.115470051765,-0.577350258827
1505356814967270497,11684,1505356814967033029,-0.808290362358,0.115470051765,-0.577350258827
1505356814971646309,11685,1505356814971396749,-0.814450919628,-0.090494543314,-0.573132157326
1505356814974700913,11686,1505356814974556658,-0.814450919628,-0.090494543314,-0.573132157326
1505356814979556257,11687,1505356814979397711,-0.76665186882,0.063887655735,-0.63887655735
1505356814984971620,11688,1505356814984600153,-0.76665186882,0.063887655735,-0.63887655735
1505356814996756790,11689,1505356814996454431,-0.780868768692,0.0,-0.624695062637
1505356814998298702,11690,1505356814998139105,-0.780868768692,0.0,-0.624695062637
1505356814999991749,11691,1505356814999809522,-0.909843206406,0.109181180596,-0.400330990553
1505356815007075832,11692,1505356815006913797,-0.909843206406,0.109181180596,-0.400330990553
1505356815009950996,11693,1505356815009707905,-0.792553246021,-0.0951063930988,-0.602340459824
1505356815014960790,11694,1505356815014769635,-0.792553246021,-0.0951063930988,-0.602340459824
1505356815020099943,11695,1505356815019919999,-0.817431569099,0.0302752424031,-0.575229585171
1505356815033439338,11696,1505356815033066995,-0.817431569099,0.0302752424031,-0.575229585171
1505356815034351608,11697,1505356815034170317,-0.737409710884,0.105344250798,-0.667180240154
1505356815038806493,11698,1505356815038606137,-0.737409710884,0.105344250798,-0.667180240154
1505356815040188910,11699,1505356815040030962,-0.760356545448,-0.165294900537,-0.628120660782
1505356815044927677,11700,1505356815044778880,-0.760356545448,-0.165294900537,-0.628120660782
1505356815050457505,11701,1505356815050265267,-0.837055742741,0.0363937281072,-0.545905888081
1505356815056711139,11702,1505356815056491874,-0.837055742741,0.0363937281072,-0.545905888081
1505356815063435493,11703,1505356815063202523,-0.77849894762,-0.077849894762,-0.622799158096
1505356815065570612,11704,1505356815065381116,-0.77849894762,-0.077849894762,-0.622799158096
1505356815070194336,11705,1505356815069945902,-0.803685069084,-0.0349428281188,-0.594028055668
1505356815075218472,11706,1505356815074835287,-0.803685069084,-0.0349428281188,-0.594028055668
1505356815085985500,11707,1505356815085797851,-0.792553246021,0.0951063930988,-0.602340459824
1505356815086724989,11708,1505356815086566762,-0.792553246021,0.0951063930988,-0.602340459824
1505356815096734627,11709,1505356815096513488,-0.772497475147,0.110356777906,-0.625355124474
1505356815097656690,11710,1505356815097400887,-0.772497475147,0.110356777906,-0.625355124474
1505356815100511784,11711,1505356815100338357,-0.836029529572,0.154820293188,-0.5263890028
1505356815105512815,11712,1505356815105291770,-0.836029529572,0.154820293188,-0.5263890028
1505356815110481762,11713,1505356815110294807,-0.706706225872,-0.0336526781321,-0.706706225872
1505356815117559258,11714,1505356815117397986,-0.706706225872,-0.0336526781321,-0.706706225872
1505356815123066184,11715,1505356815122828966,-0.703526496887,0.100503779948,-0.703526496887
1505356815125622822,11716,1505356815125359039,-0.703526496887,0.100503779948,-0.703526496887
1505356815130523111,11717,1505356815130294540,-0.795758783817,0.0318303517997,-0.60477668047
1505356815135504099,11718,1505356815135305681,-0.795758783817,0.0318303517997,-0.60477668047
1505356815140415237,11719,1505356815140272408,-0.799788355827,0.104320220649,-0.591147899628
1505356815154755000,11720,1505356815154543594,-0.799788355827,0.104320220649,-0.591147899628
1505356815174593107,11721,1505356815174250299,-0.70457482338,0.0845489799976,-0.70457482338
1505356815174598414,11722,1505356815174290031,-0.70457482338,0.0845489799976,-0.70457482338
1505356815175333941,11723,1505356815175024930,-0.670495390892,-0.0352892316878,-0.741073906422
1505356815176221179,11724,1505356815175978573,-0.670495390892,-0.0352892316878,-0.741073906422
1505356815177069436,11725,1505356815176755438,-0.705345571041,-0.0705345571041,-0.705345571041
1505356815177811080,11726,1505356815177617390,-0.705345571041,-0.0705345571041,-0.705345571041
1505356815184543420,11727,1505356815184412122,-0.770528972149,-0.0335012599826,-0.636523962021
1505356815185784835,11728,1505356815185590279,-0.770528972149,-0.0335012599826,-0.636523962021
1505356815190934909,11729,1505356815190672043,-0.791154801846,-0.0608580596745,-0.608580589294
1505356815195772878,11730,1505356815195566355,-0.791154801846,-0.0608580596745,-0.608580589294
1505356815200954472,11731,1505356815200683359,-0.766406297684,-0.139346599579,-0.627059698105
1505356815206907644,11732,1505356815206307693,-0.766406297684,-0.139346599579,-0.627059698105
1505356815212096712,11733,1505356815211829982,-0.822885036469,-0.0987462028861,-0.55956184864
1505356815215951273,11734,1505356815215757702,-0.822885036469,-0.0987462028861,-0.55956184864
1505356815221947658,11735,1505356815221791252,-0.780868768692,0.0,-0.624695062637
1505356815226362097,11736,1505356815226090570,-0.780868768692,0.0,-0.624695062637
1505356815230981790,11737,1505356815230579219,-0.772048652172,0.0701862424612,-0.631676197052
1505356815235595197,11738,1505356815235339540,-0.772048652172,0.0701862424612,-0.631676197052
1505356815240941741,11739,1505356815240753968,-0.744845271111,-0.0827605873346,-0.662084698677
1505356815246001823,11740,1505356815245819372,-0.744845271111,-0.0827605873346,-0.662084698677
1505356815252485457,11741,1505356815252322558,-0.635000646114,-0.127000123262,-0.762000799179
1505356815256157331,11742,1505356815255987515,-0.635000646114,-0.127000123262,-0.762000799179
1505356815263034149,11743,1505356815262801914,-0.792553246021,-0.0951063930988,-0.602340459824
1505356815265919486,11744,1505356815265738788,-0.792553246021,-0.0951063930988,-0.602340459824
1505356815270957830,11745,1505356815270737220,-0.852988958359,0.102358676493,-0.511793375015
1505356815277068804,11746,1505356815276888583,-0.852988958359,0.102358676493,-0.511793375015
1505356815281265621,11747,1505356815281117855,-0.799788355827,0.104320220649,-0.591147899628
1505356815286280618,11748,1505356815286054140,-0.799788355827,0.104320220649,-0.591147899628
1505356815291123577,11749,1505356815290946568,-0.891952991486,-0.0743294134736,-0.445976495743
1505356815301608120,11750,1505356815301370213,-0.891952991486,-0.0743294134736,-0.445976495743
1505356815301613286,11751,1505356815301406611,-0.814450919628,-0.090494543314,-0.573132157326
1505356815305976696,11752,1505356815305724816,-0.814450919628,-0.090494543314,-0.573132157326
1505356815311117086,11753,1505356815310938405,-0.764268279076,0.181968644261,-0.618693351746
1505356815316368981,11754,1505356815316174661,-0.764268279076,0.181968644261,-0.618693351746
1505356815321341312,11755,1505356815321162936,-0.74501401186,-0.270914196968,-0.609556913376
1505356815330339748,11756,1505356815330084505,-0.74501401186,-0.270914196968,-0.609556913376
1505356815331194675,11757,1505356815330984623,-0.671156048775,0.0671156048775,-0.738271653652
1505356815336257393,11758,1505356815335967613,-0.671156048775,0.0671156048775,-0.738271653652
1505356815346169903,11759,1505356815345874982,-0.865004003048,-0.112826608121,-0.488915324211
1505356815349142851,11760,1505356815348673172,-0.865004003048,-0.112826608121,-0.488915324211
1505356815351600598,11761,1505356815351345144,-0.803685069084,-0.0349428281188,-0.594028055668
1505356815356305028,11762,1505356815356090290,-0.803685069084,-0.0349428281188,-0.594028055668
1505356815363278931,11763,1505356815363085534,-0.808452069759,0.161690413952,-0.565916478634
1505356815366370138,11764,1505356815366199717,-0.808452069759,0.161690413952,-0.565916478634
1505356815372662669,11765,1505356815372494773,-0.729148983955,-0.158510655165,-0.665744721889
1505356815377076088,11766,1505356815376851458,-0.729148983955,-0.158510655165,-0.665744721889
1505356815381673721,11767,1505356815381403993,-0.76665186882,-0.063887655735,-0.63887655735
1505356815388730805,11768,1505356815388475221,-0.76665186882,-0.063887655735,-0.63887655735
1505356815391425063,11769,1505356815391256694,-0.737409710884,0.105344250798,-0.667180240154
1505356815396621446,11770,1505356815396237741,-0.737409710884,0.105344250798,-0.667180240154
1505356815403028535,11771,1505356815402778092,-0.841191053391,-0.0764719173312,-0.535303413868
1505356815406909659,11772,1505356815406722156,-0.841191053391,-0.0764719173312,-0.535303413868
1505356815411773282,11773,1505356815411611165,-0.820552706718,-0.0631194412708,-0.568074941635
1505356815417854509,11774,1505356815417499415,-0.820552706718,-0.0631194412708,-0.568074941635
1505356815421687125,11775,1505356815421417646,-0.870285212994,-0.0543928258121,-0.489535450935
1505356815427184139,11776,1505356815426859753,-0.870285212994,-0.0543928258121,-0.489535450935
1505356815431577844,11777,1505356815431408398,-0.772987961769,0.257662653923,-0.579740941525
1505356815436439125,11778,1505356815436196121,-0.772987961769,0.257662653923,-0.579740941525
1505356815442566278,11779,1505356815442391391,-0.744668722153,-0.0391930900514,-0.666282534599
1505356815448297176,11780,1505356815447939812,-0.744668722153,-0.0391930900514,-0.666282534599
1505356815452594560,11781,1505356815452343720,-0.854964613914,0.142494097352,-0.498729377985
1505356815456878840,11782,1505356815456479444,-0.854964613914,0.142494097352,-0.498729377985
1505356815463333848,11783,1505356815463139179,-0.70565032959,0.0641500279307,-0.70565032959
1505356815466764699,11784,1505356815466448694,-0.70565032959,0.0641500279307,-0.70565032959
1505356815471974012,11785,1505356815471648615,-0.842516720295,-0.0936129689217,-0.530473530293
1505356815477039876,11786,1505356815476856518,-0.842516720295,-0.0936129689217,-0.530473530293
1505356815482206497,11787,1505356815482000981,-0.852988958359,-0.102358676493,-0.511793375015
1505356815487229663,11788,1505356815487029512,-0.852988958359,-0.102358676493,-0.511793375015
1505356815496918702,11789,1505356815496679594,-0.822885036469,0.0987462028861,-0.55956184864
1505356815496921885,11790,1505356815496712647,-0.822885036469,0.0987462028861,-0.55956184864
1505356815505778440,11791,1505356815505263631,-0.843661487103,0.0,-0.536875486374
1505356815508518146,11792,1505356815508319182,-0.843661487103,0.0,-0.536875486374
1505356815512268400,11793,1505356815511993284,-0.799788355827,0.104320220649,-0.591147899628
1505356815519219622,11794,1505356815518962368,-0.799788355827,0.104320220649,-0.591147899628
1505356815522035349,11795,1505356815521833621,-0.667124390602,-0.0741249322891,-0.741249322891
1505356815530534487,11796,1505356815530174559,-0.667124390602,-0.0741249322891,-0.741249322891
1505356815532005053,11797,1505356815531844893,-0.806559145451,0.0733235552907,-0.586588442326
1505356815539128080,11798,1505356815538911162,-0.806559145451,0.0733235552907,-0.586588442326
1505356815543259194,11799,1505356815543064404,-0.890819251537,0.143680527806,-0.431041568518
1505356815547062430,11800,1505356815546872106,-0.890819251537,0.143680527806,-0.431041568518
1505356815552126030,11801,1505356815551924825,-0.851942718029,-0.113592363894,-0.511165618896
1505356815557020651,11802,1505356815556862181,-0.851942718029,-0.113592363894,-0.511165618896
1505356815563376140,11803,1505356815563205235,-0.842516720295,0.0936129689217,-0.530473530293
1505356815567587484,11804,1505356815567329891,-0.842516720295,0.0936129689217,-0.530473530293
1505356815572213436,11805,1505356815571965105,-0.814613103867,-0.203653275967,-0.54307538271
1505356815577377704,11806,1505356815577190968,-0.814613103867,-0.203653275967,-0.54307538271
1505356815582243924,11807,1505356815582047696,-0.836029529572,0.154820293188,-0.5263890028
1505356815587274767,11808,1505356815587073044,-0.836029529572,0.154820293188,-0.5263890028
1505356815596043827,11809,1505356815595845161,-0.856988966465,-0.0342795588076,-0.514193415642
1505356815598401376,11810,1505356815598225954,-0.856988966465,-0.0342795588076,-0.514193415642
1505356815603876517,11811,1505356815603640580,-0.760940849781,0.0281829927117,-0.648208856583
1505356815608183944,11812,1505356815607744556,-0.760940849781,0.0281829927117,-0.648208856583
1505356815612954621,11813,1505356815612755936,-0.67267280817,0.0,-0.739940047264
1505356815622518280,11814,1505356815622195705,-0.67267280817,0.0,-0.739940047264
1505356815622549331,11815,1505356815622236471,-0.670495390892,-0.0352892316878,-0.741073906422
1505356815627415263,11816,1505356815627227375,-0.670495390892,-0.0352892316878,-0.741073906422
1505356815632553480,11817,1505356815632355022,-0.822192192078,0.0,-0.569209992886
1505356815637376906,11818,1505356815637208695,-0.822192192078,0.0,-0.569209992886
1505356815643347286,11819,1505356815643202350,-0.760356545448,-0.165294900537,-0.628120660782
1505356815648186682,11820,1505356815647917136,-0.760356545448,-0.165294900537,-0.628120660782
1505356815653894401,11821,1505356815653714167,-0.798228144646,0.0665190070868,-0.598671078682
1505356815657730375,11822,1505356815657450827,-0.798228144646,0.0665190070868,-0.598671078682
1505356815662948380,11823,1505356815662712744,-0.701334357262,-0.127515345812,-0.701334357262
1505356815668014393,11824,1505356815667726707,-0.701334357262,-0.127515345812,-0.701334357262
1505356815674427814,11825,1505356815674064838,-0.786795854568,-0.121045514941,-0.605227589607
1505356815678145632,11826,1505356815677919497,-0.786795854568,-0.121045514941,-0.605227589607
1505356815682774849,11827,1505356815682615999,-0.842516720295,-0.0936129689217,-0.530473530293
1505356815687824943,11828,1505356815687605262,-0.842516720295,-0.0936129689217,-0.530473530293
1505356815696426246,11829,1505356815696190069,-0.798228144646,0.0665190070868,-0.598671078682
1505356815697738745,11830,1505356815697438250,-0.798228144646,0.0665190070868,-0.598671078682
1505356815711936789,11831,1505356815711675314,-0.772497475147,-0.110356777906,-0.625355124474
