%time,field.linear.x,field.linear.y,field.linear.z,field.angular.x,field.angular.y,field.angular.z
1503174272765904297,0.0116897455851,0.0232334136963,0.190809234977,0.1,0.0,-0.261918008327
1503174272815564826,0.00350796508789,0.0288131205241,0.193989664316,0.1,0.0,-0.261499047279
1503174272856844419,0.000842623392741,0.030874768575,0.196939051151,0.1,0.0,-0.260954320431
1503174272873240045,-0.00528212229411,0.0342207819621,0.202651292086,0.1,0.0,-0.260527014732
1503174272925184044,-0.00807558441162,0.0363159484863,0.20243576169,0.1,0.0,-0.258457839489
1503174272986613262,-0.0132298520406,0.0405182596842,0.199462264776,0.1,0.0,-0.251186430454
1503174273001599309,-0.0154926961263,0.0418585383097,0.200153529644,0.1,0.0,-0.247946321964
1503174273095456808,-0.0179832127889,0.0430685475667,0.192036598921,0.1,0.0,-0.243713676929
1503174280382667965,-0.0746360066732,0.0844978637695,-0.0408542156219,0.1,0.0,0.022412031889
1503174280537677910,-0.0590968475342,0.0950661621094,-0.0599595308304,0.1,0.0,0.0141374468803
1503174280684939618,-0.0574604187012,0.105930643717,-0.0651489496231,0.1,0.0,0.0086305141449
1503174281198960929,0.0356764628092,0.116241109212,-0.0630201101303,0.1,0.0,0.0100501775742
1503174281210265954,0.0361837005615,0.111966349284,-0.0306729078293,0.1,0.0,0.0117428302765
1503174281278735793,0.0371859436035,0.103967417399,-0.0254850387573,0.1,0.0,0.0143330097198
1503174281305514023,0.0391632283529,0.104066996257,-0.0309439897537,0.1,0.0,0.00994408130646
1503174281371088623,0.0453045552572,0.1012021993,-0.0372607707977,0.1,0.0,0.0161283016205
1503174281401488472,0.0492404988607,0.0996622823079,-0.0362654924393,0.1,0.0,0.0132920742035
1503174281463100287,0.0558856608073,0.0948382161458,-0.0262577533722,0.1,0.0,0.0105012655258
1503174281512168267,0.0609111328125,0.0934108581543,-0.0340349674225,0.1,0.0,0.0127217173576
1503174281556030821,0.0642329915365,0.0878625590007,-0.0229432582855,0.1,0.0,0.00906348228455
1503174284453289046,0.0609662373861,-0.0116529490153,-0.0598823428154,0.1,0.0,0.0218746066093
1503174284501024835,0.0604335327148,-0.0102745844523,-0.0697992444038,0.1,0.0,0.0264381170273
1503174284530926187,0.0574435221354,-0.0105440114339,-0.0646370649338,0.1,0.0,0.0239564478397
1503174284601286249,0.0513837381999,-0.00969167963664,-0.0715260505676,0.1,0.0,0.0260400474072
1503174284637923735,0.0492788645426,-0.00876303482056,-0.0792163014412,0.1,0.0,0.0252327620983
1503174284696322600,0.0461827952067,-0.0093639310201,-0.0891163945198,0.1,0.0,0.0294678509235
1503174284727752091,0.0419907608032,-0.00945645459493,-0.0617627501488,0.1,0.0,0.0328930020332
1503174284800279648,0.0425128351847,-0.0110835965474,-0.0697356760502,0.1,0.0,0.0324087440968
1503174284820015365,0.0440340169271,-0.0114603449504,-0.0850091278553,0.1,0.0,0.0300684273243
1503174284894824606,0.0424996236165,-0.012458820343,-0.0845242738724,0.1,0.0,0.0373519808054
1503174284941920660,0.0412770945231,-0.0115348765055,-0.0673139095306,0.1,0.0,0.035402327776
1503174284982977188,0.0422157516479,-0.0140873769124,-0.07179287076,0.1,0.0,0.0388637781143
1503174285027051124,0.0431780192057,-0.0141999944051,-0.0870636105537,0.1,0.0,0.0346835255623
1503174285096127780,0.0423974583944,-0.0164381663005,-0.0750352442265,0.1,0.0,0.0390657186508
1503174285125135116,0.0421677474976,-0.0173038317362,-0.0694786906242,0.1,0.0,0.0415037870407
1503174285181203289,0.0412785873413,-0.0200399042765,-0.0704816579819,0.1,0.0,0.0464837551117
1503174285223794027,0.0410743179321,-0.0191360905965,-0.076662749052,0.1,0.0,0.0415667593479
1503174285323359111,0.038163365682,-0.0223761011759,-0.0718787312508,0.1,0.0,0.0552995800972
1503174285352441642,0.0384508107503,-0.0216687596639,-0.0684939622879,0.1,0.0,0.0569781661034
1503174285388439611,0.0365606587728,-0.0216550750732,-0.0606328994036,0.1,0.0,0.0565825998783
1503174285423330806,0.0372451324463,-0.0218910547892,-0.0590752214193,0.1,0.0,0.0570511370897
1503174285489129742,0.0359384231567,-0.023920733134,-0.0669502317905,0.1,0.0,0.0651820749044
1503174285510833906,0.0342928365072,-0.022731997172,-0.0582376345992,0.1,0.0,0.0616291165352
1503174285575257587,0.0319422861735,-0.0228962351481,-0.0482670590281,0.1,0.0,0.0672004818916
1503174285615503285,0.031342590332,-0.0231675338745,-0.043898139149,0.1,0.0,0.0710593163967
1503174285679637610,0.0308580525716,-0.0226601155599,-0.0536248646677,0.1,0.0,0.0653516799212
1503174285709525208,0.0285910975138,-0.0240345357259,-0.0297517571598,0.1,0.0,0.0748376250267
1503174285770115173,0.027642074585,-0.024657564799,-0.0336193591356,0.1,0.0,0.0734496042132
1503174285812429725,0.0267295455933,-0.0236475499471,-0.0376095622778,0.1,0.0,0.0713658854365
1503174285873146125,0.0240416819255,-0.0230726598104,-0.0234198495746,0.1,0.0,0.076132774353
1503174285904637269,0.0224465230306,-0.0234612350464,-0.0185928270221,0.1,0.0,0.0780690163374
1503174285963935958,0.0188377494812,-0.0238263600667,0.000390788307413,0.1,0.0,0.0808077007532
1503174286010059548,0.0178752339681,-0.0256841100057,0.0033104699105,0.1,0.0,0.080368205905
1503174286081424878,0.0152599131266,-0.0244126536051,-0.00407852232456,0.1,0.0,0.0790238976479
1503174286103888316,0.013264881134,-0.0228278961182,-0.0121716875583,0.1,0.0,0.0781408548355
1503174286163320470,0.0106047140757,-0.0213665084839,0.00265347957611,0.1,0.0,0.0781152397394
1503174286202856854,0.0072900428772,-0.0205802090963,0.00625642202795,0.1,0.0,0.0781537592411
1503174286269957640,0.00271081701914,-0.0231807301839,0.0165793336928,0.1,0.0,0.0767169296741
1503174286296191922,0.000976696332296,-0.0223242543538,0.00881920009851,0.1,0.0,0.08002191782
1503174286361372766,-0.00108283702532,-0.0165704816182,0.00136354053393,0.1,0.0,0.0824921876192
1503174286402243345,-0.00248143259684,-0.0161042289734,-0.013123139739,0.1,0.0,0.0811996459961
1503174286474269562,-0.00495818646749,-0.0149645703634,-0.0137320226058,0.1,0.0,0.0819252580404
1503174286487155503,-0.00554075749715,-0.0134251492818,-0.0213468316942,0.1,0.0,0.0804815739393
1503174286557114120,-0.00841937764486,-0.0107662798564,-0.0240572914481,0.1,0.0,0.0779024958611
1503174286580626925,-0.00912393188477,-0.00829087638855,-0.0198671203107,0.1,0.0,0.0783926099539
1503174286661893298,-0.0111112721761,-0.00524747021993,-0.0331260748208,0.1,0.0,0.0811775252223
1503174286687044054,-0.0120911089579,-0.0027434536616,-0.0331708714366,0.1,0.0,0.0829125121236
1503174286747175027,-0.0147143173218,0.00174508857727,-0.0264588966966,0.1,0.0,0.0835114270449
1503174286793406050,-0.015641515096,0.003345023791,-0.0261896103621,0.1,0.0,0.0840298086405
1503174286862254546,-0.0189511680603,0.00996583493551,-0.0370004028082,0.1,0.0,0.0835515707731
1503174286881108664,-0.019528155009,0.0131526679993,-0.0357334315777,0.1,0.0,0.0830335095525
1503174286940760171,-0.0213514048258,0.0187990430196,-0.0380176007748,0.1,0.0,0.0841207653284
1503174286970106479,-0.0214172617594,0.0232069295247,-0.0289670825005,0.1,0.0,0.0907322391868
1503174287050084093,-0.0244374542236,0.0227276204427,-0.0295997262001,0.1,0.0,0.0865149870515
1503174287083908603,-0.0243035939535,0.024792040507,-0.0316760540009,0.1,0.0,0.0874635800719
1503174287159514539,-0.0240979309082,0.0268859888713,-0.0379472970963,0.1,0.0,0.0851665586233
1503174287182667357,-0.0238277079264,0.028355178833,-0.0319732427597,0.1,0.0,0.0832647234201
1503174287229735589,-0.0253796869914,0.0328244552612,-0.03585511446,0.1,0.0,0.078354075551
1503174287257378778,-0.0260358581543,0.0340999628703,-0.0283862352371,0.1,0.0,0.0822203010321
1503174287331568445,-0.0280797932943,0.0366568578084,-0.0363746881485,0.1,0.0,0.0763924568892
1503174287382766270,-0.0293720169067,0.0378464914958,-0.0380936861038,0.1,0.0,0.0736387819052
1503174287436145943,-0.0330534464518,0.0394113464355,-0.0330768823624,0.1,0.0,0.0741544961929
1503174287466396120,-0.0360455856323,0.0407065429688,-0.0592336654663,0.1,0.0,0.0698804557323
1503174287531845827,-0.0359185765584,0.0443097127279,-0.0280482769012,0.1,0.0,0.0753689408302
1503174287574831904,-0.0371836573283,0.0471466064453,-0.0527626276016,0.1,0.0,0.0713359415531
1503174287634104843,-0.0375909372965,0.0465752105713,-0.0463706254959,0.1,0.0,0.0675507485867
1503174287664961316,-0.036791536967,0.0464372049967,-0.0364190340042,0.1,0.0,0.0691092014313
1503174287726220307,-0.0379468765259,0.0500434061686,-0.050156712532,0.1,0.0,0.065825343132
1503174287767562237,-0.0381400222778,0.0517697143555,-0.0497624874115,0.1,0.0,0.0631545484066
1503174287830907188,-0.0370942128499,0.0549154052734,-0.0482988357544,0.1,0.0,0.0647495388985
1503174287878948390,-0.0377064717611,0.0552223409017,-0.0480333566666,0.1,0.0,0.0595617890358
1503174287921600474,-0.0359866917928,0.057629892985,-0.0306400060654,0.1,0.0,0.0641248822212
1503174287963294617,-0.037373743693,0.058266225179,-0.0483415126801,0.1,0.0,0.0608346760273
1503174288025594685,-0.036755897522,0.060060256958,-0.0356637239456,0.1,0.0,0.0640451312065
1503174288058620047,-0.0354130783081,0.0590128936768,-0.0225632190704,0.1,0.0,0.0619880855083
1503174288112830020,-0.0338783442179,0.0605727437337,-0.0278961658478,0.1,0.0,0.0636842548847
1503174288144974470,-0.0344329732259,0.0577265014648,-0.0323654413223,0.1,0.0,0.0588426291943
1503174288223768066,-0.0326906687419,0.0537190856934,-0.035236954689,0.1,0.0,0.0594369471073
1503174288248902957,-0.0315142288208,0.0549703979492,-0.0314970016479,0.1,0.0,0.0590375363827
1503174288309801488,-0.0310434875488,0.0546421813965,-0.0549182891846,0.1,0.0,0.0529107749462
1503174288338106027,-0.0283676757813,0.0544773966471,-0.0311107635498,0.1,0.0,0.0544899404049
1503174288419265764,-0.0293689982096,0.0522647450765,-0.0340794324875,0.1,0.0,0.0477366447449
1503174288446414864,-0.03056884257,0.0517402140299,-0.049014210701,0.1,0.0,0.0453298985958
1503174288512612418,-0.0319169845581,0.0480915018717,-0.0284894704819,0.1,0.0,0.040835082531
1503174288539321203,-0.0321189626058,0.0476334025065,-0.0147702693939,0.1,0.0,0.0452699959278
1503174288611361658,-0.0365813268026,0.0474372253418,-0.0570707321167,0.1,0.0,0.0345304012299
1503174288640777479,-0.0349801762899,0.0452985432943,-0.0171102285385,0.1,0.0,0.0378632545471
1503174288700232980,-0.0346434504191,0.0436205444336,-0.0315321683884,0.1,0.0,0.0299882739782
1503174288728992395,-0.0344563827515,0.0422398503621,-0.0391712188721,0.1,0.0,0.0290616154671
1503174288806142579,-0.0333077926636,0.039041557312,-0.0236365795135,0.1,0.0,0.0227670371532
1503174288838170179,-0.03262890625,0.0369742380778,-0.0308052301407,0.1,0.0,0.0201464295387
1503174288896787750,-0.031325861613,0.0355070749919,-0.0544873476028,0.1,0.0,0.0127759426832
1503174288941757967,-0.0299142862956,0.0349137878418,-0.0519471168518,0.1,0.0,0.010556936264
1503174289006195347,-0.0267280248006,0.0310408630371,-0.0277547836304,0.1,0.0,0.0056286752224
1503174289030708678,-0.0267121225993,0.0292217102051,-0.0415603518486,0.1,0.0,-0.00237293541431
1503174289114202882,-0.0258169987996,0.0254142862956,-0.0345944166183,0.1,0.0,-0.00332063436508
1503174289126512662,-0.0245400543213,0.0235480499268,-0.0395747423172,0.1,0.0,-0.00671507418156
1503174289201248751,-0.0229213968913,0.0200742785136,-0.0399069786072,0.1,0.0,-0.0110518038273
1503174289230632736,-0.0214017842611,0.0177817815145,-0.0314601659775,0.1,0.0,-0.015556961298
1503174289290945891,-0.0186801236471,0.0136937586466,-0.0410802662373,0.1,0.0,-0.0243567973375
1503174289338003226,-0.0177662773132,0.0111433486938,-0.0454962253571,0.1,0.0,-0.0279067829251
1503174289395625726,-0.0164916254679,0.00718253199259,-0.0448999106884,0.1,0.0,-0.0303650051355
1503174289431403834,-0.0148635406494,0.00512159601847,-0.0328634381294,0.1,0.0,-0.0304267406464
1503174289484489293,-0.0144188308716,-0.000159614562988,-0.0258835107088,0.1,0.0,-0.0404181443155
1503174289515483153,-0.0139325408936,-0.00215030543009,-0.0167824625969,0.1,0.0,-0.0407323390245
1503174289589437088,-0.0133280016581,-0.00590489069621,-0.0139734074473,0.1,0.0,-0.0408068224788
1503174289630435401,-0.0129099833171,-0.00712003135681,-0.012691853568,0.1,0.0,-0.0464810803533
1503174289680873914,-0.010890935262,-0.0151964658101,0.00382715463638,0.1,0.0,-0.0501635372639
1503174289709661419,-0.00979871813456,-0.01725390625,0.00454705022275,0.1,0.0,-0.0547839850187
1503174289788606850,-0.00855942853292,-0.019599831899,0.0235073734075,0.1,0.0,-0.0530072152615
1503174289817723724,-0.00687006123861,-0.0224883041382,0.0267011187971,0.1,0.0,-0.0527903735638
1503174289880693652,-0.00427929178874,-0.0277465438843,0.0265679806471,0.1,0.0,-0.0542160272598
1503174289919405457,-0.00331244723002,-0.0306869862874,0.0394711829722,0.1,0.0,-0.054844379425
1503174289986520287,-0.00172813447316,-0.0346580581665,0.0308188050985,0.1,0.0,-0.0563826858997
1503174290014026874,-0.000482449690501,-0.0373208363851,0.038672350347,0.1,0.0,-0.056361079216
1503174290091127132,0.00162387704849,-0.043382405599,0.0418968200684,0.1,0.0,-0.061252117157
1503174290120660041,0.00297305838267,-0.0455907033285,0.0449139773846,0.1,0.0,-0.0623648166656
1503174290184636448,0.00490112145742,-0.0523666483561,0.0383204072714,0.1,0.0,-0.0653339624405
1503174290242260344,0.00642546399434,-0.0550837300618,0.045951616019,0.1,0.0,-0.0646073818207
1503174290288204103,0.00895408439636,-0.0635368448893,0.0358451008797,0.1,0.0,-0.0645042657852
1503174290316181835,0.00977713012695,-0.0660663197835,0.0381064414978,0.1,0.0,-0.0658608675003
1503174290375814943,0.0116623802185,-0.0699967956543,0.0380825698376,0.1,0.0,-0.0702458620071
1503174290406269807,0.0123291918437,-0.0733314971924,0.0374083891511,0.1,0.0,-0.0678277015686
1503174290467965306,0.0139939587911,-0.0795500030518,0.0491087399423,0.1,0.0,-0.0710240602493
1503174290499199360,0.0145689926147,-0.0833736877441,0.0513187721372,0.1,0.0,-0.0716158151627
1503174290576289039,0.00867104466756,-0.0934359944661,0.0657475814223,0.1,0.0,-0.0382696390152
1503174290604235601,0.00936295318604,-0.0954638977051,0.0668466985226,0.1,0.0,-0.0420773029327
1503174293022002788,0.00400092379252,-0.110898946126,0.0246744845062,0.1,0.0,-0.0081707239151
1503174293049736252,0.0039198290507,-0.107165222168,0.02415702492,0.1,0.0,0.000529289245605
1503174293101481223,0.00477082252502,-0.103796468099,0.00683804228902,0.1,0.0,-0.0455725193024
1503174293162078824,0.00410058530172,-0.100575907389,0.00998989492655,0.1,0.0,-0.0447229146957
1503174293209820016,0.00333967272441,-0.0906508076986,0.00285964459181,0.1,0.0,-0.038960814476
1503174293256145270,0.00404538281759,-0.0878510030111,0.00191255658865,0.1,0.0,-0.0482919216156
1503174293296426147,0.00404880905151,-0.0825985158285,-0.00801479816437,0.1,0.0,-0.0491693019867
1503174293327380643,-0.00143882449468,-0.0798261617025,-0.00863493978977,0.1,0.0,-0.0209007263184
1503174293402711801,-0.0031754137675,-0.0733220570882,-0.0269464030862,0.1,0.0,-0.017629981041
1503174293447954376,-0.00282885932922,-0.067178237915,-0.000933352857828,0.1,0.0,-0.0134407281876
1503174293498531947,-0.000858986457189,-0.0626982421875,-0.0321712233126,0.1,0.0,-0.0199517011642
1503174293528333949,-0.00141118049622,-0.0590405069987,-0.0323518551886,0.1,0.0,-0.0183855891228
1503174293604946475,-0.00216230519613,-0.0515580291748,-0.0106945224106,0.1,0.0,-0.0154958963394
1503174293652542680,-0.0024586130778,-0.0496812947591,-0.0375221557915,0.1,0.0,-0.0196934342384
1503174293688962181,-0.000931620915731,-0.0415694020589,-0.0461868904531,0.1,0.0,-0.017515540123
1503174293748654762,-0.00054748972257,-0.0364770482381,-0.0194531939924,0.1,0.0,-0.0146317183971
1503174293796533790,0.000115343491236,-0.0313350575765,-0.058526918292,0.1,0.0,-0.0156392455101
1503174293844114094,-9.31353271008e-05,-0.0281965586344,-0.039197627455,0.1,0.0,-0.0172738134861
1503174293880810658,0.000494986414909,-0.0218972676595,-0.0624223537743,0.1,0.0,-0.017397582531
1503174293931034255,0.00117848046621,-0.0184144999186,-0.069228939712,0.1,0.0,-0.0161005556583
1503174293987839874,0.00178221480052,-0.0137667961121,-0.0943537428975,0.1,0.0,-0.016359359026
1503174294017636148,0.00161973746618,-0.00956831614176,-0.0943672433496,0.1,0.0,-0.0155581235886
1503174294091520215,0.00222247966131,-0.00181395308177,-0.115485928953,0.1,0.0,-0.0130964722484
1503174294131669052,0.00246074994405,0.000271677652995,-0.115535750985,0.1,0.0,-0.0125235775486
1503174294184351961,0.00299607467651,0.00673589706421,-0.0951069369912,0.1,0.0,-0.019436839968
1503174294219079545,0.00336052894592,0.00990065511068,-0.0898295938969,0.1,0.0,-0.0194994434714
1503174294287419172,0.00505104033152,0.0137950731913,-0.0850910544395,0.1,0.0,-0.0233017504215
1503174294319918305,0.00401254113515,0.0163877360026,-0.0717017427087,0.1,0.0,-0.0254596620798
1503174294378260166,0.00327630360921,0.0197688573201,-0.080740749836,0.1,0.0,-0.0246710181236
1503174294413047515,0.00305554453532,0.0204307047526,-0.0657151043415,0.1,0.0,-0.0244245529175
1503174294504169236,0.00153048086166,0.0228486302694,-0.0415645539761,0.1,0.0,-0.0309080779552
1503174294517990430,0.00148762671153,0.0234924036662,-0.0369144901633,0.1,0.0,-0.0264965891838
1503174294584036242,0.00117070404689,0.02571165212,-0.042508251965,0.1,0.0,-0.0284692049026
1503174294603175282,0.000327811956406,0.0257159754435,-0.054965108633,0.1,0.0,-0.029323130846
1503174294669005404,-7.59650071462e-05,0.0268957901001,-0.0630932450294,0.1,0.0,-0.0304769575596
1503174294710721468,-0.000490702788035,0.0278327178955,-0.0628656893969,0.1,0.0,-0.0287721157074
1503174294769931219,-0.00109914986293,0.0301048787435,-0.0221984703094,0.1,0.0,-0.0360718369484
1503174294806733713,-0.00158254734675,0.0312374801636,-0.0410185009241,0.1,0.0,-0.0375400781631
1503174294879016001,-0.00354111544291,0.0304024937948,-0.0296250507236,0.1,0.0,-0.0374098420143
1503174294910392539,-0.00377094427745,0.0312933120728,-0.0533211268485,0.1,0.0,-0.0382560491562
1503174294965372956,-0.00494078191121,0.0298497467041,-0.0441702753305,0.1,0.0,-0.0401532948017
1503174294997857807,-0.00544917488098,0.0299490305583,-0.038265645504,0.1,0.0,-0.0410823523998
1503174295069983453,-0.0079700978597,0.0256255238851,-0.0264203101397,0.1,0.0,-0.0384905040264
1503174295102260592,-0.00903685633341,0.0252807947795,-0.0515490174294,0.1,0.0,-0.0441247224808
1503174295181669059,-0.0108845596313,0.0202952092489,-0.0290275514126,0.1,0.0,-0.040746435523
1503174295208623040,-0.0114069226583,0.0199815635681,-0.051143348217,0.1,0.0,-0.0448538511992
1503174295259146159,-0.0133683141073,0.0162193222046,-0.0449825525284,0.1,0.0,-0.0449028909206
1503174295323533345,-0.0143834711711,0.0159928525289,-0.0576203763485,0.1,0.0,-0.0421111285686
1503174295381303695,-0.0163869132996,0.0109160296122,-0.0693614184856,0.1,0.0,-0.0491932630539
1503174295400979269,-0.0165258458455,0.00985085423787,-0.0630906820297,0.1,0.0,-0.0496032685041
1503174295451668561,-0.0186112823486,0.00643172327677,-0.0678940713406,0.1,0.0,-0.0558590143919
1503174295490559798,-0.019579275767,0.00407523441315,-0.0723047405481,0.1,0.0,-0.059007152915
1503174295534807259,-0.0207353452047,-0.000435531616211,-0.05821621418,0.1,0.0,-0.0632803663611
1503174295587151538,-0.02030027771,-0.00150597731272,-0.0517889261246,0.1,0.0,-0.0647470206022
1503174295641944824,-0.0215287958781,-0.00545972061157,-0.0456672310829,0.1,0.0,-0.0670687332749
1503174295669950395,-0.0221889394124,-0.00712026723226,-0.0505844503641,0.1,0.0,-0.0689687877893
1503174295748226446,-0.0236630198161,-0.00982965914408,-0.0508621111512,0.1,0.0,-0.0667080283165
1503174295782189814,-0.023451520284,-0.0110581156413,-0.0490563362837,0.1,0.0,-0.0689482167363
1503174295838698252,-0.023747736613,-0.0146498362223,-0.0444472059608,0.1,0.0,-0.0726083368063
1503174295882505737,-0.0235938949585,-0.0155008773804,-0.0458906888962,0.1,0.0,-0.073308557272
1503174295947605489,-0.0238839823405,-0.0181605224609,-0.0385514572263,0.1,0.0,-0.073246255517
1503174295988751382,-0.0247569732666,-0.0188376401265,-0.0355030074716,0.1,0.0,-0.0747952833772
1503174296048630642,-0.0249027735392,-0.0214323679606,-0.0278395041823,0.1,0.0,-0.0751745849848
1503174296080456748,-0.0254548568726,-0.0223582992554,-0.0205943733454,0.1,0.0,-0.0777103826404
1503174296123925619,-0.0258173751831,-0.0231035257975,-0.0292956531048,0.1,0.0,-0.0776571854949
1503174296167808371,-0.0247462972005,-0.0234187494914,-0.0145578756928,0.1,0.0,-0.0802845433354
1503174296233766368,-0.0237505086263,-0.0248112462362,-0.00228951871395,0.1,0.0,-0.0833437144756
1503174296286026812,-0.0242061843872,-0.0263787155151,-0.0192408710718,0.1,0.0,-0.0813383683562
1503174296330079498,-0.0223817062378,-0.0248552652995,-0.00446640700102,0.1,0.0,-0.0829873085022
1503174296365463153,-0.0219595413208,-0.0250147832235,-0.00604721531272,0.1,0.0,-0.084799066186
1503174296426334094,-0.0215076828003,-0.0253903376261,0.00260069221258,0.1,0.0,-0.0880676358938
1503174296453453215,-0.0215461196899,-0.0251436080933,0.00392437726259,0.1,0.0,-0.0897447019815
1503174296514810545,-0.0205447603861,-0.0255359217326,0.00241757743061,0.1,0.0,-0.0891303271055
1503174296562482096,-0.0200757013957,-0.0250450541178,0.00568437203765,0.1,0.0,-0.089657112956
1503174296623282876,-0.0194189542135,-0.0252449925741,0.00909806415439,0.1,0.0,-0.0923752039671
1503174296668663009,-0.0188983637492,-0.0260902531942,0.00840992294252,0.1,0.0,-0.092725366354
1503174296709115942,-0.0184460156759,-0.0257220865885,0.0101281348616,0.1,0.0,-0.0950438976288
1503174296756971449,-0.01768481191,-0.0261319605509,0.0134235844016,0.1,0.0,-0.0940516293049
1503174296817297122,-0.0180980529785,-0.0253581848145,0.0111331865191,0.1,0.0,-0.0907661467791
1503174296864074301,-0.0177528686523,-0.0254206924438,0.00280315056443,0.1,0.0,-0.0908495783806
1503174296922858806,-0.0174097862244,-0.0251261647542,0.0094254957512,0.1,0.0,-0.0914809852839
1503174296953759626,-0.0170263722738,-0.0251355946859,0.0143810175359,0.1,0.0,-0.0943280905485
1503174297030014143,-0.0156791191101,-0.0247603785197,0.00742623396218,0.1,0.0,-0.0929044187069
1503174297060805937,-0.014758005778,-0.0250980707804,0.0114748515189,0.1,0.0,-0.0920877158642
1503174297137882414,-0.0123808339437,-0.0256337432861,0.0183534324169,0.1,0.0,-0.0937886238098
1503174297151652246,-0.0116038093567,-0.026377360026,0.0124960020185,0.1,0.0,-0.0908381491899
1503174297220831901,-0.0108663088481,-0.0256373723348,0.0166620761156,0.1,0.0,-0.093106597662
1503174297261351738,-0.009402247111,-0.025562075297,0.00790074467659,0.1,0.0,-0.0947215855122
1503174297319666057,-0.00675841840108,-0.0275627110799,0.0195836722851,0.1,0.0,-0.0952709317207
1503174297348444548,-0.00670843633016,-0.0268294321696,0.00712610781193,0.1,0.0,-0.0935615897179
1503174297462125372,-0.00418850231171,-0.0258192723592,0.00660982728004,0.1,0.0,-0.09298402071
1503174297477090186,-0.00409291426341,-0.0241110534668,0.0218104049563,0.1,0.0,-0.0909561514854
1503174297518849891,-0.00287242507935,-0.0219045054118,0.0120601095259,0.1,0.0,-0.0900175571442
1503174297544755911,-0.00250833209356,-0.0214959284465,0.00853771716356,0.1,0.0,-0.0916526466608
1503174297642373907,-0.002067887942,-0.017679485321,-0.00415201392025,0.1,0.0,-0.0885474085808
1503174297660913894,-0.00171620750427,-0.0147030156453,-0.00111374421977,0.1,0.0,-0.0854558050632
1503174297707016692,-0.00238128423691,-0.0150354385376,-0.0198869034648,0.1,0.0,-0.0864965319633
1503174297742339495,-0.00350170167287,-0.0146578521729,-0.011299982667,0.1,0.0,-0.0856373757124
1503174297823418985,-0.0040643196106,-0.00805345153809,-0.0251134764403,0.1,0.0,-0.080389007926
1503174297835900550,-0.0038967218399,-0.00600357182821,-0.0290941558778,0.1,0.0,-0.079474799335
1503174297886356464,-0.0048748292923,-0.00105486504237,-0.0484279617667,0.1,0.0,-0.068761728704
1503174297957185272,-0.00516151841482,0.00214919042587,-0.0402774512768,0.1,0.0,-0.0662897452712
1503174297998024023,-0.0070599822998,0.00908753395081,-0.0385445505381,0.1,0.0,-0.0639063417912
1503174298042103680,-0.00793020757039,0.0124335594177,-0.0298847705126,0.1,0.0,-0.0634130984545
1503174298102390860,-0.00814035733541,0.0197540308634,-0.0204899758101,0.1,0.0,-0.0606795549393
1503174298144458232,-0.0071654993693,0.0221828664144,0.0149144679308,0.1,0.0,-0.0607413351536
1503174298191196774,-0.0099815419515,0.0299888712565,0.00693821907043,0.1,0.0,-0.0595653653145
1503174298271725112,-0.0109978319804,0.0324383494059,0.0142870247364,0.1,0.0,-0.0571295320988
1503174298297678048,-0.0142179730733,0.0401216430664,0.0288653075695,0.1,0.0,-0.0573976635933
1503174298341561788,-0.0154693997701,0.0450328674316,0.0127784609795,0.1,0.0,-0.0541126728058
1503174298404915523,-0.0183530871073,0.0489685719808,0.0393410921097,0.1,0.0,-0.0542951226234
1503174298468481381,-0.0201888376872,0.0539277954102,0.0154750347137,0.1,0.0,-0.0545500516891
1503174298490977556,-0.0194431215922,0.0609438374837,0.0378528833389,0.1,0.0,-0.0490856170654
1503174298569460045,-0.0194268391927,0.0655793965658,0.0209373235703,0.1,0.0,-0.0528115034103
1503174298596110374,-0.0217491200765,0.075220296224,0.00508379936218,0.1,0.0,-0.0536155700684
1503174298644869184,-0.0225810496012,0.0779790242513,0.0245475769043,0.1,0.0,-0.0529333353043
1503174298689022651,-0.0254918721517,0.0876389465332,0.00671362876892,0.1,0.0,-0.052262544632
1503174298719897810,-0.0263105010986,0.0911883138021,0.0160680413246,0.1,0.0,-0.0512971878052
1503174301352536528,-0.0108156356812,0.0948902994792,0.0329467058182,0.1,0.0,-0.176556587219
1503174301366713023,-0.00767581685384,0.0886467895508,0.0344595909119,0.1,0.0,-0.178584814072
1503174301430412770,-0.00420342254639,0.0793800557454,0.0516402125359,0.1,0.0,-0.181903362274
1503174301458258775,-0.00201936594645,0.0769715067546,0.0313820838928,0.1,0.0,-0.183233499527
1503174301525702445,0.000317405700684,0.0698580169678,0.038478910923,0.1,0.0,-0.185454428196
1503174301576114687,0.00188338724772,0.0655084533691,0.0510015487671,0.1,0.0,-0.185335099697
1503174301645461211,0.00698426310221,0.0601268920898,0.018023788929,0.1,0.0,-0.18626999855
1503174301656987867,0.0097930094401,0.0570583953857,0.00826501846313,0.1,0.0,-0.187277406454
1503174301727228568,0.0166229273478,0.0469398295085,0.00513678789139,0.1,0.0,-0.184391722083
1503174301744519790,0.0185537999471,0.0456199696859,0.00204479694366,0.1,0.0,-0.183642119169
1503174301816025597,0.0239078420003,0.040357711792,0.0097798705101,0.1,0.0,-0.185873031616
1503174301845840834,0.0294127909342,0.0372930018107,-0.00336414575577,0.1,0.0,-0.182071551681
1503174301906129358,0.0363062616984,0.0325239257812,-0.00764378905296,0.1,0.0,-0.178460210562
1503174301965304462,0.0393258158366,0.0289560241699,-0.0089867413044,0.1,0.0,-0.171237498522
1503174302010961327,0.0452256520589,0.023044476827,-0.00333368778229,0.1,0.0,-0.168127149343
1503174302066070058,0.0470068410238,0.0194831606547,-0.00183814764023,0.1,0.0,-0.163869634271
1503174306828554882,0.0532053629557,0.0438265177409,-0.0153732299805,0.1,0.0,-0.0300718694925
1503174306855675322,0.0509814046224,0.0454048665365,-0.0127518177032,0.1,0.0,-0.035654604435
1503174306931252085,0.0487924092611,0.0374774881999,-0.0421760082245,0.1,0.0,-0.0337829738855
1503174306978663982,0.047497446696,0.0348118413289,-0.0469290018082,0.1,0.0,-0.0301546156406
1503174307025919584,0.0438474477132,0.0380738830566,-0.0319740772247,0.1,0.0,-0.02965836972
1503174307050237100,0.0408382873535,0.0404168116252,-0.0124287605286,0.1,0.0,-0.0319433659315
1503174307140204638,0.0374042510986,0.0458811899821,-0.00481927394867,0.1,0.0,-0.0239442884922
1503174307166583633,0.034551574707,0.0483828582764,0.00283312797546,0.1,0.0,-0.0240482091904
1503174307220868325,0.0292416127523,0.0520282389323,-0.00373780727386,0.1,0.0,-0.0229513645172
1503174307320601259,0.0243343048096,0.0558386027018,-0.0107525587082,0.1,0.0,-0.0211428403854
1503174307383675929,0.0192319882711,0.0648083394368,-0.0103278160095,0.1,0.0,-0.0205391645432
1503174307396308233,0.0184403483073,0.066702911377,-0.00992840528488,0.1,0.0,-0.0167010426521
1503174307445098976,0.0171458867391,0.0725095418294,-0.00598657131195,0.1,0.0,-0.0149837732315
1503174307497726585,0.0170942052205,0.0757414398193,0.000690698623657,0.1,0.0,-0.00947773456573
1503174307565979979,0.0143601074219,0.0826483459473,0.000858128070831,0.1,0.0,-0.00901710987091
1503174307582429183,0.0137064336141,0.0853879292806,0.0073224902153,0.1,0.0,-0.00874733924866
1503174307640503623,0.0112026977539,0.0919797058105,0.0119304955006,0.1,0.0,-0.0110950469971
1503174307684619081,0.0101669387817,0.095551961263,0.0109635591507,0.1,0.0,-0.00773978233337
1503174307747709465,0.00825338236491,0.102597473145,0.000567972660065,0.1,0.0,-0.00524878501892
1503174307775276469,-0.00377080790202,0.104739003499,0.0456908345222,0.1,0.0,-0.0526053905487
1503174313597268853,0.00747918001811,0.115927052816,0.0399194806814,0.1,0.0,0.0240983963013
1503174313649791458,0.00554747390747,0.111631754557,0.0376203358173,0.1,0.0,0.00500059127808
1503174313670823046,0.00531260935465,0.107200795492,0.0418992489576,0.1,0.0,0.00423741340637
1503174313727945630,0.0172450866699,0.104162699382,0.0246169865131,0.1,0.0,0.0423228740692
1503174313744417912,0.0190293324788,0.102395904541,0.026869982481,0.1,0.0,0.0476869344711
1503174313818743644,0.0184536361694,0.0982151387533,0.0352693498135,0.1,0.0,0.0444595813751
1503174313853217623,0.0177673212687,0.0970296630859,0.0326131284237,0.1,0.0,0.0478588342667
1503174314949080920,-0.00109762763977,0.0881673380534,0.00305014103651,0.1,0.0,-0.019279718399
1503174314972811291,0.00385259183248,0.0838526051839,-0.00203529000282,0.1,0.0,-0.00449240207672
1503174315017139121,0.00371430714925,0.0817557830811,0.00466224551201,0.1,0.0,-0.00702428817749
1503174315078509610,0.00560431098938,0.0758828837077,-0.00228127837181,0.1,0.0,-0.010110616684
1503174315106893915,0.00502549171448,0.0726641743978,-0.000923961400986,0.1,0.0,-0.0163770914078
1503174315187018398,0.0057336324056,0.0708226877848,0.00337043404579,0.1,0.0,-0.0187096595764
1503174315215946818,0.00637358093262,0.0688877563477,-0.00226783752441,0.1,0.0,-0.0175822973251
1503174315276847364,0.00642189280192,0.0627712504069,0.000301122665405,0.1,0.0,-0.0221834182739
1503174315304281476,0.00635182317098,0.0577548268636,0.00257071852684,0.1,0.0,-0.0224061012268
1503174315364807001,0.0056228090922,0.0550661417643,-0.00183019042015,0.1,0.0,-0.0236558914185
1503174315441003255,0.00447270202637,0.052854868571,-0.0111095607281,0.1,0.0,-0.0271371006966
1503174315482882251,0.00569606781006,0.0520041147868,-0.0102161765099,0.1,0.0,-0.0277824401855
1503174315499414797,0.00611057027181,0.0518158569336,-0.00990927219391,0.1,0.0,-0.0251311659813
1503174315559363025,0.00710400263468,0.0504569549561,-0.00789448618889,0.1,0.0,-0.024528503418
1503174315614214346,0.00670885340373,0.0460891774495,-0.00987696647644,0.1,0.0,-0.029166996479
1503174315701774273,0.00692881329854,0.0479228210449,-0.0144287645817,0.1,0.0,-0.0238791704178
1503174315722121823,0.00854694239299,0.0478313039144,-0.012432128191,0.1,0.0,-0.0205891132355
1503174315792016103,0.0107958246867,0.0469926300049,-0.0126614272594,0.1,0.0,-0.0269839167595
1503174315819378832,0.0121622327169,0.045596593221,-0.0142940878868,0.1,0.0,-0.0213892459869
1503174315867810146,0.0125838737488,0.0470534718831,-0.0127804875374,0.1,0.0,-0.023049890995
1503174315913462493,0.0127809804281,0.0481695607503,-0.00872713327408,0.1,0.0,-0.0209003090858
1503174315988158863,0.013022992452,0.0475015563965,-0.00340616703033,0.1,0.0,-0.0202281475067
1503174316003954649,0.0136137313843,0.0485511423747,0.00275558233261,0.1,0.0,-0.0169212818146
1503174316066063265,0.0141547902425,0.0522553965251,0.00773417949677,0.1,0.0,-0.0136761069298
1503174316090759541,0.0145388336182,0.0534361063639,0.00336617231369,0.1,0.0,-0.0119591355324
1503174316164554247,0.0148205451965,0.0560944315592,0.007748067379,0.1,0.0,-0.0103784799576
1503174316195515155,0.0140997123718,0.0569566599528,0.0238827466965,0.1,0.0,-0.0101408958435
1503174316259794020,0.0155345637004,0.0622701975505,-0.0016405582428,0.1,0.0,-0.00549960136414
1503174316310334355,0.01401075236,0.0624029032389,0.0306929945946,0.1,0.0,-0.00573372840881
1503174316364628572,0.0130379053752,0.0652961527507,0.0283643305302,0.1,0.0,-0.00342524051666
1503174316393451176,0.01402465566,0.0696193491618,-0.00487327575684,0.1,0.0,-0.00193798542023
1503174316467938212,0.0131163279215,0.0758585255941,-0.00191578269005,0.1,0.0,0.00189077854156
1503174316484653744,0.0127324447632,0.0781703745524,0.00725308060646,0.1,0.0,0.00320744514465
1503174316585597468,0.0113497835795,0.0783412780762,0.0190297663212,0.1,0.0,0.00506258010864
1503174316604166211,0.00999380366007,0.0798542480469,0.0211821496487,0.1,0.0,0.00422835350037
1503174316666456476,0.0109699859619,0.0860745035807,0.01656883955,0.1,0.0,0.00704646110535
1503174316682301035,0.0109031283061,0.0880280558268,0.0274977982044,0.1,0.0,0.00687193870544
1503174317562466784,-8.78960688909e-05,0.119863698324,-0.0184942502528,0.1,0.0,-0.0117896795273
1503174317641773280,1.33953094482e-05,0.118849273682,-0.0156698152423,0.1,0.0,-0.026398062706
1503174317657001747,-0.000446770350138,0.121247721354,-0.0334333367646,0.1,0.0,-0.037828207016
1503174317712467055,-0.00108715248108,0.1190546875,-0.0183792263269,0.1,0.0,-0.0413190126419
1503174317741402727,-0.00195513232549,0.119642496745,-0.0308294929564,0.1,0.0,-0.0451943874359
1503174317819027128,-0.00215188852946,0.118373291016,-0.0361568555236,0.1,0.0,-0.0491621494293
1503174317846177020,-0.00231944020589,0.117263478597,-0.0311502367258,0.1,0.0,-0.0501117706299
1503174317909072558,-0.00326900831858,0.117544281006,-0.0322247818112,0.1,0.0,-0.0523573160172
1503174317938915497,-0.00310877132416,0.118847981771,-0.0482808127999,0.1,0.0,-0.0547783374786
1503174318019758727,-0.00399874432882,0.11838083903,-0.0517791546881,0.1,0.0,-0.0117168426514
1503174318060356893,-0.00378237660726,0.117323160807,-0.0508197620511,0.1,0.0,-0.0107896327972
1503174318103027395,-0.00385795497894,0.113905212402,-0.0202096775174,0.1,0.0,-0.00826287269592
1503174318148080507,-0.00391191323598,0.114295633952,-0.0157416686416,0.1,0.0,-0.00740337371826
1503174318192388398,-0.00456164010366,0.113053538005,-0.0138038098812,0.1,0.0,-0.0114479064941
1503174318241223478,-0.00477695624034,0.112294362386,-0.0136535912752,0.1,0.0,-0.0122742652893
1503174318300396050,-0.00523843574524,0.112710673014,-0.0116459056735,0.1,0.0,-0.0127218961716
1503174318329976036,-0.00577861277262,0.112435068766,-0.0167305618525,0.1,0.0,-0.01620054245
1503174318423243522,-0.00637425931295,0.11072869873,-0.00198391079903,0.1,0.0,-0.0140933990479
1503174318440672072,-0.00645267995199,0.112974884033,-0.0129990428686,0.1,0.0,-0.0116966962814
1503174318510586992,-0.00688434410095,0.111077351888,-0.00264438986778,0.1,0.0,-0.00654923915863
1503174318543145169,-0.00679134178162,0.111863830566,-0.0030250698328,0.1,0.0,-0.00468063354492
1503174318584524210,-0.00752246729533,0.108888804118,0.0124767124653,0.1,0.0,-0.00918245315552
1503174318636851900,-0.0217298456828,0.108004923503,-0.00105008482933,0.1,0.0,-0.0718988180161
1503174318705826450,-0.023543355306,0.107420318604,-0.00622081756592,0.1,0.0,-0.0752973556519
1503174318752251784,-0.0254904225667,0.10662584432,-0.00854766368866,0.1,0.0,-0.0803791284561
1503174318796704497,-0.0282941716512,0.103990793864,0.00191777944565,0.1,0.0,-0.0836507081985
1503174318824865956,-0.0298349253337,0.104030863444,0.00277817249298,0.1,0.0,-0.0888746976852
1503174318887626363,-0.0323494974772,0.102956176758,0.00864642858505,0.1,0.0,-0.0968856811523
1503174318918212120,-0.0328246459961,0.104531524658,-0.0109630823135,0.1,0.0,-0.10189640522
1503174318992323148,-0.0327301966349,0.102970092773,0.00291031599045,0.1,0.0,-0.107108712196
1503174319025524095,-0.0335207468669,0.10371178182,0.00839078426361,0.1,0.0,-0.109088540077
1503174319101148635,-0.0334028015137,0.10508094279,-0.00546908378601,0.1,0.0,-0.113026857376
1503174319117314618,-0.0353173116048,0.105282908122,-0.00354239344597,0.1,0.0,-0.115245103836
1503174320006979211,-0.0435000406901,0.0855657145182,0.0280234217644,0.1,0.0,-0.141311407089
1503174320086068768,-0.0436864318848,0.083561436971,0.0269798636436,0.1,0.0,-0.143175721169
1503174320124719469,-0.0429168650309,0.0825222218831,0.0360673069954,0.1,0.0,-0.141225099564
1503174320186651895,-0.041835067749,0.0804696960449,0.0291550755501,0.1,0.0,-0.142746567726
1503174320208924346,-0.0409873708089,0.0796484273275,0.0144142508507,0.1,0.0,-0.144468784332
1503174320282139495,-0.0399495951335,0.0753681894938,0.0269134044647,0.1,0.0,-0.14902973175
1503174320301791154,-0.0399853490194,0.0743605194092,0.0183143019676,0.1,0.0,-0.152166962624
1503174320391924128,-0.037793296814,0.0692926737467,0.0189083218575,0.1,0.0,-0.150950789452
1503174320410492600,-0.0366546325684,0.0669360249837,0.0246040821075,0.1,0.0,-0.149693489075
1503174320463574639,-0.0365727005005,0.0621281840007,0.0194418430328,0.1,0.0,-0.148551821709
1503174320500685208,-0.0378574167887,0.0611748250326,0.00242853164673,0.1,0.0,-0.149349927902
1503174320570958195,-0.0356390813192,0.0559569905599,0.0145992636681,0.1,0.0,-0.144950687885
1503174320590006599,-0.0349888432821,0.0536125996908,0.0132445693016,0.1,0.0,-0.145157456398
1503174320650178797,-0.0339222869873,0.0495248311361,0.00359642505646,0.1,0.0,-0.144512176514
1503174320696146395,-0.0328192418416,0.0462515513102,-0.00266027450562,0.1,0.0,-0.141295433044
1503174320740374937,-0.0320942484538,0.0401953150431,-0.0165421366692,0.1,0.0,-0.140688657761
1503174320798525413,-0.0313113937378,0.038644241333,-0.0160665512085,0.1,0.0,-0.138870537281
1503174320845745102,-0.0279533411662,0.0320114313761,-0.00528025627136,0.1,0.0,-0.135109275579
1503174320892549508,-0.0274410832723,0.0297946014404,-0.0207163691521,0.1,0.0,-0.136162728071
1503174320967699893,-0.0230813725789,0.022530380249,-0.0167694091797,0.1,0.0,-0.132305502892
1503174320982044147,-0.0220330301921,0.0200958468119,-0.0368736982346,0.1,0.0,-0.130829915404
1503174321046522998,-0.019122215271,0.0149485410055,-0.0540326237679,0.1,0.0,-0.128089934587
1503174321089126786,-0.0172475878398,0.0100810159047,-0.0696824193001,0.1,0.0,-0.129170060158
1503174321171706695,-0.0156978378296,0.000753391583761,-0.0942434221506,0.1,0.0,-0.13595661521
1503174321183861683,-0.0138315404256,-0.00195623366038,-0.0836737453938,0.1,0.0,-0.132975995541
1503174321273122183,-0.011535214742,-0.00636926205953,-0.0741658136249,0.1,0.0,-0.139709711075
1503174321303636714,-0.00968792661031,-0.00963532447815,-0.0750724300742,0.1,0.0,-0.136474370956
1503174321351188950,-0.00679476420085,-0.0158024381002,-0.0678428784013,0.1,0.0,-0.130730599165
1503174321375412090,-0.00582471593221,-0.0181601168315,-0.0599504821002,0.1,0.0,-0.129467383027
1503174321438393667,-0.00407864252726,-0.021421971639,-0.0432829372585,0.1,0.0,-0.125804334879
1503174321484811510,-0.00313378588359,-0.0221505304972,-0.0392069108784,0.1,0.0,-0.121808201075
1503174321542091065,-0.00195906241735,-0.0232020441691,-0.0424683243036,0.1,0.0,-0.117037832737
1503174321569058366,-0.00107412203153,-0.0242953364054,-0.0212420783937,0.1,0.0,-0.113041728735
1503174321629564770,0.00169308980306,-0.0268825124105,-0.0267237387598,0.1,0.0,-0.108752220869
1503174321674214958,0.00178181107839,-0.0263828074137,-0.0191995054483,0.1,0.0,-0.107069909573
1503174321738671826,0.00387697505951,-0.0295416997274,-0.00737701356411,0.1,0.0,-0.0992321372032
1503174321761990508,0.005224568367,-0.0343915456136,0.00518735870719,0.1,0.0,-0.0973297953606
1503174321828083541,0.00577726300557,-0.037899676005,0.00674581900239,0.1,0.0,-0.0932334661484
1503174321870009660,0.00761798667908,-0.0355743306478,-0.00211743451655,0.1,0.0,-0.0920484662056
1503174321931885636,0.0106175289154,-0.0363481318156,0.0102703794837,0.1,0.0,-0.0847678482533
1503174321961384972,0.0116849784851,-0.0392252044678,0.0182929560542,0.1,0.0,-0.0849615931511
1503174322023022291,0.0150267486572,-0.0451293385824,0.025068923831,0.1,0.0,-0.0803168416023
1503174322051488084,0.0155614484151,-0.0453752848307,0.0304990261793,0.1,0.0,-0.0765393972397
1503174322136235263,0.0170816624959,-0.0458074239095,0.0201000422239,0.1,0.0,-0.0756502151489
1503174322158764254,0.0177142740885,-0.0479715067546,0.0306781232357,0.1,0.0,-0.071339070797
1503174322226944992,0.0190560290019,-0.0504935506185,0.00546482205391,0.1,0.0,-0.0680021047592
1503174322259963517,0.0198622690837,-0.0485237630208,0.0144004821777,0.1,0.0,-0.0666118860245
1503174322351483115,0.0213614476522,-0.0420136820475,0.0395021885633,0.1,0.0,-0.0618250966072
1503174322367744894,0.0238519388835,-0.0411979827881,0.00611484050751,0.1,0.0,-0.0634098649025
1503174322479045357,0.0247690633138,-0.0380204035441,0.00165247917175,0.1,0.0,-0.0589693784714
1503174322543351293,0.0243308741252,-0.0366075134277,-0.0022794008255,0.1,0.0,-0.0587959885597
1503174322562214669,0.0243102722168,-0.0258252461751,0.00482887774706,0.1,0.0,-0.0485703796148
1503174322607606372,0.024918586731,-0.0248066813151,-0.0112250745296,0.1,0.0,-0.0471479743719
1503174322647068502,0.0256504847209,-0.017001759847,-0.0109088867903,0.1,0.0,-0.0367413237691
1503174322687029951,0.0280178451538,-0.0131826515198,-0.043451026082,0.1,0.0,-0.0399769544601
1503174322728085145,0.0274634882609,-0.00285201644897,-0.0340688675642,0.1,0.0,-0.0537464171648
1503174322773204780,0.0289172999064,0.000484031041463,-0.0337520837784,0.1,0.0,-0.0437098518014
1503174322836157628,0.0288041280111,0.00404734738668,-0.0362377613783,0.1,0.0,-0.043081395328
1503174322861407604,0.0271345392863,0.00758075205485,-0.0282625406981,0.1,0.0,-0.0365376845002
1503174322941626480,0.0282300262451,0.0163818664551,-0.0488322973251,0.1,0.0,-0.0333589166403
1503174322985350832,0.0274579671224,0.0200568898519,-0.0288665294647,0.1,0.0,-0.0400678515434
1503174323057025493,0.0274395904541,0.0276197636922,-0.00334584712982,0.1,0.0,-0.0387415587902
1503174323069740815,0.0279288075765,0.0331213277181,-0.010973572731,0.1,0.0,-0.0339196026325
1503174323138397567,0.0293021392822,0.041749961853,0.0176804065704,0.1,0.0,-0.0243227481842
1503174323178476507,0.0297568359375,0.0466029408773,0.0188312530518,0.1,0.0,-0.0273201465607
1503174323224308615,0.0307017923991,0.0533738708496,0.029744386673,0.1,0.0,-0.0225176215172
1503174323269217134,0.0317683308919,0.0541854858398,0.0132310390472,0.1,0.0,-0.0189727544785
1503174323329402594,0.0319145863851,0.057855682373,0.0262320041656,0.1,0.0,-0.0162304639816
1503174323357813165,0.0338951772054,0.0615556691488,0.01620221138,0.1,0.0,-0.0120282173157
1503174323422100715,0.0360084686279,0.0646950174967,0.0301584005356,0.1,0.0,-0.0107782483101
1503174323468435395,0.0357217915853,0.0621604258219,0.0374113321304,0.1,0.0,-0.0122291445732
1503174323523804979,0.0397805480957,0.0674941202799,0.00748610496521,0.1,0.0,-0.00885909795761
1503174323558748294,0.0411364847819,0.0701695302327,0.0226920843124,0.1,0.0,-0.00804662704468
1503174323613958529,0.0448066914876,0.0778481648763,0.0202711820602,0.1,0.0,-0.00222629308701
1503174323659950735,0.0455607808431,0.0818575846354,0.0236817598343,0.1,0.0,-0.00157427787781
