%time,field.header.seq,field.header.stamp,field.header.frame_id,field.vector.x,field.vector.y,field.vector.z
1505429686807151998,9473,1505429686807016631,0.81674271822,0.250591516495,0.519745349884
1505429686811791012,9474,1505429686811547883,0.81674271822,0.250591516495,0.519745349884
1505429686816643761,9475,1505429686816375650,0.823507726192,0.246105760336,0.511142730713
1505429686822613425,9476,1505429686822385398,0.823507726192,0.246105760336,0.511142730713
1505429686829707095,9477,1505429686829502581,0.807705104351,0.259951084852,0.52918612957
1505429686836123513,9478,1505429686835619933,0.807705104351,0.259951084852,0.52918612957
1505429686836656203,9479,1505429686836479490,0.811667442322,0.261226326227,0.522452652454
1505429686841174996,9480,1505429686840966034,0.811667442322,0.261226326227,0.522452652454
1505429686846219350,9481,1505429686846030992,0.827039599419,0.256989687681,0.499961793423
1505429686852744667,9482,1505429686852573048,0.827039599419,0.256989687681,0.499961793423
1505429686860049539,9483,1505429686859815274,0.817249059677,0.244712993503,0.521746575832
1505429686861677890,9484,1505429686861492942,0.817249059677,0.244712993503,0.521746575832
1505429686870505764,9485,1505429686870271167,0.826032459736,0.250169843435,0.505059838295
1505429686871260268,9486,1505429686871104497,0.826032459736,0.250169843435,0.505059838295
1505429686877155292,9487,1505429686876200807,0.821142494678,0.231371641159,0.521720349789
1505429686881607021,9488,1505429686881405673,0.821142494678,0.231371641159,0.521720349789
1505429686886504892,9489,1505429686886345629,0.821647405624,0.240031823516,0.516991615295
1505429686891478755,9490,1505429686891312196,0.821647405624,0.240031823516,0.516991615295
1505429686896933189,9491,1505429686896598716,0.823314368725,0.259275794029,0.504905462265
1505429686901983500,9492,1505429686901761558,0.823314368725,0.259275794029,0.504905462265
1505429686906554517,9493,1505429686906315922,0.81631398201,0.278185218573,0.506205916405
1505429686912817218,9494,1505429686912635971,0.81631398201,0.278185218573,0.506205916405
1505429686921702319,9495,1505429686921243140,0.833285808563,0.247238636017,0.494477272034
1505429686921742654,9496,1505429686921277460,0.833285808563,0.247238636017,0.494477272034
1505429686926856017,9497,1505429686926575674,0.833232522011,0.262140572071,0.486832499504
1505429686932960495,9498,1505429686932720179,0.833232522011,0.262140572071,0.486832499504
1505429686939550231,9499,1505429686939153696,0.819515764713,0.244912743568,0.518084645271
1505429686942761194,9500,1505429686942527023,0.819515764713,0.244912743568,0.518084645271
1505429686949084201,9501,1505429686948824983,0.8336545825,0.259662896395,0.487437367439
1505429686951961636,9502,1505429686951678487,0.8336545825,0.259662896395,0.487437367439
1505429686956889445,9503,1505429686956658969,0.834509074688,0.225916832685,0.502549648285
1505429686962208157,9504,1505429686961739712,0.834509074688,0.225916832685,0.502549648285
1505429686972365252,9505,1505429686972146817,0.826131343842,0.253839254379,0.503063261509
1505429686973245567,9506,1505429686973057596,0.826131343842,0.253839254379,0.503063261509
1505429686980539996,9507,1505429686980302212,0.828482031822,0.239339262247,0.506294608116
1505429686982172034,9508,1505429686981997531,0.828482031822,0.239339262247,0.506294608116
1505429686986926570,9509,1505429686986756320,0.824167490005,0.262444406748,0.501867353916
1505429686994529592,9510,1505429686994290345,0.824167490005,0.262444406748,0.501867353916
1505429686997118764,9511,1505429686996935755,0.831412672997,0.252226322889,0.49511089921
1505429687003622582,9512,1505429687003401299,0.831412672997,0.252226322889,0.49511089921
1505429687011322516,9513,1505429687010971877,0.832740783691,0.234639674425,0.501484751701
1505429687012405263,9514,1505429687012235750,0.832740783691,0.234639674425,0.501484751701
1505429687020667209,9515,1505429687020431006,0.826131343842,0.253839254379,0.503063261509
1505429687022079987,9516,1505429687021858340,0.826131343842,0.253839254379,0.503063261509
1505429687027000236,9517,1505429687026871550,0.830528378487,0.22053578496,0.511455357075
1505429687032101431,9518,1505429687031942771,0.830528378487,0.22053578496,0.511455357075
1505429687037229712,9519,1505429687036995167,0.82082670927,0.227234512568,0.52403062582
1505429687043765789,9520,1505429687043498857,0.82082670927,0.227234512568,0.52403062582
1505429687048789543,9521,1505429687048582241,0.824716866016,0.256578564644,0.503993630409
1505429687055962757,9522,1505429687055606660,0.824716866016,0.256578564644,0.503993630409
1505429687059133784,9523,1505429687058746445,0.814921915531,0.280695348978,0.507062554359
1505429687062423837,9524,1505429687062129459,0.814921915531,0.280695348978,0.507062554359
1505429687074682993,9525,1505429687074348815,0.824167490005,0.262444406748,0.501867353916
1505429687074823455,9526,1505429687074375439,0.824167490005,0.262444406748,0.501867353916
1505429687077616416,9527,1505429687077377331,0.827953159809,0.2412892133,0.506234228611
1505429687086952362,9528,1505429687086268769,0.827953159809,0.2412892133,0.506234228611
1505429687087256366,9529,1505429687087098745,0.811970949173,0.236631542444,0.533580899239
1505429687092508058,9530,1505429687092228804,0.811970949173,0.236631542444,0.533580899239
1505429687097741288,9531,1505429687097492057,0.825597286224,0.259738475084,0.500924170017
1505429687108252737,9532,1505429687108060494,0.825597286224,0.259738475084,0.500924170017
1505429687110384420,9533,1505429687110250090,0.818427324295,0.251472085714,0.516660869122
1505429687117154878,9534,1505429687116933739,0.818427324295,0.251472085714,0.516660869122
1505429687118190451,9535,1505429687117970596,0.818710803986,0.23188918829,0.525299966335
1505429687122738541,9536,1505429687122521674,0.818710803986,0.23188918829,0.525299966335
1505429687127673514,9537,1505429687127501057,0.829400360584,0.264314413071,0.492171645164
1505429687135325488,9538,1505429687135108173,0.829400360584,0.264314413071,0.492171645164
1505429687138619026,9539,1505429687138431896,0.814016819,0.256095170975,0.521336615086
1505429687142945247,9540,1505429687142713672,0.814016819,0.256095170975,0.521336615086
1505429687150772786,9541,1505429687150559821,0.829887390137,0.23644836247,0.505350410938
1505429687154048722,9542,1505429687153892325,0.829887390137,0.23644836247,0.505350410938
1505429687161393899,9543,1505429687161055106,0.819797873497,0.248702719808,0.515827894211
1505429687163021822,9544,1505429687162781645,0.819797873497,0.248702719808,0.515827894211
1505429687168337016,9545,1505429687167735516,0.829028904438,0.251914858818,0.499249458313
1505429687179399226,9546,1505429687179042480,0.829028904438,0.251914858818,0.499249458313
1505429687179405458,9547,1505429687179078564,0.82755792141,0.251056909561,0.502113819122
1505429687184208380,9548,1505429687183909738,0.82755792141,0.251056909561,0.502113819122
1505429687188133561,9549,1505429687187784809,0.82755792141,0.251056909561,0.502113819122
1505429687192961977,9550,1505429687192778263,0.82755792141,0.251056909561,0.502113819122
1505429687201372408,9551,1505429687201193395,0.82509636879,0.24706274271,0.508110165596
1505429687202952741,9552,1505429687202771888,0.82509636879,0.24706274271,0.508110165596
1505429687208327134,9553,1505429687208142554,0.817249059677,0.244712993503,0.521746575832
1505429687217710268,9554,1505429687217397677,0.817249059677,0.244712993503,0.521746575832
1505429687226292339,9555,1505429687226087813,0.830447435379,0.24535946548,0.500155866146
1505429687226596468,9556,1505429687226135991,0.830447435379,0.24535946548,0.500155866146
1505429687228104190,9557,1505429687227850415,0.83045476675,0.249136433005,0.498272866011
1505429687233117332,9558,1505429687232934556,0.83045476675,0.249136433005,0.498272866011
1505429687239429670,9559,1505429687239168556,0.829028904438,0.251914858818,0.499249458313
1505429687243951578,9560,1505429687243661213,0.829028904438,0.251914858818,0.499249458313
1505429687252102447,9561,1505429687251877871,0.826523303986,0.266324162483,0.495913982391
1505429687253501541,9562,1505429687253331106,0.826523303986,0.266324162483,0.495913982391
1505429687258540277,9563,1505429687258292782,0.822078824043,0.2342235744,0.518965959549
1505429687263410656,9564,1505429687263181095,0.822078824043,0.2342235744,0.518965959549
1505429687268181053,9565,1505429687268043762,0.810159146786,0.245362490416,0.532390296459
1505429687279970721,9566,1505429687279721579,0.810159146786,0.245362490416,0.532390296459
1505429687280008856,9567,1505429687279752972,0.828996598721,0.248230621219,0.501144826412
1505429687283471968,9568,1505429687283143465,0.828996598721,0.248230621219,0.501144826412
1505429687288428647,9569,1505429687288193337,0.815373897552,0.253364771605,0.520549416542
1505429687293483752,9570,1505429687293240968,0.815373897552,0.253364771605,0.520549416542
1505429687303932282,9571,1505429687303682588,0.828482031822,0.239339262247,0.506294608116
1505429687308959811,9572,1505429687308729511,0.828482031822,0.239339262247,0.506294608116
1505429687320817734,9573,1505429687320316885,0.820919930935,0.242005303502,0.517227053642
1505429687320820609,9574,1505429687320353462,0.820919930935,0.242005303502,0.517227053642
1505429687320843762,9575,1505429687320364954,0.828038454056,0.24517339468,0.504224538803
1505429687323539965,9576,1505429687323428328,0.828038454056,0.24517339468,0.504224538803
1505429687328545231,9577,1505429687328395329,0.8199172616,0.276429235935,0.501320838928
1505429687333535490,9578,1505429687333362887,0.8199172616,0.276429235935,0.501320838928
1505429687341802806,9579,1505429687341489169,0.81619900465,0.256519675255,0.517703354359
1505429687347723188,9580,1505429687347526995,0.81619900465,0.256519675255,0.517703354359
1505429687349832202,9581,1505429687349618516,0.817249059677,0.244712993503,0.521746575832
1505429687357598072,9582,1505429687357073482,0.817249059677,0.244712993503,0.521746575832
1505429687359754371,9583,1505429687359005198,0.814147233963,0.246570304036,0.525706470013
1505429687364196697,9584,1505429687363705757,0.814147233963,0.246570304036,0.525706470013
1505429687376919941,9585,1505429687376556388,0.815373897552,0.253364771605,0.520549416542
1505429687379847598,9586,1505429687379510592,0.815373897552,0.253364771605,0.520549416542
1505429687379987604,9587,1505429687379563818,0.810896337032,0.258012473583,0.525239646435
1505429687384227641,9588,1505429687383850286,0.810896337032,0.258012473583,0.525239646435
1505429687388969988,9589,1505429687388759963,0.813914716244,0.274353265762,0.512126088142
1505429687396954926,9590,1505429687396344217,0.813914716244,0.274353265762,0.512126088142
1505429687407086901,9591,1505429687406537028,0.827039599419,0.256989687681,0.499961793423
1505429687407730606,9592,1505429687407621625,0.827039599419,0.256989687681,0.499961793423
1505429687409447622,9593,1505429687409346630,0.822085618973,0.248974502087,0.512041926384
1505429687414045792,9594,1505429687413823592,0.822085618973,0.248974502087,0.512041926384
1505429687421163313,9595,1505429687420986505,0.822085618973,0.248974502087,0.512041926384
1505429687424154813,9596,1505429687423924927,0.822085618973,0.248974502087,0.512041926384
1505429687429101736,9597,1505429687428893706,0.808773338795,0.238424494863,0.537623882294
1505429687437881206,9598,1505429687437658619,0.808773338795,0.238424494863,0.537623882294
1505429687439280232,9599,1505429687439121185,0.836276710033,0.237578615546,0.494163513184
1505429687445992281,9600,1505429687445898330,0.836276710033,0.237578615546,0.494163513184
1505429687449190412,9601,1505429687448962216,0.830278098583,0.230632811785,0.507392168045
1505429687455435060,9602,1505429687455253913,0.830278098583,0.230632811785,0.507392168045
1505429687463175905,9603,1505429687462986189,0.822784602642,0.246835380793,0.511954843998
1505429687469195440,9604,1505429687469022533,0.822784602642,0.246835380793,0.511954843998
1505429687469627352,9605,1505429687469457249,0.813617229462,0.252501904964,0.52370762825
1505429687474424943,9606,1505429687474141118,0.813617229462,0.252501904964,0.52370762825
1505429687479758518,9607,1505429687479450425,0.822085618973,0.248974502087,0.512041926384
1505429687484404188,9608,1505429687484233509,0.822085618973,0.248974502087,0.512041926384
1505429687489520909,9609,1505429687489328477,0.813617229462,0.252501904964,0.52370762825
1505429687494148622,9610,1505429687493933043,0.813617229462,0.252501904964,0.52370762825
1505429687502652924,9611,1505429687502484530,0.823579967022,0.268357515335,0.499700188637
1505429687510838093,9612,1505429687510517240,0.823579967022,0.268357515335,0.499700188637
1505429687511611279,9613,1505429687511389349,0.815373897552,0.253364771605,0.520549416542
1505429687514496578,9614,1505429687514224222,0.815373897552,0.253364771605,0.520549416542
1505429687519305100,9615,1505429687519024514,0.817249059677,0.244712993503,0.521746575832
1505429687524512955,9616,1505429687524346731,0.817249059677,0.244712993503,0.521746575832
1505429687530755788,9617,1505429687530580476,0.823024392128,0.237142622471,0.516133964062
1505429687543551576,9618,1505429687542922338,0.823024392128,0.237142622471,0.516133964062
1505429687543559217,9619,1505429687542968371,0.810298085213,0.263925641775,0.52322101593
1505429687544244831,9620,1505429687544068651,0.810298085213,0.263925641775,0.52322101593
1505429687549843988,9621,1505429687549526138,0.82755792141,0.251056909561,0.502113819122
1505429687554748785,9622,1505429687554499415,0.82755792141,0.251056909561,0.502113819122
1505429687561031119,9623,1505429687560662716,0.81674271822,0.250591516495,0.519745349884
1505429687568307478,9624,1505429687568059624,0.81674271822,0.250591516495,0.519745349884
1505429687570431898,9625,1505429687570271677,0.834827244282,0.220174223185,0.504565954208
1505429687577266550,9626,1505429687576983743,0.834827244282,0.220174223185,0.504565954208
1505429687582124845,9627,1505429687581885295,0.81283390522,0.239621549845,0.530926167965
1505429687584892128,9628,1505429687584693952,0.81283390522,0.239621549845,0.530926167965
1505429687590064567,9629,1505429687589830686,0.818123281002,0.266474455595,0.509573936462
1505429687595012944,9630,1505429687594819092,0.818123281002,0.266474455595,0.509573936462
1505429687600117564,9631,1505429687599942498,0.82942456007,0.260942578316,0.493927001953
1505429687609164320,9632,1505429687608998931,0.82942456007,0.260942578316,0.493927001953
1505429687615337064,9633,1505429687615154201,0.811490893364,0.242514520884,0.531666457653
1505429687617775905,9634,1505429687617534393,0.811490893364,0.242514520884,0.531666457653
1505429687619873681,9635,1505429687619620590,0.833767533302,0.256185561419,0.489081501961
1505429687625593462,9636,1505429687625392948,0.833767533302,0.256185561419,0.489081501961
1505429687630061015,9637,1505429687629862480,0.821179926395,0.264447778463,0.505698382854
1505429687642407449,9638,1505429687642098013,0.821179926395,0.264447778463,0.505698382854
1505429687646668732,9639,1505429687646279809,0.814016819,0.256095170975,0.521336615086
1505429687646674490,9640,1505429687646305758,0.814016819,0.256095170975,0.521336615086
1505429687650224951,9641,1505429687650012011,0.807081758976,0.265917122364,0.527168989182
1505429687655434266,9642,1505429687655046991,0.807081758976,0.265917122364,0.527168989182
1505429687660362693,9643,1505429687660057625,0.822078824043,0.2342235744,0.518965959549
1505429687669065477,9644,1505429687668860536,0.822078824043,0.2342235744,0.518965959549
1505429687670381577,9645,1505429687670189687,0.833342134953,0.243448257446,0.49625992775
1505429687675285681,9646,1505429687675099165,0.833342134953,0.243448257446,0.49625992775
1505429687680384897,9647,1505429687680147692,0.836169838905,0.241560176015,0.492411136627
1505429687686517738,9648,1505429687686299066,0.836169838905,0.241560176015,0.492411136627
1505429687690322997,9649,1505429687690089525,0.818123281002,0.247774481773,0.518923938274
1505429687702768181,9650,1505429687702540220,0.818123281002,0.247774481773,0.518923938274
1505429687711769325,9651,1505429687711472860,0.823685765266,0.249882206321,0.509019315243
1505429687711831559,9652,1505429687711507541,0.823685765266,0.249882206321,0.509019315243
1505429687712048707,9653,1505429687711575897,0.823166787624,0.255786299706,0.506921887398
1505429687717965079,9654,1505429687717656141,0.823166787624,0.255786299706,0.506921887398
1505429687720551224,9655,1505429687720427319,0.824167490005,0.262444406748,0.501867353916
1505429687728854858,9656,1505429687728688021,0.824167490005,0.262444406748,0.501867353916
1505429687738647435,9657,1505429687738204368,0.826967358589,0.238278731704,0.509262382984
1505429687739759372,9658,1505429687739545143,0.826967358589,0.238278731704,0.509262382984
1505429687740941018,9659,1505429687740703274,0.833723843098,0.241460993886,0.49658960104
1505429687745797646,9660,1505429687745547500,0.833723843098,0.241460993886,0.49658960104
1505429687750640326,9661,1505429687750473711,0.82509636879,0.24706274271,0.508110165596
1505429687755610724,9662,1505429687755347923,0.82509636879,0.24706274271,0.508110165596
1505429687760858844,9663,1505429687760566379,0.82539576292,0.237182691693,0.512314617634
1505429687768167186,9664,1505429687768011278,0.82539576292,0.237182691693,0.512314617634
1505429687771749221,9665,1505429687771528737,0.828996598721,0.248230621219,0.501144826412
1505429687775856601,9666,1505429687775614309,0.828996598721,0.248230621219,0.501144826412
1505429687787848841,9667,1505429687787569807,0.837049245834,0.248355284333,0.487512201071
1505429687788889132,9668,1505429687788539787,0.837049245834,0.248355284333,0.487512201071
1505429687790720772,9669,1505429687790561135,0.826627910137,0.24798835814,0.505161464214
1505429687796815567,9670,1505429687796057945,0.826627910137,0.24798835814,0.505161464214
1505429687839710446,9671,1505429687839522205,0.828996598721,0.248230621219,0.501144826412
1505429687842201798,9672,1505429687842003355,0.828996598721,0.248230621219,0.501144826412
1505429687848208777,9673,1505429687848026855,0.828778505325,0.22943584621,0.510377705097
1505429687848532740,9674,1505429687848110895,0.828778505325,0.22943584621,0.510377705097
1505429687851171328,9675,1505429687850965661,0.810760378838,0.285875052214,0.510825872421
1505429687856447141,9676,1505429687856087960,0.810760378838,0.285875052214,0.510825872421
1505429687864111149,9677,1505429687863891983,0.819797873497,0.248702719808,0.515827894211
1505429687868544085,9678,1505429687868329026,0.819797873497,0.248702719808,0.515827894211
1505429687873568046,9679,1505429687873364217,0.821179926395,0.264447778463,0.505698382854
1505429687876909633,9680,1505429687876194615,0.821179926395,0.264447778463,0.505698382854
1505429687881426603,9681,1505429687881214014,0.837019383907,0.22571310401,0.498449742794
1505429687886117434,9682,1505429687885942597,0.837019383907,0.22571310401,0.498449742794
1505429687892694765,9683,1505429687892524753,0.820350408554,0.261228889227,0.508708894253
1505429687904490504,9684,1505429687904104319,0.820350408554,0.261228889227,0.508708894253
1505429687905521198,9685,1505429687905322623,0.814443588257,0.255697399378,0.520865082741
1505429687906488718,9686,1505429687906301000,0.814443588257,0.255697399378,0.520865082741
1505429687911630853,9687,1505429687911381047,0.813805818558,0.265273720026,0.517058968544
1505429687916407618,9688,1505429687916239841,0.813805818558,0.265273720026,0.517058968544
1505429687922821425,9689,1505429687922594862,0.824412465096,0.234208092093,0.515257775784
1505429687929309975,9690,1505429687929012364,0.824412465096,0.234208092093,0.515257775784
1505429687938923872,9691,1505429687938666559,0.82247531414,0.228465378284,0.520901024342
1505429687938926775,9692,1505429687938699584,0.82247531414,0.228465378284,0.520901024342
1505429687941689660,9693,1505429687941534531,0.822287023067,0.252658009529,0.509909808636
1505429687946914394,9694,1505429687946665913,0.822287023067,0.252658009529,0.509909808636
1505429687951622181,9695,1505429687951435642,0.826518833637,0.24419875443,0.507182002068
1505429687957064142,9696,1505429687956834452,0.826518833637,0.24419875443,0.507182002068
1505429687961917048,9697,1505429687961712703,0.820675611496,0.251798182726,0.512922227383
1505429687970022580,9698,1505429687969800426,0.820675611496,0.251798182726,0.512922227383
1505429687971970014,9699,1505429687971754438,0.821559369564,0.254966706038,0.509933412075
1505429687976943424,9700,1505429687976774250,0.821559369564,0.254966706038,0.509933412075
1505429687981979018,9701,1505429687981744526,0.825561761856,0.241175338626,0.510178625584
1505429687986909045,9702,1505429687986651668,0.825561761856,0.241175338626,0.510178625584
1505429687993392291,9703,1505429687993191695,0.819797873497,0.248702719808,0.515827894211
1505429688004253975,9704,1505429688004017952,0.819797873497,0.248702719808,0.515827894211
1505429688009117606,9705,1505429688008883577,0.811457157135,0.270485728979,0.518048942089
1505429688011193124,9706,1505429688010890263,0.811457157135,0.270485728979,0.518048942089
1505429688012241167,9707,1505429688012072896,0.825704693794,0.244989305735,0.508125960827
1505429688018003659,9708,1505429688017685788,0.825704693794,0.244989305735,0.508125960827
1505429688025697849,9709,1505429688025480961,0.834156215191,0.23171004653,0.500493705273
1505429688027889576,9710,1505429688027731910,0.834156215191,0.23171004653,0.500493705273
1505429688031964721,9711,1505429688031790192,0.807705104351,0.259951084852,0.52918612957
1505429688039190080,9712,1505429688038964325,0.807705104351,0.259951084852,0.52918612957
1505429688043361134,9713,1505429688043162200,0.823764026165,0.236049339175,0.515454649925
1505429688050183112,9714,1505429688050013736,0.823764026165,0.236049339175,0.515454649925
1505429688052300294,9715,1505429688052164193,0.811667442322,0.261226326227,0.522452652454
1505429688057506334,9716,1505429688057190420,0.811667442322,0.261226326227,0.522452652454
1505429688063546501,9717,1505429688063321809,0.840099453926,0.218147367239,0.496633380651
1505429688069129026,9718,1505429688068967960,0.840099453926,0.218147367239,0.496633380651
1505429688073153164,9719,1505429688072991193,0.832014739513,0.221870601177,0.50845348835
1505429688077351699,9720,1505429688077126901,0.832014739513,0.221870601177,0.50845348835
1505429688082331878,9721,1505429688082076141,0.827614784241,0.254650712013,0.500206708908
1505429688088040490,9722,1505429688087848814,0.827614784241,0.254650712013,0.500206708908
1505429688104604023,9723,1505429688104380138,0.824593424797,0.253000259399,0.506000518799
1505429688107197236,9724,1505429688106769939,0.824593424797,0.253000259399,0.506000518799
1505429688107201337,9725,1505429688106790276,0.827755093575,0.226592168212,0.513300657272
1505429688107900738,9726,1505429688107808139,0.827755093575,0.226592168212,0.513300657272
1505429688112846454,9727,1505429688112637522,0.828494489193,0.254197180271,0.498979628086
1505429688118095009,9728,1505429688117400688,0.828494489193,0.254197180271,0.498979628086
1505429688124362237,9729,1505429688124161079,0.822078824043,0.2342235744,0.518965959549
1505429688127436806,9730,1505429688127314228,0.822078824043,0.2342235744,0.518965959549
1505429688137027003,9731,1505429688136453004,0.814995706081,0.249680772424,0.522916316986
1505429688144837296,9732,1505429688144341623,0.814995706081,0.249680772424,0.522916316986
1505429688145057277,9733,1505429688144696658,0.828197658062,0.210558727384,0.519378185272
1505429688147651945,9734,1505429688147374091,0.828197658062,0.210558727384,0.519378185272
1505429688156862107,9735,1505429688156247384,0.830894351006,0.258187502623,0.492903441191
1505429688157796600,9736,1505429688157593063,0.830894351006,0.258187502623,0.492903441191
1505429688162651459,9737,1505429688162457335,0.816057026386,0.275127798319,0.508286952972
1505429688170219514,9738,1505429688170073380,0.816057026386,0.275127798319,0.508286952972
1505429688172833181,9739,1505429688172678406,0.817595541477,0.253736555576,0.516870737076
1505429688177855538,9740,1505429688177504897,0.817595541477,0.253736555576,0.516870737076
1505429688182715644,9741,1505429688182541642,0.834357500076,0.246514722705,0.49302944541
1505429688189146860,9742,1505429688188987393,0.834357500076,0.246514722705,0.49302944541
1505429688201561348,9743,1505429688201245545,0.816381931305,0.241722032428,0.52449119091
1505429688210167060,9744,1505429688209642203,0.816381931305,0.241722032428,0.52449119091
1505429688210173927,9745,1505429688209682674,0.822085618973,0.248974502087,0.512041926384
1505429688211570064,9746,1505429688211349817,0.822085618973,0.248974502087,0.512041926384
1505429688213652611,9747,1505429688213048736,0.83130389452,0.233512327075,0.504386603832
1505429688222978404,9748,1505429688222716116,0.83130389452,0.233512327075,0.504386603832
1505429688227903421,9749,1505429688227751849,0.822971820831,0.250469684601,0.50988471508
1505429688229093221,9750,1505429688228946221,0.822971820831,0.250469684601,0.50988471508
1505429688241233853,9751,1505429688240987852,0.838932454586,0.239694982767,0.488608986139
1505429688241236663,9752,1505429688241029904,0.838932454586,0.239694982767,0.488608986139
1505429688243376758,9753,1505429688243127701,0.818123281002,0.247774481773,0.518923938274
1505429688248098566,9754,1505429688247934821,0.818123281002,0.247774481773,0.518923938274
1505429688253360110,9755,1505429688253214704,0.834170103073,0.227500930429,0.502397894859
1505429688258189322,9756,1505429688257955848,0.834170103073,0.227500930429,0.502397894859
1505429688263310510,9757,1505429688263131714,0.781640470028,0.280981868505,0.556854963303
1505429688268186560,9758,1505429688268041586,0.781640470028,0.280981868505,0.556854963303
1505429688273579628,9759,1505429688273384542,0.748341321945,0.322133690119,0.579840600491
1505429688278312136,9760,1505429688278086416,0.748341321945,0.322133690119,0.579840600491
1505429688285100409,9761,1505429688284902450,0.784855723381,0.280997723341,0.552305877209
1505429688292369708,9762,1505429688292129409,0.784855723381,0.280997723341,0.552305877209
1505429688293386745,9763,1505429688293255979,0.798086166382,0.25925090909,0.543918609619
1505429688302752752,9764,1505429688302553749,0.798086166382,0.25925090909,0.543918609619
1505429688304105722,9765,1505429688303937076,0.718300938606,0.348587244749,0.602105200291
1505429688308268760,9766,1505429688308129441,0.718300938606,0.348587244749,0.602105200291
1505429688319170238,9767,1505429688318974171,0.736037909985,0.311001926661,0.601270377636
1505429688321301075,9768,1505429688321106294,0.736037909985,0.311001926661,0.601270377636
1505429688325085642,9769,1505429688324917898,0.778038680553,0.287195473909,0.558725774288
1505429688328513251,9770,1505429688328327789,0.778038680553,0.287195473909,0.558725774288
1505429688339165067,9771,1505429688338838317,0.738542675972,0.293393671513,0.607021391392
1505429688339168170,9772,1505429688338870231,0.738542675972,0.293393671513,0.607021391392
1505429688343590461,9773,1505429688343422152,0.819975554943,0.207463696599,0.533478081226
1505429688349335913,9774,1505429688349167904,0.819975554943,0.207463696599,0.533478081226
1505429688353879838,9775,1505429688353675371,0.832731425762,0.230530172586,0.503402590752
1505429688358814186,9776,1505429688358436172,0.832731425762,0.230530172586,0.503402590752
1505429688368918344,9777,1505429688368646165,0.813115596771,0.243934676051,0.528525173664
1505429688369037532,9778,1505429688368669072,0.813115596771,0.243934676051,0.528525173664
1505429688375330401,9779,1505429688375104243,0.717257857323,0.350775718689,0.602077722549
1505429688381894037,9780,1505429688381638700,0.717257857323,0.350775718689,0.602077722549
1505429688384548783,9781,1505429688384380093,0.814886152744,0.197694271803,0.544864714146
1505429688391493514,9782,1505429688391283575,0.814886152744,0.197694271803,0.544864714146
1505429688393837514,9783,1505429688393655221,0.817342042923,0.278973013163,0.504109144211
1505429688408199176,9784,1505429688407769958,0.817342042923,0.278973013163,0.504109144211
1505429688408217595,9785,1505429688407808318,0.747871637344,0.358978390694,0.558410823345
1505429688416409328,9786,1505429688416114666,0.747871637344,0.358978390694,0.558410823345
1505429688416414616,9787,1505429688416157163,0.829088509083,0.179802328348,0.529417932034
1505429688419669877,9788,1505429688419458715,0.829088509083,0.179802328348,0.529417932034
1505429688424531083,9789,1505429688424294298,0.726273596287,0.396617501974,0.561445534229
1505429688428996420,9790,1505429688428770828,0.726273596287,0.396617501974,0.561445534229
1505429688437820135,9791,1505429688437599863,0.768915295601,0.239979922771,0.592603504658
1505429688440040637,9792,1505429688439901206,0.768915295601,0.239979922771,0.592603504658
1505429688447896036,9793,1505429688447631260,0.829212605953,0.269743859768,0.489535152912
1505429688449871238,9794,1505429688449685405,0.829212605953,0.269743859768,0.489535152912
1505429688456951830,9795,1505429688456287915,0.779649376869,0.243007600307,0.577143073082
1505429688458976483,9796,1505429688458842604,0.779649376869,0.243007600307,0.577143073082
1505429688469303836,9797,1505429688469131341,0.75618827343,0.362970381975,0.544455587864
1505429688469501269,9798,1505429688469162914,0.75618827343,0.362970381975,0.544455587864
1505429688475164870,9799,1505429688474858380,0.795936822891,0.200204953551,0.571316599846
1505429688480704410,9800,1505429688480492883,0.795936822891,0.200204953551,0.571316599846
1505429688486875869,9801,1505429688486280912,0.748951792717,0.387042194605,0.537837862968
1505429688489355784,9802,1505429688489139704,0.748951792717,0.387042194605,0.537837862968
1505429688494510863,9803,1505429688494229586,0.846299529076,0.228044778109,0.481427878141
1505429688499885962,9804,1505429688499586203,0.846299529076,0.228044778109,0.481427878141
1505429688508220057,9805,1505429688507988049,0.753691613674,0.234592750669,0.613934218884
1505429688513315590,9806,1505429688513137254,0.753691613674,0.234592750669,0.613934218884
1505429688516297420,9807,1505429688515828950,0.752488136292,0.33732226491,0.565663516521
1505429688522332350,9808,1505429688521927238,0.752488136292,0.33732226491,0.565663516521
1505429688524673234,9809,1505429688524461374,0.813100516796,0.233054295182,0.533435344696
1505429688532361487,9810,1505429688532095800,0.813100516796,0.233054295182,0.533435344696
1505429688534451390,9811,1505429688534313554,0.765277445316,0.245088860393,0.595215797424
1505429688539459035,9812,1505429688539103591,0.765277445316,0.245088860393,0.595215797424
1505429688546641030,9813,1505429688546402355,0.741011083126,0.285004258156,0.60800909996
1505429688551409260,9814,1505429688551196994,0.741011083126,0.285004258156,0.60800909996
1505429688554657120,9815,1505429688554442417,0.750546395779,0.36771735549,0.549057424068
1505429688559705272,9816,1505429688559539448,0.750546395779,0.36771735549,0.549057424068
1505429688565824059,9817,1505429688565600937,0.816851437092,0.293639391661,0.496517539024
1505429688574393371,9818,1505429688574248436,0.816851437092,0.293639391661,0.496517539024
1505429688580349487,9819,1505429688580114964,0.819544494152,0.224461242557,0.527222931385
1505429688581204057,9820,1505429688581076436,0.819544494152,0.224461242557,0.527222931385
1505429688584846301,9821,1505429688584691025,0.780380189419,0.253499299288,0.571616053581
1505429688589923452,9822,1505429688589721999,0.780380189419,0.253499299288,0.571616053581
1505429688595050044,9823,1505429688594814977,0.758849799633,0.252949923277,0.600136101246
1505429688604756060,9824,1505429688604525887,0.758849799633,0.252949923277,0.600136101246
1505429688606517250,9825,1505429688606327255,0.756568789482,0.232790395617,0.61107480526
1505429688609935976,9826,1505429688609762473,0.756568789482,0.232790395617,0.61107480526
1505429688619540831,9827,1505429688619337502,0.761554121971,0.250638067722,0.597675383091
1505429688625761837,9828,1505429688625105853,0.761554121971,0.250638067722,0.597675383091
1505429688626525681,9829,1505429688626365350,0.751557350159,0.247407078743,0.611515581608
1505429688635678551,9830,1505429688635394179,0.751557350159,0.247407078743,0.611515581608
1505429688635981125,9831,1505429688635435249,0.752790749073,0.247753918171,0.609855771065
1505429688643373180,9832,1505429688643075174,0.752790749073,0.247753918171,0.609855771065
1505429688645205363,9833,1505429688645059083,0.750442564487,0.278466105461,0.599410116673
1505429688650076552,9834,1505429688649897308,0.750442564487,0.278466105461,0.599410116673
1505429688658836557,9835,1505429688658519480,0.765537142754,0.261764317751,0.587734997272
1505429688659985170,9836,1505429688659849266,0.765537142754,0.261764317751,0.587734997272
1505429688671029278,9837,1505429688670834178,0.765836060047,0.281630039215,0.578082680702
1505429688671032142,9838,1505429688670855170,0.765836060047,0.281630039215,0.578082680702
1505429688676790617,9839,1505429688676586749,0.794349730015,0.281866043806,0.538107872009
1505429688683045991,9840,1505429688682745309,0.794349730015,0.281866043806,0.538107872009
1505429688685223460,9841,1505429688685078512,0.809003829956,0.283676683903,0.514820635319
1505429688691411015,9842,1505429688691229225,0.809003829956,0.283676683903,0.514820635319
1505429688695340299,9843,1505429688695117730,0.78100758791,0.297286748886,0.549224674702
1505429688703218786,9844,1505429688702966136,0.78100758791,0.297286748886,0.549224674702
1505429688712459948,9845,1505429688712214943,0.763127684593,0.302371352911,0.571145892143
1505429688717098667,9846,1505429688716448812,0.763127684593,0.302371352911,0.571145892143
1505429688719185632,9847,1505429688718862630,0.772349596024,0.274059534073,0.573033571243
1505429688720501825,9848,1505429688720165938,0.772349596024,0.274059534073,0.573033571243
1505429688725320369,9849,1505429688725102087,0.801325380802,0.297347158194,0.519097566605
1505429688736210430,9850,1505429688735695838,0.801325380802,0.297347158194,0.519097566605
1505429688736216860,9851,1505429688735741042,0.810173749924,0.290831595659,0.508955299854
1505429688740794251,9852,1505429688740530177,0.810173749924,0.290831595659,0.508955299854
1505429688746760389,9853,1505429688746582063,0.770767569542,0.256922513247,0.583016514778
1505429688752205656,9854,1505429688752055321,0.770767569542,0.256922513247,0.583016514778
1505429688755565618,9855,1505429688755356611,0.806720912457,0.282609254122,0.518973350525
1505429688760890060,9856,1505429688760300097,0.806720912457,0.282609254122,0.518973350525
1505429688768014260,9857,1505429688767778814,0.770740866661,0.273173987865,0.575616598129
1505429688774083426,9858,1505429688773899482,0.770740866661,0.273173987865,0.575616598129
1505429688775872658,9859,1505429688775673396,0.773888349533,0.244648575783,0.584160864353
1505429688782150141,9860,1505429688781791073,0.773888349533,0.244648575783,0.584160864353
1505429688788313921,9861,1505429688788101915,0.796805202961,0.272200524807,0.539451956749
1505429688791452329,9862,1505429688791228632,0.796805202961,0.272200524807,0.539451956749
1505429688795834737,9863,1505429688795490653,0.791253626347,0.256900548935,0.554905176163
1505429688804104922,9864,1505429688803779638,0.791253626347,0.256900548935,0.554905176163
1505429688805991469,9865,1505429688805806121,0.78195732832,0.290727734566,0.551380157471
1505429688817417392,9866,1505429688817128336,0.78195732832,0.290727734566,0.551380157471
1505429688821608707,9867,1505429688821230446,0.76575422287,0.26470515132,0.586132824421
1505429688821973366,9868,1505429688821270394,0.76575422287,0.26470515132,0.586132824421
1505429688825991461,9869,1505429688825859980,0.760628283024,0.303318023682,0.573971033096
1505429688830652398,9870,1505429688830477982,0.760628283024,0.303318023682,0.573971033096
1505429688839089078,9871,1505429688838928842,0.801572024822,0.287743806839,0.524104773998
1505429688841011275,9872,1505429688840868698,0.801572024822,0.287743806839,0.524104773998
1505429688846086969,9873,1505429688845790825,0.798371136189,0.193394243717,0.570265114307
1505429688850919555,9874,1505429688850749499,0.798371136189,0.193394243717,0.570265114307
1505429688856755362,9875,1505429688855944972,0.762443721294,0.321028918028,0.561800658703
1505429688860983129,9876,1505429688860768609,0.762443721294,0.321028918028,0.561800658703
1505429688869146972,9877,1505429688868867096,0.769526958466,0.322704851627,0.551080584526
1505429688872699457,9878,1505429688872480530,0.769526958466,0.322704851627,0.551080584526
1505429688880360822,9879,1505429688880012479,0.771884381771,0.308753758669,0.555756747723
1505429688881847233,9880,1505429688881635999,0.771884381771,0.308753758669,0.555756747723
1505429688886114854,9881,1505429688885963653,0.789920985699,0.249974995852,0.559943974018
1505429688891279526,9882,1505429688891134706,0.789920985699,0.249974995852,0.559943974018
1505429688897021305,9883,1505429688895899118,0.798377335072,0.233671411872,0.554969608784
1505429688902506894,9884,1505429688902295137,0.798377335072,0.233671411872,0.554969608784
1505429688918187568,9885,1505429688917646538,0.793668568134,0.257815897465,0.551018297672
1505429688918553081,9886,1505429688918401619,0.793668568134,0.257815897465,0.551018297672
1505429688920065829,9887,1505429688919857324,0.78909021616,0.286941885948,0.543139994144
1505429688921587613,9888,1505429688921405184,0.78909021616,0.286941885948,0.543139994144
1505429688926502784,9889,1505429688926302470,0.768619537354,0.279960751534,0.575192093849
1505429688935881816,9890,1505429688935650935,0.768619537354,0.279960751534,0.575192093849
1505429688937347241,9891,1505429688937023689,0.772737085819,0.277781307697,0.570714354515
1505429688942573663,9892,1505429688942342980,0.772737085819,0.277781307697,0.570714354515
1505429688946858105,9893,1505429688946536501,0.80215793848,0.241139501333,0.546254813671
1505429688951575253,9894,1505429688951299698,0.80215793848,0.241139501333,0.546254813671
1505429688956564005,9895,1505429688956299447,0.797604203224,0.275536000729,0.536570072174
1505429688962712626,9896,1505429688962509964,0.797604203224,0.275536000729,0.536570072174
1505429688973864015,9897,1505429688973698584,0.790812253952,0.27938875556,0.544571340084
1505429688974952563,9898,1505429688974817594,0.790812253952,0.27938875556,0.544571340084
1505429688976679166,9899,1505429688976390252,0.788686215878,0.292657136917,0.5406717062
1505429688981685975,9900,1505429688981404999,0.788686215878,0.292657136917,0.5406717062
1505429688986783418,9901,1505429688986615404,0.76304513216,0.305218070745,0.569740355015
1505429688991685742,9902,1505429688991446640,0.76304513216,0.305218070745,0.569740355015
1505429688997021672,9903,1505429688996797731,0.779365539551,0.269976317883,0.565422058105
1505429689007694668,9904,1505429689007395901,0.779365539551,0.269976317883,0.565422058105
1505429689007714212,9905,1505429689007424516,0.770759522915,0.253471255302,0.584535717964
1505429689021024483,9906,1505429689020734564,0.770759522915,0.253471255302,0.584535717964
1505429689021068430,9907,1505429689020777832,0.78988134861,0.259896427393,0.555464923382
1505429689021715336,9908,1505429689021541377,0.78988134861,0.259896427393,0.555464923382
1505429689027031948,9909,1505429689026818805,0.78960609436,0.266492068768,0.552724301815
1505429689037280547,9910,1505429689037049687,0.78960609436,0.266492068768,0.552724301815
1505429689037320194,9911,1505429689037093000,0.778969466686,0.278540611267,0.561802208424
1505429689041892317,9912,1505429689041705140,0.778969466686,0.278540611267,0.561802208424
1505429689046967713,9913,1505429689046765027,0.798206031322,0.269394546747,0.538789093494
1505429689051994419,9914,1505429689051771865,0.798206031322,0.269394546747,0.538789093494
1505429689056946044,9915,1505429689056784774,0.781166255474,0.277188032866,0.559415876865
1505429689061966167,9916,1505429689061819177,0.781166255474,0.277188032866,0.559415876865
1505429689070980563,9917,1505429689070800698,0.758585453033,0.266530007124,0.594566941261
1505429689075604138,9918,1505429689075292402,0.758585453033,0.266530007124,0.594566941261
1505429689077171377,9919,1505429689076882028,0.793910264969,0.267944693565,0.545813262463
1505429689082269906,9920,1505429689081962164,0.793910264969,0.267944693565,0.545813262463
1505429689087032474,9921,1505429689086909588,0.805835366249,0.222469881177,0.548759043217
1505429689092258354,9922,1505429689092128360,0.805835366249,0.222469881177,0.548759043217
1505429689102302363,9923,1505429689102052510,0.777241408825,0.285316467285,0.56079441309
1505429689108952544,9924,1505429689108782793,0.777241408825,0.285316467285,0.56079441309
1505429689109404737,9925,1505429689109163262,0.758335530758,0.295455396175,0.58106225729
1505429689112209580,9926,1505429689112048219,0.758335530758,0.295455396175,0.58106225729
1505429689117890308,9927,1505429689117642144,0.75739967823,0.255948841572,0.600696265697
1505429689122304533,9928,1505429689122097229,0.75739967823,0.255948841572,0.600696265697
1505429689127293068,9929,1505429689127092828,0.765345990658,0.275524556637,0.5816629529
1505429689134663476,9930,1505429689134490011,0.765345990658,0.275524556637,0.5816629529
1505429689137397397,9931,1505429689137187315,0.804499447346,0.251714557409,0.537978172302
1505429689144548989,9932,1505429689144110083,0.804499447346,0.251714557409,0.537978172302
1505429689147645429,9933,1505429689147477685,0.808688819408,0.2630674541,0.526134908199
1505429689152398424,9934,1505429689152254204,0.808688819408,0.2630674541,0.526134908199
1505429689158228280,9935,1505429689158038495,0.779365539551,0.290351867676,0.555234313011
1505429689171695589,9936,1505429689171543937,0.779365539551,0.290351867676,0.555234313011
1505429689171700961,9937,1505429689171587588,0.755314409733,0.278807342052,0.593099236488
1505429689176052455,9938,1505429689175813579,0.755314409733,0.278807342052,0.593099236488
1505429689179878937,9939,1505429689179692191,0.774874746799,0.268420666456,0.572293102741
1505429689182485398,9940,1505429689182326341,0.774874746799,0.268420666456,0.572293102741
1505429689187762805,9941,1505429689187632837,0.798606812954,0.243054240942,0.550592243671
1505429689197567325,9942,1505429689197124630,0.798606812954,0.243054240942,0.550592243671
1505429689198461032,9943,1505429689197923998,0.802491545677,0.270840913057,0.531650662422
1505429689205992660,9944,1505429689205656572,0.802491545677,0.270840913057,0.531650662422
1505429689214387134,9945,1505429689214079549,0.778953492641,0.286453872919,0.557831227779
1505429689214390079,9946,1505429689214115857,0.778953492641,0.286453872919,0.557831227779
1505429689220723076,9947,1505429689220492442,0.79071110487,0.236186429858,0.564793646336
1505429689222709505,9948,1505429689222509183,0.79071110487,0.236186429858,0.564793646336
1505429689228276216,9949,1505429689228080829,0.78875887394,0.245846927166,0.563399195671
1505429689232957009,9950,1505429689232727787,0.78875887394,0.245846927166,0.563399195671
1505429689240084608,9951,1505429689239864855,0.814132630825,0.241772726178,0.527952671051
1505429689243028026,9952,1505429689242749972,0.814132630825,0.241772726178,0.527952671051
1505429689247845316,9953,1505429689247670495,0.797445893288,0.275846064091,0.536646008492
1505429689252877441,9954,1505429689252702395,0.797445893288,0.275846064091,0.536646008492
1505429689258387745,9955,1505429689257829742,0.761936604977,0.287618458271,0.580282866955
1505429689264562560,9956,1505429689264333819,0.761936604977,0.287618458271,0.580282866955
1505429689275806631,9957,1505429689275405614,0.787177622318,0.265735119581,0.556539595127
1505429689277185991,9958,1505429689276806255,0.787177622318,0.265735119581,0.556539595127
1505429689278686118,9959,1505429689278138283,0.803204834461,0.264409035444,0.533806920052
1505429689283402296,9960,1505429689282986511,0.803204834461,0.264409035444,0.533806920052
1505429689288237159,9961,1505429689288006669,0.78960609436,0.266492068768,0.552724301815
1505429689295213772,9962,1505429689294749589,0.78960609436,0.266492068768,0.552724301815
1505429689306391093,9963,1505429689306180555,0.770123362541,0.301805108786,0.561981916428
1505429689306565836,9964,1505429689306227062,0.770123362541,0.301805108786,0.561981916428
1505429689308778537,9965,1505429689308559103,0.770779430866,0.27053847909,0.576808452606
1505429689313308728,9966,1505429689313107660,0.770779430866,0.27053847909,0.576808452606
1505429689319774024,9967,1505429689319550824,0.788203060627,0.288844585419,0.543419480324
1505429689324201088,9968,1505429689324031653,0.788203060627,0.288844585419,0.543419480324
1505429689328535158,9969,1505429689328345768,0.807940661907,0.249727115035,0.533730506897
1505429689335616878,9970,1505429689335330546,0.807940661907,0.249727115035,0.533730506897
1505429689338547003,9971,1505429689338230547,0.770966053009,0.319924682379,0.550690054893
1505429689343452047,9972,1505429689343198918,0.770966053009,0.319924682379,0.550690054893
1505429689349161271,9973,1505429689348926188,0.751898944378,0.314984709024,0.579165399075
1505429689354734670,9974,1505429689354523108,0.751898944378,0.314984709024,0.579165399075
1505429689362015485,9975,1505429689361561702,0.771027445793,0.243482351303,0.588415682316
1505429689364471278,9976,1505429689364202990,0.771027445793,0.243482351303,0.588415682316
1505429689370008578,9977,1505429689369847885,0.797081112862,0.245255738497,0.551825404167
1505429689373540204,9978,1505429689373368313,0.797081112862,0.245255738497,0.551825404167
1505429689378648319,9979,1505429689378433707,0.804889321327,0.234967693686,0.544925093651
1505429689384844391,9980,1505429689384638744,0.804889321327,0.234967693686,0.544925093651
1505429689392710671,9981,1505429689392407509,0.788203060627,0.288844585419,0.543419480324
1505429689393826314,9982,1505429689393675678,0.788203060627,0.288844585419,0.543419480324
1505429689398980373,9983,1505429689398757385,0.779844045639,0.279944032431,0.559888064861
1505429689403722104,9984,1505429689403499487,0.779844045639,0.279944032431,0.559888064861
1505429689410145299,9985,1505429689410008681,0.768705368042,0.26311391592,0.582977890968
1505429689413810796,9986,1505429689413549009,0.768705368042,0.26311391592,0.582977890968
1505429689418797431,9987,1505429689418569656,0.78199660778,0.270691156387,0.561433494091
1505429689427334116,9988,1505429689427136234,0.78199660778,0.270691156387,0.561433494091
1505429689429122673,9989,1505429689428976164,0.798921346664,0.262998968363,0.540884613991
1505429689436881507,9990,1505429689436480068,0.798921346664,0.262998968363,0.540884613991
1505429689438876068,9991,1505429689438704780,0.776469707489,0.319722801447,0.543021261692
1505429689445124681,9992,1505429689444887650,0.776469707489,0.319722801447,0.543021261692
1505429689448899935,9993,1505429689448740050,0.760514676571,0.286427617073,0.582732021809
1505429689453942960,9994,1505429689453687672,0.760514676571,0.286427617073,0.582732021809
1505429689460509334,9995,1505429689460289136,0.784205138683,0.244427576661,0.570331037045
1505429689473151195,9996,1505429689472917263,0.784205138683,0.244427576661,0.570331037045
1505429689474923388,9997,1505429689474623011,0.810202538967,0.250062525272,0.53013253212
1505429689474950308,9998,1505429689474644820,0.810202538967,0.250062525272,0.53013253212
1505429689479235723,9999,1505429689478921680,0.785807132721,0.288460850716,0.547080874443
1505429689484151821,10000,1505429689483925772,0.785807132721,0.288460850716,0.547080874443
1505429689490667309,10001,1505429689490503679,0.77218580246,0.317958861589,0.550119280815
1505429689502968670,10002,1505429689502739459,0.77218580246,0.317958861589,0.550119280815
1505429689502971976,10003,1505429689502773448,0.756915807724,0.321565538645,0.568923652172
1505429689503991156,10004,1505429689503826983,0.756915807724,0.321565538645,0.568923652172
1505429689509602585,10005,1505429689509433211,0.775476634502,0.278376251459,0.566694498062
1505429689514324846,10006,1505429689514059840,0.775476634502,0.278376251459,0.566694498062
1505429689519441053,10007,1505429689519108519,0.788522660732,0.262840896845,0.556009590626
1505429689524559297,10008,1505429689524311039,0.788522660732,0.262840896845,0.556009590626
1505429689535250650,10009,1505429689534877266,0.79517352581,0.275252372026,0.540310204029
1505429689535276563,10010,1505429689534910413,0.79517352581,0.275252372026,0.540310204029
1505429689539404683,10011,1505429689539237356,0.761703252792,0.283771783113,0.582478940487
1505429689544443320,10012,1505429689544270756,0.761703252792,0.283771783113,0.582478940487
1505429689551255291,10013,1505429689551011852,0.75527381897,0.295106977224,0.585212171078
1505429689561156135,10014,1505429689560842739,0.75527381897,0.295106977224,0.585212171078
1505429689561633224,10015,1505429689561325812,0.785406827927,0.258424192667,0.562452673912
1505429689564442595,10016,1505429689564182956,0.785406827927,0.258424192667,0.562452673912
1505429689575210289,10017,1505429689574845408,0.78988134861,0.259896427393,0.555464923382
1505429689575770266,10018,1505429689575542959,0.78988134861,0.259896427393,0.555464923382
1505429689580960995,10019,1505429689580660867,0.787914812565,0.259313732386,0.558521866798
1505429689587843103,10020,1505429689587450501,0.787914812565,0.259313732386,0.558521866798
1505429689590267694,10021,1505429689590048771,0.787582814693,0.314003586769,0.530202805996
1505429689594766511,10022,1505429689594333181,0.787582814693,0.314003586769,0.530202805996
1505429689603616106,10023,1505429689603323565,0.775361657143,0.298216044903,0.556669950485
1505429689604472463,10024,1505429689604315921,0.775361657143,0.298216044903,0.556669950485
1505429689613035992,10025,1505429689612734283,0.783377945423,0.261125981808,0.564032137394
1505429689614525311,10026,1505429689614350399,0.783377945423,0.261125981808,0.564032137394
1505429689620017736,10027,1505429689619779102,0.803000986576,0.243490621448,0.543968439102
1505429689624811132,10028,1505429689624552336,0.803000986576,0.243490621448,0.543968439102
1505429689636576564,10029,1505429689636326338,0.789567649364,0.286218285561,0.542827785015
1505429689636971091,10030,1505429689636374316,0.789567649364,0.286218285561,0.542827785015
1505429689639850684,10031,1505429689639637917,0.770654678345,0.316166013479,0.55329054594
1505429689644789819,10032,1505429689644598524,0.770654678345,0.316166013479,0.55329054594
1505429689649865163,10033,1505429689649655824,0.77053886652,0.287063509226,0.569090843201
1505429689657440994,10034,1505429689657082953,0.77053886652,0.287063509226,0.569090843201
1505429689662867832,10035,1505429689662731594,0.769090533257,0.252990305424,0.586937487125
1505429689669587789,10036,1505429689669268978,0.769090533257,0.252990305424,0.586937487125
1505429689670333462,10037,1505429689670083720,0.803159117699,0.254164278507,0.538828253746
1505429689675084396,10038,1505429689674800492,0.803159117699,0.254164278507,0.538828253746
1505429689680056591,10039,1505429689679868630,0.784892082214,0.294959455729,0.544925093651
1505429689686200963,10040,1505429689686043706,0.784892082214,0.294959455729,0.544925093651
1505429689693475069,10041,1505429689693313422,0.770058572292,0.30305531621,0.56139755249
1505429689696161428,10042,1505429689695980129,0.770058572292,0.30305531621,0.56139755249
1505429689700349731,10043,1505429689700030298,0.778535842896,0.28265312314,0.560347437859
1505429689705793399,10044,1505429689705545270,0.778535842896,0.28265312314,0.560347437859
1505429689710426354,10045,1505429689710166207,0.788522660732,0.262840896845,0.556009590626
1505429689714984857,10046,1505429689714827750,0.788522660732,0.262840896845,0.556009590626
1505429689720569711,10047,1505429689720327693,0.794541835785,0.271552294493,0.543104588985
1505429689725201960,10048,1505429689725035772,0.794541835785,0.271552294493,0.543104588985
1505429689738259639,10049,1505429689737960838,0.771822214127,0.284355551004,0.568711102009
1505429689740361723,10050,1505429689740172028,0.787177622318,0.285790592432,0.546511828899
1505429689746528355,10051,1505429689746364836,0.787177622318,0.285790592432,0.546511828899
1505429689755005032,10052,1505429689754845852,0.784840941429,0.24784450233,0.567977011204
1505429689759275853,10053,1505429689758883808,0.784840941429,0.24784450233,0.567977011204
1505429689760395925,10054,1505429689760212052,0.781166255474,0.277188032866,0.559415876865
1505429689769938447,10055,1505429689769776310,0.781166255474,0.277188032866,0.559415876865
1505429689770847024,10056,1505429689770702170,0.764323651791,0.302651643753,0.56939548254
1505429689775481880,10057,1505429689775334017,0.764323651791,0.302651643753,0.56939548254
1505429689780518475,10058,1505429689780333532,0.777168512344,0.24909247458,0.577894508839
1505429689785896504,10059,1505429689785692836,0.777168512344,0.24909247458,0.577894508839
1505429689794287000,10060,1505429689794068152,0.800073325634,0.290472477674,0.5248888731
1505429689805533842,10061,1505429689805143267,0.800073325634,0.290472477674,0.5248888731
1505429689805628420,10062,1505429689805183047,0.764329254627,0.299926668406,0.570828199387
1505429689806833839,10063,1505429689806515652,0.764329254627,0.299926668406,0.570828199387
1505429689810637674,10064,1505429689810346404,0.790099084377,0.242710188031,0.562881052494
1505429689815912060,10065,1505429689815654082,0.790099084377,0.242710188031,0.562881052494
1505429689824386456,10066,1505429689824099359,0.788841485977,0.272869706154,0.55070066452
1505429689825374268,10067,1505429689825247233,0.788841485977,0.272869706154,0.55070066452
1505429689839068343,10068,1505429689838693896,0.766667485237,0.293288886547,0.571141541004
1505429689839075141,10069,1505429689838725163,0.766667485237,0.293288886547,0.571141541004
1505429689840810690,10070,1505429689840665147,0.777190625668,0.279382258654,0.563844203949
1505429689845682876,10071,1505429689845506562,0.777190625668,0.279382258654,0.563844203949
1505429689852916044,10072,1505429689852768804,0.778306126595,0.302399218082,0.550267398357
1505429689862181213,10073,1505429689861902760,0.778306126595,0.302399218082,0.550267398357
1505429689862204330,10074,1505429689861943794,0.776171326637,0.248374819756,0.579541265965
1505429689867902859,10075,1505429689867753876,0.776171326637,0.248374819756,0.579541265965
1505429689871055294,10076,1505429689870934122,0.770654678345,0.316166013479,0.55329054594
1505429689878218345,10077,1505429689878017071,0.770654678345,0.316166013479,0.55329054594
1505429689882500619,10078,1505429689882294348,0.780169487,0.263433843851,0.567395985126
1505429689889271990,10079,1505429689889136971,0.780169487,0.263433843851,0.567395985126
1505429689891482175,10080,1505429689891349158,0.789163947105,0.296564787626,0.537837862968
1505429689896294739,10081,1505429689895835216,0.789163947105,0.296564787626,0.537837862968
1505429689905191891,10082,1505429689905015434,0.755497038364,0.282668948174,0.591035068035
1505429689906075081,10083,1505429689905800760,0.755497038364,0.282668948174,0.591035068035
1505429689915289184,10084,1505429689914005688,0.78331798315,0.288058876991,0.550849437714
1505429689918081868,10085,1505429689917863419,0.78331798315,0.288058876991,0.550849437714
1505429689921115787,10086,1505429689920969085,0.792300999165,0.260757297277,0.551601946354
1505429689926462875,10087,1505429689926184867,0.792300999165,0.260757297277,0.551601946354
1505429689937521061,10088,1505429689937190799,0.770777523518,0.292700320482,0.565887331963
1505429689939907596,10089,1505429689939707464,0.770777523518,0.292700320482,0.565887331963
1505429689942483814,10090,1505429689942304725,0.801728665829,0.256762772799,0.539725840092
1505429689949373683,10091,1505429689949162307,0.801728665829,0.256762772799,0.539725840092
1505429689951708340,10092,1505429689951571516,0.763902664185,0.294576853514,0.574175238609
1505429689957734899,10093,1505429689957586153,0.763902664185,0.294576853514,0.574175238609
1505429689967985610,10094,1505429689967730512,0.783277571201,0.312287122011,0.537543416023
1505429689967989353,10095,1505429689967764314,0.783277571201,0.312287122011,0.537543416023
1505429689972645722,10096,1505429689972496100,0.767014443874,0.298836797476,0.567789912224
1505429689980152056,10097,1505429689979877123,0.767014443874,0.298836797476,0.567789912224
1505429689985086957,10098,1505429689984854384,0.80394333601,0.267981112003,0.53090596199
1505429689986447675,10099,1505429689986296976,0.80394333601,0.267981112003,0.53090596199
1505429689993637855,10100,1505429689993425871,0.776324510574,0.271960824728,0.568645358086
1505429689996939965,10101,1505429689996381912,0.776324510574,0.271960824728,0.568645358086
1505429690001811444,10102,1505429690001580362,0.753996610641,0.293764919043,0.587529838085
1505429690006545765,10103,1505429690006309276,0.753996610641,0.293764919043,0.587529838085
1505429690011834392,10104,1505429690011628871,0.774351716042,0.304744869471,0.554535746574
1505429690019122348,10105,1505429690018903360,0.774351716042,0.304744869471,0.554535746574
1505429690021640357,10106,1505429690021446176,0.787914812565,0.259313732386,0.558521866798
1505429690027037477,10107,1505429690026807926,0.787914812565,0.259313732386,0.558521866798
1505429690038538988,10108,1505429690038242640,0.777241408825,0.285316467285,0.56079441309
1505429690047787797,10109,1505429690047510396,0.777241408825,0.285316467285,0.56079441309
1505429690048224739,10110,1505429690048030095,0.773734092712,0.32446911931,0.544109761715
1505429690049347785,10111,1505429690049179936,0.773734092712,0.32446911931,0.544109761715
1505429690052759345,10112,1505429690052390122,0.782176196575,0.236711218953,0.576340317726
1505429690057024234,10113,1505429690056763295,0.782176196575,0.236711218953,0.576340317726
1505429690061841377,10114,1505429690061670779,0.761461615562,0.299671977758,0.574780702591
1505429690068226842,10115,1505429690068099884,0.761461615562,0.299671977758,0.574780702591
1505429690073274532,10116,1505429690073042168,0.788686215878,0.292657136917,0.5406717062
1505429690078069279,10117,1505429690077897823,0.788686215878,0.292657136917,0.5406717062
1505429690084828096,10118,1505429690084599670,0.798591077328,0.293153703213,0.525654911995
1505429690087102072,10119,1505429690086813072,0.798591077328,0.293153703213,0.525654911995
1505429690092113525,10120,1505429690091788670,0.784087955952,0.26136264205,0.562934935093
1505429690097168405,10121,1505429690096827253,0.784087955952,0.26136264205,0.562934935093
1505429690103947749,10122,1505429690103686539,0.784266889095,0.242057681084,0.571256160736
1505429690110359329,10123,1505429690110157069,0.784266889095,0.242057681084,0.571256160736
1505429690112456446,10124,1505429690112265103,0.764892280102,0.28807631135,0.5761526227
1505429690119604717,10125,1505429690119410537,0.764892280102,0.28807631135,0.5761526227
1505429690122129879,10126,1505429690121972730,0.774583756924,0.284846931696,0.564696550369
1505429690128088508,10127,1505429690127912186,0.774583756924,0.284846931696,0.564696550369
1505429690132285515,10128,1505429690132104616,0.774307668209,0.299398958683,0.557501494884
1505429690142574285,10129,1505429690142317067,0.774307668209,0.299398958683,0.557501494884
1505429690151315905,10130,1505429690151064814,0.787177622318,0.285790592432,0.546511828899
1505429690152032180,10131,1505429690151859074,0.787177622318,0.285790592432,0.546511828899
1505429690153576475,10132,1505429690153373013,0.782170116901,0.300077825785,0.546043276787
1505429690157709685,10133,1505429690157258538,0.782170116901,0.300077825785,0.546043276787
1505429690162533209,10134,1505429690162214794,0.774583756924,0.284846931696,0.564696550369
1505429690168407546,10135,1505429690168250461,0.774583756924,0.284846931696,0.564696550369
1505429690176369528,10136,1505429690175859295,0.785217821598,0.268627136946,0.557917952538
1505429690178491465,10137,1505429690178119446,0.785217821598,0.268627136946,0.557917952538
1505429690185753812,10138,1505429690185481438,0.782381355762,0.294663101435,0.54868298769
