%time,field.linear.x,field.linear.y,field.linear.z,field.angular.x,field.angular.y,field.angular.z
1505429686807328702,0.0,0.0,-0.401376307011,-2000.0,0.0,-0.105312487892
1505429686811924131,0.0,0.0,-0.401376307011,-2000.0,0.0,-0.105312487892
1505429686816869476,0.0,0.0,-0.401372551918,-2000.0,0.0,-0.105312487892
1505429686822796797,0.0,0.0,-0.401372551918,-2000.0,0.0,-0.105312487892
1505429686829845914,0.0,0.0,-0.401367515326,-2000.0,0.0,-0.105297282028
1505429686836287677,0.0,0.0,-0.401367515326,-2000.0,0.0,-0.105297282028
1505429686837314226,0.0,0.0,-0.401367515326,-2000.0,0.0,-0.105297282028
1505429686841296451,0.0,0.0,-0.40137180686,-2000.0,0.0,-0.105297282028
1505429686846430709,0.0,0.0,-0.40137180686,-2000.0,0.0,-0.105297282028
1505429686852960327,0.0,0.0,-0.40138193965,-2000.0,0.0,-0.105297282028
1505429686860153579,0.0,0.0,-0.401367068291,-2000.0,0.0,-0.105297282028
1505429686861823605,0.0,0.0,-0.401367068291,-2000.0,0.0,-0.105297282028
1505429686870595497,0.0,0.0,-0.401365578175,-2000.0,0.0,-0.105297282028
1505429686871359075,0.0,0.0,-0.401365578175,-2000.0,0.0,-0.105297282028
1505429686877160769,0.0,0.0,-0.401365578175,-2000.0,0.0,-0.105250002717
1505429686881808991,0.0,0.0,-0.401369124651,-2000.0,0.0,-0.105250002717
1505429686886774598,0.0,0.0,-0.401376187801,-2000.0,0.0,-0.105250002717
1505429686891664606,0.0,0.0,-0.401376187801,-2000.0,0.0,-0.105250002717
1505429686897079345,0.0,0.0,-0.401378512383,-2000.0,0.0,-0.105250002717
1505429686902142114,0.0,0.0,-0.401378512383,-2000.0,0.0,-0.105250002717
1505429686906719172,0.0,0.0,-0.401381522417,-2000.0,0.0,-0.105250002717
1505429686913038339,0.0,0.0,-0.401381522417,-2000.0,0.0,-0.105250002717
1505429686921822282,0.0,0.0,-0.401373505592,-2000.0,0.0,-0.105250002717
1505429686921829063,0.0,0.0,-0.401373505592,-2000.0,0.0,-0.105250002717
1505429686927211454,0.0,0.0,-0.401374995708,-2000.0,0.0,-0.105285471519
1505429686933086987,0.0,0.0,-0.401374995708,-2000.0,0.0,-0.105285471519
1505429686940273504,0.0,0.0,-0.401373833418,-2000.0,0.0,-0.105285471519
1505429686942854674,0.0,0.0,-0.401373833418,-2000.0,0.0,-0.105285471519
1505429686949266076,0.0,0.0,-0.401377052069,-2000.0,0.0,-0.105285471519
1505429686952101990,0.0,0.0,-0.401377052069,-2000.0,0.0,-0.105285471519
1505429686957258559,0.0,0.0,-0.401380926371,-2000.0,0.0,-0.105285471519
1505429686962236330,0.0,0.0,-0.401380926371,-2000.0,0.0,-0.105285471519
1505429686972514401,0.0,0.0,-0.401379078627,-2000.0,0.0,-0.105285471519
1505429686973300789,0.0,0.0,-0.401379078627,-2000.0,0.0,-0.105290992425
1505429686980770613,0.0,0.0,-0.401383727789,-2000.0,0.0,-0.105290992425
1505429686982342040,0.0,0.0,-0.401383727789,-2000.0,0.0,-0.105290992425
1505429686987095234,0.0,0.0,-0.401372134686,-2000.0,0.0,-0.105290992425
1505429686994661085,0.0,0.0,-0.401372134686,-2000.0,0.0,-0.105290992425
1505429686997374892,0.0,0.0,-0.401372224092,-2000.0,0.0,-0.105290992425
1505429687003748826,0.0,0.0,-0.401372224092,-2000.0,0.0,-0.105290992425
1505429687011356975,0.0,0.0,-0.401382148266,-2000.0,0.0,-0.105290992425
1505429687012563778,0.0,0.0,-0.401382148266,-2000.0,0.0,-0.105290992425
1505429687020979745,0.0,0.0,-0.40137976408,-2000.0,0.0,-0.105290992425
1505429687022099198,0.0,0.0,-0.40137976408,-2000.0,0.0,-0.105290992425
1505429687027177466,0.0,0.0,-0.401370644569,-2000.0,0.0,-0.105265510881
1505429687032366459,0.0,0.0,-0.401370644569,-2000.0,0.0,-0.105265510881
1505429687037328047,0.0,0.0,-0.40137937665,-2000.0,0.0,-0.105265510881
1505429687043884252,0.0,0.0,-0.40137937665,-2000.0,0.0,-0.105265510881
1505429687048887665,0.0,0.0,-0.401372134686,-2000.0,0.0,-0.105265510881
1505429687056086652,0.0,0.0,-0.401372134686,-2000.0,0.0,-0.105265510881
1505429687059550083,0.0,0.0,-0.401373177767,-2000.0,0.0,-0.105265510881
1505429687062693889,0.0,0.0,-0.401373177767,-2000.0,0.0,-0.105265510881
1505429687075418514,0.0,0.0,-0.401378214359,-2000.0,0.0,-0.10527450152
1505429687077919378,0.0,0.0,-0.401377916336,-2000.0,0.0,-0.10527450152
1505429687086831070,0.0,0.0,-0.401377916336,-2000.0,0.0,-0.10527450152
1505429687087517373,0.0,0.0,-0.401380330324,-2000.0,0.0,-0.10527450152
1505429687092853628,0.0,0.0,-0.401380330324,-2000.0,0.0,-0.10527450152
1505429687097828322,0.0,0.0,-0.401371836662,-2000.0,0.0,-0.10527450152
1505429687108410871,0.0,0.0,-0.401372253895,-2000.0,0.0,-0.10527450152
1505429687110583497,0.0,0.0,-0.401372253895,-2000.0,0.0,-0.10527450152
1505429687117377461,0.0,0.0,-0.401380389929,-2000.0,0.0,-0.10527450152
1505429687118352287,0.0,0.0,-0.401380389929,-2000.0,0.0,-0.10527450152
1505429687122887807,0.0,0.0,-0.401380389929,-2000.0,0.0,-0.10527450152
1505429687127864361,0.0,0.0,-0.401371657848,-2000.0,0.0,-0.105274452795
1505429687136143297,0.0,0.0,-0.401371657848,-2000.0,0.0,-0.105274452795
1505429687138805903,0.0,0.0,-0.401371657848,-2000.0,0.0,-0.105274452795
1505429687143166665,0.0,0.0,-0.401371657848,-2000.0,0.0,-0.105274452795
1505429687150894950,0.0,0.0,-0.401371657848,-2000.0,0.0,-0.105274452795
1505429687154221313,0.0,0.0,-0.401371657848,-2000.0,0.0,-0.105274452795
1505429687161503090,0.0,0.0,-0.401371657848,-2000.0,0.0,-0.105274452795
1505429687163055485,0.0,0.0,-0.401371657848,-2000.0,0.0,-0.105274452795
1505429687169518848,0.0,0.0,-0.401371657848,-2000.0,0.0,-0.105274452795
1505429687179495831,0.0,0.0,-0.401371657848,-2000.0,0.0,-0.105247764313
1505429687179509900,0.0,0.0,-0.401371657848,-2000.0,0.0,-0.105247764313
1505429687184242270,0.0,0.0,-0.401371657848,-2000.0,0.0,-0.105247764313
1505429687188146953,0.0,0.0,-0.401374071836,-2000.0,0.0,-0.105247764313
1505429687193127780,0.0,0.0,-0.401374071836,-2000.0,0.0,-0.105247764313
1505429687201467541,0.0,0.0,-0.40136128664,-2000.0,0.0,-0.105247764313
1505429687202987482,0.0,0.0,-0.40136128664,-2000.0,0.0,-0.105247764313
1505429687208439765,0.0,0.0,-0.401363730431,-2000.0,0.0,-0.105247764313
1505429687217860827,0.0,0.0,-0.401368170977,-2000.0,0.0,-0.105247764313
1505429687226435043,0.0,0.0,-0.401368170977,-2000.0,0.0,-0.105260504197
1505429687226601271,0.0,0.0,-0.401368170977,-2000.0,0.0,-0.105260504197
1505429687228081912,0.0,0.0,-0.401383787394,-2000.0,0.0,-0.105260504197
1505429687233356471,0.0,0.0,-0.401383787394,-2000.0,0.0,-0.105260504197
1505429687239572109,0.0,0.0,-0.401384830475,-2000.0,0.0,-0.105260504197
1505429687244032143,0.0,0.0,-0.401384830475,-2000.0,0.0,-0.105260504197
1505429687252190257,0.0,0.0,-0.401383340359,-2000.0,0.0,-0.105260504197
1505429687253847798,0.0,0.0,-0.401383340359,-2000.0,0.0,-0.105260504197
1505429687258656681,0.0,0.0,-0.401374965906,-2000.0,0.0,-0.105260504197
1505429687263537897,0.0,0.0,-0.401374965906,-2000.0,0.0,-0.105260504197
1505429687268341978,0.0,0.0,-0.401363164186,-2000.0,0.0,-0.105260504197
1505429687280071230,0.0,0.0,-0.401372253895,-2000.0,0.0,-0.105272424162
1505429687283494150,0.0,0.0,-0.401372253895,-2000.0,0.0,-0.105272424162
1505429687288509584,0.0,0.0,-0.40138193965,-2000.0,0.0,-0.105272424162
1505429687293725720,0.0,0.0,-0.40138193965,-2000.0,0.0,-0.105272424162
1505429687304432310,0.0,0.0,-0.401381283998,-2000.0,0.0,-0.105272424162
1505429687309054364,0.0,0.0,-0.40137898922,-2000.0,0.0,-0.105272424162
1505429687320930920,0.0,0.0,-0.401368290186,-2000.0,0.0,-0.105272424162
1505429687320933377,0.0,0.0,-0.401368290186,-2000.0,0.0,-0.105272424162
1505429687321006683,0.0,0.0,-0.401368290186,-2000.0,0.0,-0.105272424162
1505429687323833602,0.0,0.0,-0.401368290186,-2000.0,0.0,-0.10523471957
1505429687328739003,0.0,0.0,-0.401374220848,-2000.0,0.0,-0.10523471957
1505429687333720550,0.0,0.0,-0.401374220848,-2000.0,0.0,-0.10523471957
1505429687341959756,0.0,0.0,-0.40137591958,-2000.0,0.0,-0.10523471957
1505429687347813639,0.0,0.0,-0.401384145021,-2000.0,0.0,-0.10523471957
1505429687349878666,0.0,0.0,-0.401384145021,-2000.0,0.0,-0.10523471957
1505429687357765535,0.0,0.0,-0.401365309954,-2000.0,0.0,-0.10523471957
1505429687359686163,0.0,0.0,-0.401365309954,-2000.0,0.0,-0.10523471957
1505429687364225708,0.0,0.0,-0.401365309954,-2000.0,0.0,-0.10523471957
1505429687377145689,0.0,0.0,-0.401368498802,-2000.0,0.0,-0.105273149741
1505429687380345680,0.0,0.0,-0.401368498802,-2000.0,0.0,-0.105273149741
1505429687384387309,0.0,0.0,-0.401368498802,-2000.0,0.0,-0.105273149741
1505429687389303805,0.0,0.0,-0.401371657848,-2000.0,0.0,-0.105273149741
1505429687397094952,0.0,0.0,-0.401371657848,-2000.0,0.0,-0.105273149741
1505429687407044641,0.0,0.0,-0.401371568441,-2000.0,0.0,-0.105273149741
1505429687407989852,0.0,0.0,-0.401377350092,-2000.0,0.0,-0.105273149741
1505429687409650550,0.0,0.0,-0.401377350092,-2000.0,0.0,-0.105273149741
1505429687414352777,0.0,0.0,-0.401377350092,-2000.0,0.0,-0.105273149741
1505429687421324142,0.0,0.0,-0.401374042034,-2000.0,0.0,-0.105273149741
1505429687424161322,0.0,0.0,-0.401374042034,-2000.0,0.0,-0.105258619363
1505429687429258606,0.0,0.0,-0.401366204023,-2000.0,0.0,-0.105258619363
1505429687438054657,0.0,0.0,-0.401367276907,-2000.0,0.0,-0.105258619363
1505429687439478008,0.0,0.0,-0.401367276907,-2000.0,0.0,-0.105258619363
1505429687446229622,0.0,0.0,-0.401369810104,-2000.0,0.0,-0.105258619363
1505429687449263698,0.0,0.0,-0.401369810104,-2000.0,0.0,-0.105258619363
1505429687455761596,0.0,0.0,-0.401369810104,-2000.0,0.0,-0.105258619363
1505429687463474329,0.0,0.0,-0.401386171579,-2000.0,0.0,-0.105258619363
1505429687469463733,0.0,0.0,-0.401368200779,-2000.0,0.0,-0.105258619363
1505429687469692301,0.0,0.0,-0.401368200779,-2000.0,0.0,-0.105258619363
1505429687474433613,0.0,0.0,-0.401368200779,-2000.0,0.0,-0.105244831929
1505429687479954990,0.0,0.0,-0.401368975639,-2000.0,0.0,-0.105244831929
1505429687484551730,0.0,0.0,-0.401368975639,-2000.0,0.0,-0.105244831929
1505429687489736296,0.0,0.0,-0.401376157999,-2000.0,0.0,-0.105244831929
1505429687494273474,0.0,0.0,-0.401376157999,-2000.0,0.0,-0.105244831929
1505429687502913814,0.0,0.0,-0.401377528906,-2000.0,0.0,-0.105244831929
1505429687510934077,0.0,0.0,-0.401382803917,-2000.0,0.0,-0.105244831929
1505429687511755479,0.0,0.0,-0.401382803917,-2000.0,0.0,-0.105244831929
1505429687514553162,0.0,0.0,-0.401382803917,-2000.0,0.0,-0.105244831929
1505429687519413232,0.0,0.0,-0.401384502649,-2000.0,0.0,-0.105244831929
1505429687524728016,0.0,0.0,-0.401384502649,-2000.0,0.0,-0.105285089121
1505429687530843181,0.0,0.0,-0.401370376348,-2000.0,0.0,-0.105285089121
1505429687543350318,0.0,0.0,-0.401376128197,-2000.0,0.0,-0.105285089121
1505429687543474315,0.0,0.0,-0.401376128197,-2000.0,0.0,-0.105285089121
1505429687544325014,0.0,0.0,-0.401376128197,-2000.0,0.0,-0.105285089121
1505429687549866127,0.0,0.0,-0.401369482279,-2000.0,0.0,-0.105285089121
1505429687554773863,0.0,0.0,-0.401369482279,-2000.0,0.0,-0.105285089121
1505429687561061224,0.0,0.0,-0.40137937665,-2000.0,0.0,-0.105285089121
1505429687568445404,0.0,0.0,-0.401380509138,-2000.0,0.0,-0.105285089121
1505429687570645691,0.0,0.0,-0.401380509138,-2000.0,0.0,-0.105285089121
1505429687577334119,0.0,0.0,-0.401378244162,-2000.0,0.0,-0.105279250713
1505429687582307671,0.0,0.0,-0.401378244162,-2000.0,0.0,-0.105279250713
1505429687585032570,0.0,0.0,-0.401378244162,-2000.0,0.0,-0.105279250713
1505429687590144290,0.0,0.0,-0.401371032,-2000.0,0.0,-0.105279250713
1505429687595095128,0.0,0.0,-0.401371032,-2000.0,0.0,-0.105279250713
1505429687600359088,0.0,0.0,-0.401367813349,-2000.0,0.0,-0.105279250713
1505429687609272592,0.0,0.0,-0.401366382837,-2000.0,0.0,-0.105279250713
1505429687615600916,0.0,0.0,-0.401366382837,-2000.0,0.0,-0.105279250713
1505429687618044415,0.0,0.0,-0.401374548674,-2000.0,0.0,-0.105279250713
1505429687620140346,0.0,0.0,-0.401374548674,-2000.0,0.0,-0.105279250713
1505429687625800997,0.0,0.0,-0.401374548674,-2000.0,0.0,-0.10530196965
1505429687630237833,0.0,0.0,-0.401375204325,-2000.0,0.0,-0.10530196965
1505429687642601841,0.0,0.0,-0.401382505894,-2000.0,0.0,-0.10530196965
1505429687646820646,0.0,0.0,-0.401373714209,-2000.0,0.0,-0.10530196965
1505429687646826392,0.0,0.0,-0.401373714209,-2000.0,0.0,-0.10530196965
1505429687650358632,0.0,0.0,-0.401373714209,-2000.0,0.0,-0.10530196965
1505429687655681119,0.0,0.0,-0.401373714209,-2000.0,0.0,-0.10530196965
1505429687660455471,0.0,0.0,-0.401369601488,-2000.0,0.0,-0.10530196965
1505429687669239611,0.0,0.0,-0.401374429464,-2000.0,0.0,-0.10530196965
1505429687670510657,0.0,0.0,-0.401374429464,-2000.0,0.0,-0.10530196965
1505429687675508229,0.0,0.0,-0.401374429464,-2000.0,0.0,-0.105279891936
1505429687680590790,0.0,0.0,-0.401382088661,-2000.0,0.0,-0.105279891936
1505429687686600474,0.0,0.0,-0.401376724243,-2000.0,0.0,-0.105279891936
1505429687690341473,0.0,0.0,-0.401376724243,-2000.0,0.0,-0.105279891936
1505429687702978129,0.0,0.0,-0.401380896568,-2000.0,0.0,-0.105279891936
1505429687711882105,0.0,0.0,-0.40136256814,-2000.0,0.0,-0.105279891936
1505429687712006404,0.0,0.0,-0.40136256814,-2000.0,0.0,-0.105279891936
1505429687712461438,0.0,0.0,-0.40136256814,-2000.0,0.0,-0.105279891936
1505429687718170644,0.0,0.0,-0.401373505592,-2000.0,0.0,-0.105279891936
1505429687720711977,0.0,0.0,-0.401373505592,-2000.0,0.0,-0.105279891936
1505429687729197902,0.0,0.0,-0.401371955872,-2000.0,0.0,-0.105303804728
1505429687738905288,0.0,0.0,-0.401378631592,-2000.0,0.0,-0.105303804728
1505429687739867248,0.0,0.0,-0.401378631592,-2000.0,0.0,-0.105303804728
1505429687740968713,0.0,0.0,-0.401378631592,-2000.0,0.0,-0.105303804728
1505429687745896968,0.0,0.0,-0.401378631592,-2000.0,0.0,-0.105303804728
1505429687750732725,0.0,0.0,-0.40138053894,-2000.0,0.0,-0.105303804728
1505429687755668729,0.0,0.0,-0.40138053894,-2000.0,0.0,-0.105303804728
1505429687760981436,0.0,0.0,-0.401376396418,-2000.0,0.0,-0.105303804728
1505429687768264243,0.0,0.0,-0.401368677616,-2000.0,0.0,-0.105303804728
1505429687771770237,0.0,0.0,-0.401368677616,-2000.0,0.0,-0.105303804728
1505429687775946375,0.0,0.0,-0.401368677616,-2000.0,0.0,-0.105281730585
1505429687788057530,0.0,0.0,-0.401377469301,-2000.0,0.0,-0.105281730585
1505429687788901315,0.0,0.0,-0.401377469301,-2000.0,0.0,-0.105281730585
1505429687790779943,0.0,0.0,-0.401377469301,-2000.0,0.0,-0.105281730585
1505429687797128386,0.0,0.0,-0.401374459267,-2000.0,0.0,-0.105281730585
1505429687839958090,0.0,0.0,-0.401377856731,-2000.0,0.0,-0.105306961382
1505429687842294458,0.0,0.0,-0.401377856731,-2000.0,0.0,-0.105306961382
1505429687848310624,0.0,0.0,-0.401379138231,-2000.0,0.0,-0.105306961382
1505429687848545625,0.0,0.0,-0.401379138231,-2000.0,0.0,-0.105306961382
1505429687851264575,0.0,0.0,-0.401379138231,-2000.0,0.0,-0.105306961382
1505429687857199834,0.0,0.0,-0.401381641626,-2000.0,0.0,-0.105306961382
1505429687864300790,0.0,0.0,-0.401381641626,-2000.0,0.0,-0.105306961382
1505429687868576667,0.0,0.0,-0.4013697505,-2000.0,0.0,-0.105306961382
1505429687873646469,0.0,0.0,-0.4013697505,-2000.0,0.0,-0.105291621706
1505429687877020622,0.0,0.0,-0.401362121105,-2000.0,0.0,-0.105291621706
1505429687881458360,0.0,0.0,-0.401362121105,-2000.0,0.0,-0.105291621706
1505429687886163722,0.0,0.0,-0.401362121105,-2000.0,0.0,-0.105291621706
1505429687892772314,0.0,0.0,-0.401363223791,-2000.0,0.0,-0.105291621706
1505429687904496141,0.0,0.0,-0.401379793882,-2000.0,0.0,-0.105291621706
1505429687905571939,0.0,0.0,-0.401379793882,-2000.0,0.0,-0.105291621706
1505429687906527768,0.0,0.0,-0.401384025812,-2000.0,0.0,-0.105291621706
1505429687911904057,0.0,0.0,-0.401384025812,-2000.0,0.0,-0.105291621706
1505429687916969487,0.0,0.0,-0.401371240616,-2000.0,0.0,-0.105291621706
1505429687923347158,0.0,0.0,-0.401371240616,-2000.0,0.0,-0.10527998919
1505429687929409421,0.0,0.0,-0.40136963129,-2000.0,0.0,-0.10527998919
1505429687939139184,0.0,0.0,-0.40136796236,-2000.0,0.0,-0.10527998919
1505429687941805049,0.0,0.0,-0.40136796236,-2000.0,0.0,-0.10527998919
1505429687947099905,0.0,0.0,-0.401375740767,-2000.0,0.0,-0.10527998919
1505429687951784364,0.0,0.0,-0.401375740767,-2000.0,0.0,-0.10527998919
1505429687957231346,0.0,0.0,-0.401373565197,-2000.0,0.0,-0.10527998919
1505429687962049000,0.0,0.0,-0.401373565197,-2000.0,0.0,-0.10527998919
1505429687970103261,0.0,0.0,-0.401375234127,-2000.0,0.0,-0.10527998919
1505429687972132990,0.0,0.0,-0.401375234127,-2000.0,0.0,-0.10527998919
1505429687977206176,0.0,0.0,-0.40136885643,-2000.0,0.0,-0.105269235785
1505429687982052425,0.0,0.0,-0.40136885643,-2000.0,0.0,-0.105269235785
1505429687987146089,0.0,0.0,-0.401360690594,-2000.0,0.0,-0.105269235785
1505429687993535207,0.0,0.0,-0.401360690594,-2000.0,0.0,-0.105269235785
1505429688004558246,0.0,0.0,-0.401376724243,-2000.0,0.0,-0.105269235785
1505429688009269386,0.0,0.0,-0.401372760534,-2000.0,0.0,-0.105269235785
1505429688011177781,0.0,0.0,-0.401372760534,-2000.0,0.0,-0.105269235785
1505429688012299035,0.0,0.0,-0.401372760534,-2000.0,0.0,-0.105269235785
1505429688018041205,0.0,0.0,-0.401380777359,-2000.0,0.0,-0.105269235785
1505429688025810149,0.0,0.0,-0.401380777359,-2000.0,0.0,-0.10531323207
1505429688028018978,0.0,0.0,-0.401380121708,-2000.0,0.0,-0.10531323207
1505429688032133755,0.0,0.0,-0.401380121708,-2000.0,0.0,-0.10531323207
1505429688039443758,0.0,0.0,-0.401367247105,-2000.0,0.0,-0.10531323207
1505429688043576670,0.0,0.0,-0.401367247105,-2000.0,0.0,-0.10531323207
1505429688053686881,0.0,0.0,-0.401374220848,-2000.0,0.0,-0.10531323207
1505429688057630699,0.0,0.0,-0.401376515627,-2000.0,0.0,-0.10531323207
1505429688063653916,0.0,0.0,-0.401376515627,-2000.0,0.0,-0.10531323207
1505429688069199404,0.0,0.0,-0.401374489069,-2000.0,0.0,-0.10531323207
1505429688073284790,0.0,0.0,-0.401374489069,-2000.0,0.0,-0.105271675834
1505429688077635041,0.0,0.0,-0.401372909546,-2000.0,0.0,-0.105271675834
1505429688082369624,0.0,0.0,-0.401372909546,-2000.0,0.0,-0.105271675834
1505429688088124246,0.0,0.0,-0.40137347579,-2000.0,0.0,-0.105271675834
1505429688104818093,0.0,0.0,-0.401368528605,-2000.0,0.0,-0.105271675834
1505429688107245749,0.0,0.0,-0.401376485825,-2000.0,0.0,-0.105271675834
1505429688107248675,0.0,0.0,-0.401376485825,-2000.0,0.0,-0.105271675834
1505429688108069948,0.0,0.0,-0.401376485825,-2000.0,0.0,-0.105271675834
1505429688113066589,0.0,0.0,-0.401376485825,-2000.0,0.0,-0.105271675834
1505429688118103005,0.0,0.0,-0.401384711266,-2000.0,0.0,-0.105271675834
1505429688124463979,0.0,0.0,-0.401384711266,-2000.0,0.0,-0.105262842284
1505429688127611665,0.0,0.0,-0.401370614767,-2000.0,0.0,-0.105262842284
1505429688137122112,0.0,0.0,-0.40137398243,-2000.0,0.0,-0.105262842284
1505429688144795857,0.0,0.0,-0.40137398243,-2000.0,0.0,-0.105262842284
1505429688145061505,0.0,0.0,-0.40137398243,-2000.0,0.0,-0.105262842284
1505429688147662840,0.0,0.0,-0.40137141943,-2000.0,0.0,-0.105262842284
1505429688157096911,0.0,0.0,-0.40137270093,-2000.0,0.0,-0.105262842284
1505429688157897092,0.0,0.0,-0.40137270093,-2000.0,0.0,-0.105262842284
1505429688162731316,0.0,0.0,-0.40137270093,-2000.0,0.0,-0.105262842284
1505429688170496381,0.0,0.0,-0.401376485825,-2000.0,0.0,-0.105262842284
1505429688173179906,0.0,0.0,-0.401376485825,-2000.0,0.0,-0.105283215767
1505429688178007070,0.0,0.0,-0.401370793581,-2000.0,0.0,-0.105283215767
1505429688182981704,0.0,0.0,-0.401370793581,-2000.0,0.0,-0.105283215767
1505429688189332967,0.0,0.0,-0.401377260685,-2000.0,0.0,-0.105283215767
1505429688201819890,0.0,0.0,-0.401371061802,-2000.0,0.0,-0.105283215767
1505429688212655146,0.0,0.0,-0.401365309954,-2000.0,0.0,-0.105283215767
1505429688212707090,0.0,0.0,-0.401365309954,-2000.0,0.0,-0.105283215767
1505429688213665262,0.0,0.0,-0.401365309954,-2000.0,0.0,-0.105283215767
1505429688223237112,0.0,0.0,-0.401370674372,-2000.0,0.0,-0.10526329608
1505429688228176889,0.0,0.0,-0.401372671127,-2000.0,0.0,-0.10526329608
1505429688229226813,0.0,0.0,-0.401372671127,-2000.0,0.0,-0.10526329608
1505429688241468484,0.0,0.0,-0.4013864398,-2000.0,0.0,-0.10526329608
1505429688243577752,0.0,0.0,-0.4013864398,-2000.0,0.0,-0.10526329608
1505429688248334469,0.0,0.0,-0.401375085115,-2000.0,0.0,-0.10526329608
1505429688253629925,0.0,0.0,-0.401375085115,-2000.0,0.0,-0.10526329608
1505429688258386611,0.0,0.0,-0.401373416185,-2000.0,0.0,-0.10526329608
1505429688263376529,0.0,0.0,-0.401373416185,-2000.0,0.0,-0.10526329608
1505429688268415941,0.0,0.0,-0.401359021664,-2000.0,0.0,-0.10526329608
1505429688273650537,0.0,0.0,-0.401359021664,-2000.0,0.0,-0.105211332962
1505429688278554374,0.0,0.0,-0.401386797428,-2000.0,0.0,-0.105211332962
1505429688285312030,0.0,0.0,-0.401386797428,-2000.0,0.0,-0.105211332962
1505429688292523642,0.0,0.0,-0.401388347149,-2000.0,0.0,-0.105211332962
1505429688293635075,0.0,0.0,-0.401388347149,-2000.0,0.0,-0.105211332962
1505429688302982526,0.0,0.0,-0.401390880346,-2000.0,0.0,-0.105211332962
1505429688304326275,0.0,0.0,-0.401390880346,-2000.0,0.0,-0.105211332962
1505429688308558344,0.0,0.0,-0.401378452778,-2000.0,0.0,-0.105211332962
1505429688319398936,0.0,0.0,-0.401391714811,-2000.0,0.0,-0.105211332962
1505429688325694695,0.0,0.0,-0.401391714811,-2000.0,0.0,-0.105799189332
1505429688325701413,0.0,0.0,-0.401391714811,-2000.0,0.0,-0.105799189332
1505429688328756754,0.0,0.0,-0.401362925768,-2000.0,0.0,-0.105799189332
1505429688339205225,0.0,0.0,-0.401320666075,-2000.0,0.0,-0.105799189332
1505429688343807698,0.0,0.0,-0.401320666075,-2000.0,0.0,-0.105799189332
1505429688349409433,0.0,0.0,-0.401410162449,-2000.0,0.0,-0.105799189332
1505429688353967943,0.0,0.0,-0.401410162449,-2000.0,0.0,-0.105799189332
1505429688358843333,0.0,0.0,-0.401392281055,-2000.0,0.0,-0.105799189332
1505429688368947707,0.0,0.0,-0.401309520006,-2000.0,0.0,-0.105799189332
1505429688375494711,0.0,0.0,-0.401309520006,-2000.0,0.0,-0.106554243472
1505429688382078337,0.0,0.0,-0.401371061802,-2000.0,0.0,-0.106554243472
1505429688384626944,0.0,0.0,-0.401371061802,-2000.0,0.0,-0.106554243472
1505429688391772852,0.0,0.0,-0.401370733976,-2000.0,0.0,-0.106554243472
1505429688394016283,0.0,0.0,-0.401370733976,-2000.0,0.0,-0.106554243472
1505429688408247582,0.0,0.0,-0.401354849339,-2000.0,0.0,-0.106554243472
1505429688408258034,0.0,0.0,-0.401354849339,-2000.0,0.0,-0.106554243472
1505429688416925083,0.0,0.0,-0.401353478432,-2000.0,0.0,-0.106554243472
1505429688419830847,0.0,0.0,-0.401353478432,-2000.0,0.0,-0.106554243472
1505429688424585339,0.0,0.0,-0.401353478432,-2000.0,0.0,-0.106160367308
1505429688429012374,0.0,0.0,-0.401362329721,-2000.0,0.0,-0.106160367308
1505429688438054537,0.0,0.0,-0.401420235634,-2000.0,0.0,-0.106160367308
1505429688440153921,0.0,0.0,-0.401420235634,-2000.0,0.0,-0.106160367308
1505429688447995770,0.0,0.0,-0.401332527399,-2000.0,0.0,-0.106160367308
1505429688450003162,0.0,0.0,-0.401332527399,-2000.0,0.0,-0.106160367308
1505429688457104770,0.0,0.0,-0.401334375143,-2000.0,0.0,-0.106160367308
1505429688459063225,0.0,0.0,-0.401334375143,-2000.0,0.0,-0.106160367308
1505429688469376932,0.0,0.0,-0.401416689157,-2000.0,0.0,-0.106160367308
1505429688469570764,0.0,0.0,-0.401416689157,-2000.0,0.0,-0.106160367308
1505429688475206718,0.0,0.0,-0.401416689157,-2000.0,0.0,-0.106365200368
1505429688480962998,0.0,0.0,-0.401383936405,-2000.0,0.0,-0.106365200368
1505429688486870065,0.0,0.0,-0.401343256235,-2000.0,0.0,-0.106365200368
1505429688489398619,0.0,0.0,-0.401343256235,-2000.0,0.0,-0.106365200368
1505429688494757586,0.0,0.0,-0.401343256235,-2000.0,0.0,-0.106365200368
1505429688499949321,0.0,0.0,-0.40133997798,-2000.0,0.0,-0.106365200368
1505429688508367482,0.0,0.0,-0.401409775019,-2000.0,0.0,-0.106365200368
1505429688513409472,0.0,0.0,-0.401409775019,-2000.0,0.0,-0.106365200368
1505429688516249709,0.0,0.0,-0.401409775019,-2000.0,0.0,-0.106365200368
1505429688522595554,0.0,0.0,-0.401403009892,-2000.0,0.0,-0.106365200368
1505429688524874141,0.0,0.0,-0.401403009892,-2000.0,0.0,-0.10663441284
1505429688532478606,0.0,0.0,-0.401348084211,-2000.0,0.0,-0.10663441284
1505429688534571685,0.0,0.0,-0.401348084211,-2000.0,0.0,-0.10663441284
1505429688539498168,0.0,0.0,-0.401340454817,-2000.0,0.0,-0.10663441284
1505429688546716476,0.0,0.0,-0.401399880648,-2000.0,0.0,-0.10663441284
1505429688551620790,0.0,0.0,-0.401399880648,-2000.0,0.0,-0.10663441284
1505429688554818836,0.0,0.0,-0.401399880648,-2000.0,0.0,-0.10663441284
1505429688559904700,0.0,0.0,-0.401383906603,-2000.0,0.0,-0.10663441284
1505429688566015884,0.0,0.0,-0.401383906603,-2000.0,0.0,-0.10663441284
1505429688574557486,0.0,0.0,-0.401358574629,-2000.0,0.0,-0.106726918472
1505429688580568009,0.0,0.0,-0.401382148266,-2000.0,0.0,-0.106726918472
1505429688581311316,0.0,0.0,-0.401382148266,-2000.0,0.0,-0.106726918472
1505429688585059562,0.0,0.0,-0.401382148266,-2000.0,0.0,-0.106726918472
1505429688590118601,0.0,0.0,-0.401367425919,-2000.0,0.0,-0.106726918472
1505429688596281017,0.0,0.0,-0.401367425919,-2000.0,0.0,-0.106726918472
1505429688604938891,0.0,0.0,-0.401384919882,-2000.0,0.0,-0.106726918472
1505429688606671508,0.0,0.0,-0.401376843452,-2000.0,0.0,-0.106726918472
1505429688610156961,0.0,0.0,-0.401376843452,-2000.0,0.0,-0.106726918472
1505429688619682250,0.0,0.0,-0.401384800673,-2000.0,0.0,-0.106726918472
1505429688625652862,0.0,0.0,-0.401384800673,-2000.0,0.0,-0.106747870888
1505429688626582216,0.0,0.0,-0.401378750801,-2000.0,0.0,-0.106747870888
1505429688635987964,0.0,0.0,-0.401378750801,-2000.0,0.0,-0.106747870888
1505429688636045483,0.0,0.0,-0.401378750801,-2000.0,0.0,-0.106747870888
1505429688643693837,0.0,0.0,-0.401375025511,-2000.0,0.0,-0.106747870888
1505429688645331153,0.0,0.0,-0.401375025511,-2000.0,0.0,-0.106747870888
1505429688650216636,0.0,0.0,-0.401387304068,-2000.0,0.0,-0.106747870888
1505429688658899875,0.0,0.0,-0.401385009289,-2000.0,0.0,-0.106747870888
1505429688660152480,0.0,0.0,-0.401385009289,-2000.0,0.0,-0.106747870888
1505429688671264581,0.0,0.0,-0.401366591454,-2000.0,0.0,-0.106747870888
1505429688677169115,0.0,0.0,-0.401367098093,-2000.0,0.0,-0.106478752419
1505429688683052889,0.0,0.0,-0.401367098093,-2000.0,0.0,-0.106478752419
1505429688685422348,0.0,0.0,-0.401367098093,-2000.0,0.0,-0.106478752419
1505429688691779888,0.0,0.0,-0.401380747557,-2000.0,0.0,-0.106478752419
1505429688695432506,0.0,0.0,-0.401380747557,-2000.0,0.0,-0.106478752419
1505429688703355665,0.0,0.0,-0.401374548674,-2000.0,0.0,-0.106478752419
1505429688712488050,0.0,0.0,-0.401370465755,-2000.0,0.0,-0.106478752419
1505429688717168828,0.0,0.0,-0.401366323233,-2000.0,0.0,-0.106478752419
1505429688719293117,0.0,0.0,-0.401366323233,-2000.0,0.0,-0.106478752419
1505429688720514023,0.0,0.0,-0.401366323233,-2000.0,0.0,-0.106478752419
1505429688725451627,0.0,0.0,-0.401366323233,-2000.0,0.0,-0.106637308329
1505429688736220051,0.0,0.0,-0.401386499405,-2000.0,0.0,-0.106637308329
1505429688736536625,0.0,0.0,-0.401386499405,-2000.0,0.0,-0.106637308329
1505429688740846702,0.0,0.0,-0.401397079229,-2000.0,0.0,-0.106637308329
1505429688746845028,0.0,0.0,-0.401349723339,-2000.0,0.0,-0.106637308329
1505429688752315317,0.0,0.0,-0.401349723339,-2000.0,0.0,-0.106637308329
1505429688755598222,0.0,0.0,-0.401349723339,-2000.0,0.0,-0.106637308329
1505429688760652039,0.0,0.0,-0.40137553215,-2000.0,0.0,-0.106637308329
1505429688768077326,0.0,0.0,-0.4013915658,-2000.0,0.0,-0.106637308329
1505429688774149939,0.0,0.0,-0.4013915658,-2000.0,0.0,-0.106241828161
1505429688775995064,0.0,0.0,-0.4013915658,-2000.0,0.0,-0.106241828161
1505429688782307135,0.0,0.0,-0.401378184557,-2000.0,0.0,-0.106241828161
1505429688788503085,0.0,0.0,-0.401332944632,-2000.0,0.0,-0.106241828161
1505429688791583996,0.0,0.0,-0.401332944632,-2000.0,0.0,-0.106241828161
1505429688796017005,0.0,0.0,-0.401332944632,-2000.0,0.0,-0.106241828161
1505429688804149447,0.0,0.0,-0.401394367218,-2000.0,0.0,-0.106241828161
1505429688806146688,0.0,0.0,-0.401401162148,-2000.0,0.0,-0.106241828161
1505429688817748091,0.0,0.0,-0.401369273663,-2000.0,0.0,-0.106241828161
1505429688821612191,0.0,0.0,-0.401369273663,-2000.0,0.0,-0.106241828161
1505429688821932703,0.0,0.0,-0.401369273663,-2000.0,0.0,-0.106241828161
1505429688826247009,0.0,0.0,-0.401369273663,-2000.0,0.0,-0.10610518247
1505429688830880404,0.0,0.0,-0.401347219944,-2000.0,0.0,-0.10610518247
1505429688839276535,0.0,0.0,-0.40137091279,-2000.0,0.0,-0.10610518247
1505429688841127957,0.0,0.0,-0.40137091279,-2000.0,0.0,-0.10610518247
1505429688846145746,0.0,0.0,-0.40137091279,-2000.0,0.0,-0.10610518247
1505429688851027645,0.0,0.0,-0.401351928711,-2000.0,0.0,-0.10610518247
1505429688856929386,0.0,0.0,-0.401327669621,-2000.0,0.0,-0.10610518247
1505429688861206463,0.0,0.0,-0.401327669621,-2000.0,0.0,-0.10610518247
1505429688869177433,0.0,0.0,-0.401351124048,-2000.0,0.0,-0.10610518247
1505429688873293087,0.0,0.0,-0.401351124048,-2000.0,0.0,-0.10610518247
1505429688880554042,0.0,0.0,-0.401400089264,-2000.0,0.0,-0.10555810812
1505429688881986825,0.0,0.0,-0.401400089264,-2000.0,0.0,-0.10555810812
1505429688886352832,0.0,0.0,-0.401317387819,-2000.0,0.0,-0.10555810812
1505429688891454977,0.0,0.0,-0.401317387819,-2000.0,0.0,-0.10555810812
1505429688897024887,0.0,0.0,-0.401341348886,-2000.0,0.0,-0.10555810812
1505429688902610440,0.0,0.0,-0.401341348886,-2000.0,0.0,-0.10555810812
1505429688918032238,0.0,0.0,-0.40127569437,-2000.0,0.0,-0.10555810812
1505429688918687805,0.0,0.0,-0.40127569437,-2000.0,0.0,-0.10555810812
1505429688920179001,0.0,0.0,-0.40127569437,-2000.0,0.0,-0.10555810812
1505429688921639273,0.0,0.0,-0.40127569437,-2000.0,0.0,-0.10555810812
1505429688926671976,0.0,0.0,-0.401350468397,-2000.0,0.0,-0.107094990139
1505429688936035810,0.0,0.0,-0.401350468397,-2000.0,0.0,-0.107094990139
1505429688937413465,0.0,0.0,-0.401350468397,-2000.0,0.0,-0.107094990139
1505429688942712526,0.0,0.0,-0.40132817626,-2000.0,0.0,-0.107094990139
1505429688946928092,0.0,0.0,-0.401195198298,-2000.0,0.0,-0.107094990139
1505429688951640333,0.0,0.0,-0.401195198298,-2000.0,0.0,-0.107094990139
1505429688956791161,0.0,0.0,-0.401399612427,-2000.0,0.0,-0.107094990139
1505429688962965841,0.0,0.0,-0.401399612427,-2000.0,0.0,-0.107094990139
1505429688974086800,0.0,0.0,-0.401351988316,-2000.0,0.0,-0.106466646762
1505429688975091676,0.0,0.0,-0.401351988316,-2000.0,0.0,-0.106466646762
1505429688977086892,0.0,0.0,-0.401170909405,-2000.0,0.0,-0.106466646762
1505429688981854096,0.0,0.0,-0.401170909405,-2000.0,0.0,-0.106466646762
1505429688986940820,0.0,0.0,-0.401375174522,-2000.0,0.0,-0.106466646762
1505429688991841879,0.0,0.0,-0.401375174522,-2000.0,0.0,-0.106466646762
1505429688997197751,0.0,0.0,-0.40130096674,-2000.0,0.0,-0.106466646762
1505429689007799219,0.0,0.0,-0.401229768991,-2000.0,0.0,-0.106466646762
1505429689007935509,0.0,0.0,-0.401229768991,-2000.0,0.0,-0.106466646762
1505429689021122055,0.0,0.0,-0.401455909014,-2000.0,0.0,-0.106466646762
1505429689021930005,0.0,0.0,-0.401455909014,-2000.0,0.0,-0.106466646762
1505429689027158660,0.0,0.0,-0.401261925697,-2000.0,0.0,-0.105214736426
1505429689037500699,0.0,0.0,-0.401270747185,-2000.0,0.0,-0.105214736426
1505429689042051134,0.0,0.0,-0.401270747185,-2000.0,0.0,-0.105214736426
1505429689047159451,0.0,0.0,-0.401425004005,-2000.0,0.0,-0.105214736426
1505429689052108958,0.0,0.0,-0.401425004005,-2000.0,0.0,-0.105214736426
1505429689057123572,0.0,0.0,-0.401199102402,-2000.0,0.0,-0.105214736426
1505429689062126838,0.0,0.0,-0.401199102402,-2000.0,0.0,-0.105214736426
1505429689071182154,0.0,0.0,-0.401399940252,-2000.0,0.0,-0.105214736426
1505429689077926991,0.0,0.0,-0.401390820742,-2000.0,0.0,-0.106132891785
1505429689082453834,0.0,0.0,-0.401390820742,-2000.0,0.0,-0.106132891785
1505429689087146140,0.0,0.0,-0.401169478893,-2000.0,0.0,-0.106132891785
1505429689092357999,0.0,0.0,-0.401169478893,-2000.0,0.0,-0.106132891785
1505429689102557649,0.0,0.0,-0.401443749666,-2000.0,0.0,-0.106132891785
1505429689109037557,0.0,0.0,-0.401362389326,-2000.0,0.0,-0.106132891785
1505429689109443654,0.0,0.0,-0.401362389326,-2000.0,0.0,-0.106132891785
1505429689112424583,0.0,0.0,-0.401362389326,-2000.0,0.0,-0.106132891785
1505429689118099921,0.0,0.0,-0.401280611753,-2000.0,0.0,-0.106132891785
1505429689122419141,0.0,0.0,-0.401280611753,-2000.0,0.0,-0.106132891785
1505429689127542078,0.0,0.0,-0.401507586241,-2000.0,0.0,-0.108005926531
1505429689134834914,0.0,0.0,-0.401507586241,-2000.0,0.0,-0.108005926531
1505429689137631475,0.0,0.0,-0.401254117489,-2000.0,0.0,-0.108005926531
1505429689144813408,0.0,0.0,-0.401254117489,-2000.0,0.0,-0.108005926531
1505429689147738066,0.0,0.0,-0.401350080967,-2000.0,0.0,-0.108005926531
1505429689152575961,0.0,0.0,-0.401350080967,-2000.0,0.0,-0.108005926531
1505429689158552500,0.0,0.0,-0.40145483613,-2000.0,0.0,-0.108005926531
1505429689171984598,0.0,0.0,-0.401204437017,-2000.0,0.0,-0.108005926531
1505429689176271770,0.0,0.0,-0.401204437017,-2000.0,0.0,-0.108084826701
1505429689180075110,0.0,0.0,-0.401428639889,-2000.0,0.0,-0.108084826701
1505429689182617894,0.0,0.0,-0.401428639889,-2000.0,0.0,-0.108084826701
1505429689187918673,0.0,0.0,-0.401389837265,-2000.0,0.0,-0.108084826701
1505429689197557060,0.0,0.0,-0.401218265295,-2000.0,0.0,-0.108084826701
1505429689198496204,0.0,0.0,-0.401218265295,-2000.0,0.0,-0.108084826701
1505429689206027783,0.0,0.0,-0.401218265295,-2000.0,0.0,-0.108084826701
1505429689215397811,0.0,0.0,-0.401464611292,-2000.0,0.0,-0.108084826701
1505429689220948297,0.0,0.0,-0.40130469203,-2000.0,0.0,-0.108084826701
1505429689222796593,0.0,0.0,-0.40130469203,-2000.0,0.0,-0.108084826701
1505429689228331839,0.0,0.0,-0.401299476624,-2000.0,0.0,-0.10762223963
1505429689233061808,0.0,0.0,-0.401299476624,-2000.0,0.0,-0.10762223963
1505429689240275958,0.0,0.0,-0.40150052309,-2000.0,0.0,-0.10762223963
1505429689243034791,0.0,0.0,-0.40150052309,-2000.0,0.0,-0.10762223963
1505429689248066488,0.0,0.0,-0.401237130165,-2000.0,0.0,-0.10762223963
1505429689253089335,0.0,0.0,-0.401237130165,-2000.0,0.0,-0.10762223963
1505429689258480058,0.0,0.0,-0.401444107294,-2000.0,0.0,-0.10762223963
1505429689264788086,0.0,0.0,-0.401444107294,-2000.0,0.0,-0.10762223963
1505429689277224935,0.0,0.0,-0.401442319155,-2000.0,0.0,-0.106526169852
1505429689277553306,0.0,0.0,-0.401215404272,-2000.0,0.0,-0.106526169852
1505429689278827093,0.0,0.0,-0.401215404272,-2000.0,0.0,-0.106526169852
1505429689283425551,0.0,0.0,-0.401215404272,-2000.0,0.0,-0.106526169852
1505429689288338363,0.0,0.0,-0.401489377022,-2000.0,0.0,-0.106526169852
1505429689295241452,0.0,0.0,-0.401489377022,-2000.0,0.0,-0.106526169852
1505429689310899214,0.0,0.0,-0.401271760464,-2000.0,0.0,-0.106526169852
1505429689313607951,0.0,0.0,-0.401271760464,-2000.0,0.0,-0.106526169852
1505429689319934244,0.0,0.0,-0.40152952075,-2000.0,0.0,-0.106526169852
1505429689324367047,0.0,0.0,-0.40152952075,-2000.0,0.0,-0.105726898912
1505429689328625599,0.0,0.0,-0.401276379824,-2000.0,0.0,-0.105726898912
1505429689335660492,0.0,0.0,-0.401276379824,-2000.0,0.0,-0.105726898912
1505429689338566163,0.0,0.0,-0.401410162449,-2000.0,0.0,-0.105726898912
1505429689343482729,0.0,0.0,-0.401410162449,-2000.0,0.0,-0.105726898912
1505429689349265793,0.0,0.0,-0.401481986046,-2000.0,0.0,-0.105726898912
1505429689354841802,0.0,0.0,-0.401481986046,-2000.0,0.0,-0.105726898912
1505429689362190319,0.0,0.0,-0.401220083237,-2000.0,0.0,-0.105726898912
1505429689364578313,0.0,0.0,-0.401220083237,-2000.0,0.0,-0.105726898912
1505429689370271005,0.0,0.0,-0.401470810175,-2000.0,0.0,-0.105726898912
1505429689373593995,0.0,0.0,-0.401470810175,-2000.0,0.0,-0.105604001113
1505429689378933365,0.0,0.0,-0.401461303234,-2000.0,0.0,-0.105604001113
1505429689384974413,0.0,0.0,-0.401461303234,-2000.0,0.0,-0.105604001113
1505429689392730841,0.0,0.0,-0.401310414076,-2000.0,0.0,-0.105604001113
1505429689393971462,0.0,0.0,-0.401310414076,-2000.0,0.0,-0.105604001113
1505429689399114526,0.0,0.0,-0.401554256678,-2000.0,0.0,-0.105604001113
1505429689403890342,0.0,0.0,-0.401554256678,-2000.0,0.0,-0.105604001113
1505429689410365605,0.0,0.0,-0.401448905468,-2000.0,0.0,-0.105604001113
1505429689413817336,0.0,0.0,-0.401448905468,-2000.0,0.0,-0.105604001113
1505429689418959019,0.0,0.0,-0.4013428092,-2000.0,0.0,-0.105604001113
1505429689427425368,0.0,0.0,-0.40144097805,-2000.0,0.0,-0.106408789927
1505429689429178570,0.0,0.0,-0.40144097805,-2000.0,0.0,-0.106408789927
1505429689436929856,0.0,0.0,-0.401260584593,-2000.0,0.0,-0.106408789927
1505429689439065657,0.0,0.0,-0.401260584593,-2000.0,0.0,-0.106408789927
1505429689445198711,0.0,0.0,-0.401260584593,-2000.0,0.0,-0.106408789927
1505429689449006670,0.0,0.0,-0.401452600956,-2000.0,0.0,-0.106408789927
1505429689453980921,0.0,0.0,-0.401452600956,-2000.0,0.0,-0.106408789927
1505429689460666460,0.0,0.0,-0.401447594166,-2000.0,0.0,-0.106408789927
1505429689473217130,0.0,0.0,-0.401362925768,-2000.0,0.0,-0.107061555753
1505429689474929140,0.0,0.0,-0.401362925768,-2000.0,0.0,-0.107061555753
1505429689479268752,0.0,0.0,-0.4014287889,-2000.0,0.0,-0.107061555753
1505429689484261127,0.0,0.0,-0.4014287889,-2000.0,0.0,-0.107061555753
1505429689490862354,0.0,0.0,-0.401322633028,-2000.0,0.0,-0.107061555753
1505429689503207347,0.0,0.0,-0.401238143444,-2000.0,0.0,-0.107061555753
1505429689504152362,0.0,0.0,-0.401238143444,-2000.0,0.0,-0.107061555753
1505429689509836853,0.0,0.0,-0.401505857706,-2000.0,0.0,-0.107061555753
1505429689514422374,0.0,0.0,-0.401505857706,-2000.0,0.0,-0.107061555753
1505429689519574576,0.0,0.0,-0.401254236698,-2000.0,0.0,-0.107061555753
1505429689524719630,0.0,0.0,-0.401254236698,-2000.0,0.0,-0.107147127533
1505429689535398053,0.0,0.0,-0.401224166155,-2000.0,0.0,-0.107147127533
1505429689539705748,0.0,0.0,-0.401278585196,-2000.0,0.0,-0.107147127533
1505429689544801797,0.0,0.0,-0.401278585196,-2000.0,0.0,-0.107147127533
1505429689551338893,0.0,0.0,-0.401074171066,-2000.0,0.0,-0.107147127533
1505429689565363392,0.0,0.0,-0.401217877865,-2000.0,0.0,-0.107147127533
1505429689565439703,0.0,0.0,-0.401217877865,-2000.0,0.0,-0.107147127533
1505429689565445148,0.0,0.0,-0.401217877865,-2000.0,0.0,-0.107147127533
1505429689575529848,0.0,0.0,-0.401171386242,-2000.0,0.0,-0.107752557683
1505429689576647259,0.0,0.0,-0.401097536087,-2000.0,0.0,-0.107752557683
1505429689581068240,0.0,0.0,-0.401097536087,-2000.0,0.0,-0.107752557683
1505429689588010646,0.0,0.0,-0.401277214289,-2000.0,0.0,-0.107752557683
1505429689590416309,0.0,0.0,-0.401277214289,-2000.0,0.0,-0.107752557683
1505429689594769872,0.0,0.0,-0.401277214289,-2000.0,0.0,-0.107752557683
1505429689603616725,0.0,0.0,-0.401106894016,-2000.0,0.0,-0.107752557683
1505429689604527308,0.0,0.0,-0.401106894016,-2000.0,0.0,-0.107752557683
1505429689613043140,0.0,0.0,-0.401078283787,-2000.0,0.0,-0.107752557683
1505429689615198725,0.0,0.0,-0.401078283787,-2000.0,0.0,-0.107752557683
1505429689620136381,0.0,0.0,-0.401245564222,-2000.0,0.0,-0.107752557683
1505429689624912490,0.0,0.0,-0.401245564222,-2000.0,0.0,-0.106647278523
1505429689636945596,0.0,0.0,-0.401088684797,-2000.0,0.0,-0.106647278523
1505429689637184767,0.0,0.0,-0.401182115078,-2000.0,0.0,-0.106647278523
1505429689640012888,0.0,0.0,-0.401182115078,-2000.0,0.0,-0.106647278523
1505429689644967331,0.0,0.0,-0.401182115078,-2000.0,0.0,-0.106647278523
1505429689650047485,0.0,0.0,-0.401159077883,-2000.0,0.0,-0.106647278523
1505429689657655307,0.0,0.0,-0.401031970978,-2000.0,0.0,-0.106647278523
1505429689663015546,0.0,0.0,-0.401031970978,-2000.0,0.0,-0.106647278523
1505429689669592575,0.0,0.0,-0.401130318642,-2000.0,0.0,-0.106647278523
1505429689670347239,0.0,0.0,-0.401130318642,-2000.0,0.0,-0.106647278523
1505429689675198920,0.0,0.0,-0.401130318642,-2000.0,0.0,-0.106575735492
1505429689680313460,0.0,0.0,-0.401052743196,-2000.0,0.0,-0.106575735492
1505429689686356035,0.0,0.0,-0.401052862406,-2000.0,0.0,-0.106575735492
1505429689697736658,0.0,0.0,-0.401226758957,-2000.0,0.0,-0.106575735492
1505429689697753427,0.0,0.0,-0.401226758957,-2000.0,0.0,-0.106575735492
1505429689700562130,0.0,0.0,-0.401226758957,-2000.0,0.0,-0.106575735492
1505429689705888171,0.0,0.0,-0.401226758957,-2000.0,0.0,-0.106575735492
1505429689710497719,0.0,0.0,-0.401109874249,-2000.0,0.0,-0.106575735492
1505429689715077584,0.0,0.0,-0.401109874249,-2000.0,0.0,-0.106575735492
1505429689720730296,0.0,0.0,-0.401124566793,-2000.0,0.0,-0.106575735492
1505429689725322832,0.0,0.0,-0.401124566793,-2000.0,0.0,-0.107223338015
1505429689738461973,0.0,0.0,-0.401109844446,-2000.0,0.0,-0.107223338015
1505429689740402720,0.0,0.0,-0.401109844446,-2000.0,0.0,-0.107223338015
1505429689746686543,0.0,0.0,-0.401109844446,-2000.0,0.0,-0.107223338015
1505429689755202705,0.0,0.0,-0.401149630547,-2000.0,0.0,-0.107223338015
1505429689759250659,0.0,0.0,-0.401191711426,-2000.0,0.0,-0.107223338015
1505429689760514473,0.0,0.0,-0.401191711426,-2000.0,0.0,-0.107223338015
1505429689770101376,0.0,0.0,-0.401191711426,-2000.0,0.0,-0.107223338015
1505429689770927975,0.0,0.0,-0.401191711426,-2000.0,0.0,-0.107223338015
1505429689775693447,0.0,0.0,-0.401191711426,-2000.0,0.0,-0.1068763949
1505429689780818790,0.0,0.0,-0.401191711426,-2000.0,0.0,-0.1068763949
1505429689786116954,0.0,0.0,-0.401191711426,-2000.0,0.0,-0.1068763949
1505429689794524244,0.0,0.0,-0.401191711426,-2000.0,0.0,-0.1068763949
1505429689805556988,0.0,0.0,-0.401191711426,-2000.0,0.0,-0.1068763949
1505429689805769977,0.0,0.0,-0.401191711426,-2000.0,0.0,-0.1068763949
1505429689806842468,0.0,0.0,-0.401191711426,-2000.0,0.0,-0.1068763949
1505429689810738747,0.0,0.0,-0.401191711426,-2000.0,0.0,-0.1068763949
1505429689816408442,0.0,0.0,-0.401083856821,-2000.0,0.0,-0.1068763949
1505429689824431178,0.0,0.0,-0.401083856821,-2000.0,0.0,-0.10847483297
1505429689825525521,0.0,0.0,-0.401083856821,-2000.0,0.0,-0.10847483297
1505429689839100840,0.0,0.0,-0.401221424341,-2000.0,0.0,-0.10847483297
1505429689839103880,0.0,0.0,-0.401221424341,-2000.0,0.0,-0.10847483297
1505429689840860553,0.0,0.0,-0.401221424341,-2000.0,0.0,-0.10847483297
1505429689845765408,0.0,0.0,-0.401221424341,-2000.0,0.0,-0.10847483297
1505429689853026216,0.0,0.0,-0.401085674763,-2000.0,0.0,-0.10847483297
1505429689862308660,0.0,0.0,-0.401294350624,-2000.0,0.0,-0.10847483297
1505429689862315781,0.0,0.0,-0.401294350624,-2000.0,0.0,-0.10847483297
1505429689868166312,0.0,0.0,-0.401119023561,-2000.0,0.0,-0.10847483297
1505429689871210605,0.0,0.0,-0.401119023561,-2000.0,0.0,-0.10847483297
1505429689878331396,0.0,0.0,-0.401073247194,-2000.0,0.0,-0.107980500449
1505429689882732988,0.0,0.0,-0.401073247194,-2000.0,0.0,-0.107980500449
1505429689889587065,0.0,0.0,-0.401179283857,-2000.0,0.0,-0.107980500449
1505429689891667464,0.0,0.0,-0.401179283857,-2000.0,0.0,-0.107980500449
1505429689896306291,0.0,0.0,-0.401179283857,-2000.0,0.0,-0.107980500449
1505429689905364142,0.0,0.0,-0.400999844074,-2000.0,0.0,-0.107980500449
1505429689906307266,0.0,0.0,-0.400999844074,-2000.0,0.0,-0.107980500449
1505429689915297110,0.0,0.0,-0.401212275028,-2000.0,0.0,-0.107980500449
1505429689918273867,0.0,0.0,-0.401079386473,-2000.0,0.0,-0.107980500449
1505429689921249901,0.0,0.0,-0.401079386473,-2000.0,0.0,-0.107980500449
1505429689926653374,0.0,0.0,-0.401128649712,-2000.0,0.0,-0.10693591381
1505429689937654212,0.0,0.0,-0.401096940041,-2000.0,0.0,-0.10693591381
1505429689940009356,0.0,0.0,-0.401096940041,-2000.0,0.0,-0.10693591381
1505429689942621270,0.0,0.0,-0.401096940041,-2000.0,0.0,-0.10693591381
1505429689949501127,0.0,0.0,-0.401129096746,-2000.0,0.0,-0.10693591381
1505429689951869765,0.0,0.0,-0.401129096746,-2000.0,0.0,-0.10693591381
1505429689958279346,0.0,0.0,-0.40119189024,-2000.0,0.0,-0.10693591381
1505429689968203260,0.0,0.0,-0.401266545057,-2000.0,0.0,-0.10693591381
1505429689973243461,0.0,0.0,-0.401266545057,-2000.0,0.0,-0.108768396368
1505429689980445735,0.0,0.0,-0.401135742664,-2000.0,0.0,-0.108768396368
1505429689985220432,0.0,0.0,-0.401135742664,-2000.0,0.0,-0.108768396368
1505429689986606148,0.0,0.0,-0.401234447956,-2000.0,0.0,-0.108768396368
1505429689993818243,0.0,0.0,-0.401234447956,-2000.0,0.0,-0.108768396368
1505429689996944504,0.0,0.0,-0.401234447956,-2000.0,0.0,-0.108768396368
1505429690001981725,0.0,0.0,-0.401084303856,-2000.0,0.0,-0.108768396368
1505429690006697159,0.0,0.0,-0.401116669178,-2000.0,0.0,-0.108768396368
1505429690012018069,0.0,0.0,-0.401116669178,-2000.0,0.0,-0.108768396368
1505429690019413660,0.0,0.0,-0.401116669178,-2000.0,0.0,-0.108768396368
1505429690021802205,0.0,0.0,-0.401116669178,-2000.0,0.0,-0.108768396368
1505429690027127244,0.0,0.0,-0.401116669178,-2000.0,0.0,-0.107961579846
1505429690038581161,0.0,0.0,-0.401116669178,-2000.0,0.0,-0.107961579846
1505429690047816769,0.0,0.0,-0.401116669178,-2000.0,0.0,-0.107961579846
1505429690048290640,0.0,0.0,-0.401116669178,-2000.0,0.0,-0.107961579846
1505429690049396176,0.0,0.0,-0.401116669178,-2000.0,0.0,-0.107961579846
1505429690053018147,0.0,0.0,-0.401116669178,-2000.0,0.0,-0.107961579846
1505429690057196770,0.0,0.0,-0.401116669178,-2000.0,0.0,-0.107961579846
1505429690061981012,0.0,0.0,-0.401116669178,-2000.0,0.0,-0.107961579846
1505429690068409650,0.0,0.0,-0.400812953711,-2000.0,0.0,-0.107961579846
1505429690073399410,0.0,0.0,-0.400812953711,-2000.0,0.0,-0.110066999231
1505429690078355584,0.0,0.0,-0.400821685791,-2000.0,0.0,-0.110066999231
1505429690085014647,0.0,0.0,-0.400821685791,-2000.0,0.0,-0.110066999231
1505429690091303409,0.0,0.0,-0.400828450918,-2000.0,0.0,-0.110066999231
1505429690092590528,0.0,0.0,-0.400828450918,-2000.0,0.0,-0.110066999231
1505429690097608554,0.0,0.0,-0.400856494904,-2000.0,0.0,-0.110066999231
1505429690104030920,0.0,0.0,-0.400856494904,-2000.0,0.0,-0.110066999231
1505429690110562491,0.0,0.0,-0.40081268549,-2000.0,0.0,-0.110066999231
1505429690112608369,0.0,0.0,-0.40081268549,-2000.0,0.0,-0.110066999231
1505429690119834277,0.0,0.0,-0.400624036789,-2000.0,0.0,-0.110066999231
1505429690122242715,0.0,0.0,-0.400624036789,-2000.0,0.0,-0.110066999231
1505429690128228478,0.0,0.0,-0.400496274233,-2000.0,0.0,-0.110641249484
1505429690132424590,0.0,0.0,-0.400496274233,-2000.0,0.0,-0.110641249484
1505429690142799588,0.0,0.0,-0.400398224592,-2000.0,0.0,-0.110641249484
1505429690153858109,0.0,0.0,-0.400418162346,-2000.0,0.0,-0.110641249484
1505429690153864866,0.0,0.0,-0.400418162346,-2000.0,0.0,-0.110641249484
1505429690158035572,0.0,0.0,-0.400436073542,-2000.0,0.0,-0.110641249484
1505429690162571204,0.0,0.0,-0.400436073542,-2000.0,0.0,-0.110641249484
1505429690168542051,0.0,0.0,-0.400501281023,-2000.0,0.0,-0.110641249484
1505429690176410416,0.0,0.0,-0.400501281023,-2000.0,0.0,-0.111833754634
1505429690178499959,0.0,0.0,-0.400328963995,-2000.0,0.0,-0.111833754634
1505429690185796236,0.0,0.0,-0.400328963995,-2000.0,0.0,-0.111833754634
1505429690193143454,0.0,0.0,-0.40023368597,-2000.0,0.0,-0.111833754634
1505429690193597933,0.0,0.0,-0.40023368597,-2000.0,0.0,-0.111833754634
1505429690199001316,0.0,0.0,-0.400150567293,-2000.0,0.0,-0.111833754634
1505429690207532093,0.0,0.0,-0.400071710348,-2000.0,0.0,-0.111833754634
1505429690211499377,0.0,0.0,-0.400071710348,-2000.0,0.0,-0.111833754634
1505429690215402431,0.0,0.0,-0.400071710348,-2000.0,0.0,-0.111833754634
1505429690218233613,0.0,0.0,-0.400095492601,-2000.0,0.0,-0.111833754634
1505429690223209526,0.0,0.0,-0.400095492601,-2000.0,0.0,-0.111833754634
1505429690229010544,0.0,0.0,-0.400134444237,-2000.0,0.0,-0.113014157886
1505429690241662248,0.0,0.0,-0.400186598301,-2000.0,0.0,-0.113014157886
1505429690247940486,0.0,0.0,-0.400170505047,-2000.0,0.0,-0.113014157886
1505429690248122670,0.0,0.0,-0.400170505047,-2000.0,0.0,-0.113014157886
1505429690248337062,0.0,0.0,-0.400170505047,-2000.0,0.0,-0.113014157886
1505429690253443706,0.0,0.0,-0.400170505047,-2000.0,0.0,-0.113014157886
1505429690257942822,0.0,0.0,-0.400076240301,-2000.0,0.0,-0.113014157886
1505429690268352993,0.0,0.0,-0.399975299835,-2000.0,0.0,-0.113014157886
1505429690277565042,0.0,0.0,-0.399949640036,-2000.0,0.0,-0.11257568073
1505429690280061951,0.0,0.0,-0.399949640036,-2000.0,0.0,-0.11257568073
1505429690287059941,0.0,0.0,-0.399869531393,-2000.0,0.0,-0.11257568073
1505429690287633645,0.0,0.0,-0.399869531393,-2000.0,0.0,-0.11257568073
1505429690293274552,0.0,0.0,-0.399869531393,-2000.0,0.0,-0.11257568073
1505429690298052234,0.0,0.0,-0.399823844433,-2000.0,0.0,-0.11257568073
1505429690306090500,0.0,0.0,-0.399823844433,-2000.0,0.0,-0.11257568073
1505429690308251433,0.0,0.0,-0.399683892727,-2000.0,0.0,-0.11257568073
1505429690316424322,0.0,0.0,-0.399683892727,-2000.0,0.0,-0.11257568073
1505429690318313922,0.0,0.0,-0.399592578411,-2000.0,0.0,-0.11257568073
1505429690324590635,0.0,0.0,-0.399592578411,-2000.0,0.0,-0.109877796316
1505429690328698609,0.0,0.0,-0.399614334106,-2000.0,0.0,-0.109877796316
1505429690337785626,0.0,0.0,-0.399503827095,-2000.0,0.0,-0.109877796316
1505429690350761508,0.0,0.0,-0.399423807859,-2000.0,0.0,-0.109877796316
1505429690350878614,0.0,0.0,-0.399423807859,-2000.0,0.0,-0.109877796316
1505429690351212718,0.0,0.0,-0.399423807859,-2000.0,0.0,-0.109877796316
1505429690355172678,0.0,0.0,-0.399423807859,-2000.0,0.0,-0.109877796316
1505429690358767067,0.0,0.0,-0.399373710155,-2000.0,0.0,-0.109877796316
1505429690367631339,0.0,0.0,-0.399243056774,-2000.0,0.0,-0.109877796316
1505429690370283739,0.0,0.0,-0.399243056774,-2000.0,0.0,-0.109877796316
1505429690373785096,0.0,0.0,-0.399243056774,-2000.0,0.0,-0.107266658136
1505429690380322531,0.0,0.0,-0.399330765009,-2000.0,0.0,-0.107266658136
1505429690387485673,0.0,0.0,-0.399304896593,-2000.0,0.0,-0.107266658136
1505429690390010067,0.0,0.0,-0.399304896593,-2000.0,0.0,-0.107266658136
1505429690393857879,0.0,0.0,-0.399304896593,-2000.0,0.0,-0.107266658136
1505429690398646134,0.0,0.0,-0.399272799492,-2000.0,0.0,-0.107266658136
1505429690405380207,0.0,0.0,-0.399272799492,-2000.0,0.0,-0.107266658136
1505429690411336791,0.0,0.0,-0.399218916893,-2000.0,0.0,-0.107266658136
1505429690413717821,0.0,0.0,-0.399218916893,-2000.0,0.0,-0.107266658136
1505429690421322648,0.0,0.0,-0.3992421031,-2000.0,0.0,-0.107266658136
1505429690424962754,0.0,0.0,-0.3992421031,-2000.0,0.0,-0.102618990914
1505429690438899926,0.0,0.0,-0.399329334497,-2000.0,0.0,-0.102618990914
1505429690439442527,0.0,0.0,-0.399329334497,-2000.0,0.0,-0.102618990914
1505429690440699614,0.0,0.0,-0.399329334497,-2000.0,0.0,-0.102618990914
1505429690444213014,0.0,0.0,-0.399329334497,-2000.0,0.0,-0.102618990914
1505429690451240689,0.0,0.0,-0.399491488934,-2000.0,0.0,-0.102618990914
1505429690454313187,0.0,0.0,-0.399491488934,-2000.0,0.0,-0.102618990914
1505429690458932507,0.0,0.0,-0.399451911449,-2000.0,0.0,-0.102618990914
1505429690468415611,0.0,0.0,-0.399533301592,-2000.0,0.0,-0.102618990914
1505429690470487157,0.0,0.0,-0.399533301592,-2000.0,0.0,-0.102618990914
1505429690480248297,0.0,0.0,-0.399587720633,-2000.0,0.0,-0.0969302049059
1505429690481297598,0.0,0.0,-0.399587720633,-2000.0,0.0,-0.0969302049059
1505429690484133514,0.0,0.0,-0.399587720633,-2000.0,0.0,-0.0969302049059
1505429690489196224,0.0,0.0,-0.39973667264,-2000.0,0.0,-0.0969302049059
1505429690493911967,0.0,0.0,-0.39973667264,-2000.0,0.0,-0.0969302049059
1505429690501773535,0.0,0.0,-0.399724185467,-2000.0,0.0,-0.0969302049059
1505429690504894266,0.0,0.0,-0.399724185467,-2000.0,0.0,-0.0969302049059
1505429690509348304,0.0,0.0,-0.399946212769,-2000.0,0.0,-0.0969302049059
1505429690514332755,0.0,0.0,-0.399946212769,-2000.0,0.0,-0.0969302049059
1505429690519583592,0.0,0.0,-0.399929195642,-2000.0,0.0,-0.0969302049059
1505429690524743112,0.0,0.0,-0.399929195642,-2000.0,0.0,-0.0971863589875
1505429690544925308,0.0,0.0,-0.400179237127,-2000.0,0.0,-0.0971863589875
1505429690557672567,0.0,0.0,-0.400286972523,-2000.0,0.0,-0.0971863589875
1505429690557889149,0.0,0.0,-0.400286972523,-2000.0,0.0,-0.0971863589875
1505429690559173781,0.0,0.0,-0.400286972523,-2000.0,0.0,-0.0971863589875
1505429690573175965,0.0,0.0,-0.400384187698,-2000.0,0.0,-0.0971863589875
1505429690609878443,0.0,0.0,-0.401196986437,-2000.0,0.0,-0.103075927025
1505429690611345515,0.0,0.0,-0.401196986437,-2000.0,0.0,-0.103075927025
1505429690616814472,0.0,0.0,-0.40165168047,-2000.0,0.0,-0.103075927025
1505429690619452439,0.0,0.0,-0.40165168047,-2000.0,0.0,-0.103075927025
1505429690620837865,0.0,0.0,-0.40165168047,-2000.0,0.0,-0.103075927025
1505429690622652346,0.0,0.0,-0.40165168047,-2000.0,0.0,-0.103075927025
1505429690623798317,0.0,0.0,-0.40165168047,-2000.0,0.0,-0.108764578252
1505429690624877568,0.0,0.0,-0.40165168047,-2000.0,0.0,-0.108764578252
1505429690625787125,0.0,0.0,-0.40165168047,-2000.0,0.0,-0.108764578252
1505429690627502448,0.0,0.0,-0.402040332556,-2000.0,0.0,-0.108764578252
1505429690627575907,0.0,0.0,-0.402040332556,-2000.0,0.0,-0.108764578252
1505429690636851748,0.0,0.0,-0.402040332556,-2000.0,0.0,-0.108764578252
1505429690636855542,0.0,0.0,-0.402040332556,-2000.0,0.0,-0.108764578252
1505429690637585887,0.0,0.0,-0.402261137962,-2000.0,0.0,-0.108764578252
1505429690639809015,0.0,0.0,-0.402261137962,-2000.0,0.0,-0.108764578252
1505429690654529854,0.0,0.0,-0.402912825346,-2000.0,0.0,-0.108764578252
1505429690656538211,0.0,0.0,-0.402912825346,-2000.0,0.0,-0.108764578252
1505429690658403614,0.0,0.0,-0.403382688761,-2000.0,0.0,-0.108764578252
1505429690661860864,0.0,0.0,-0.403382688761,-2000.0,0.0,-0.108764578252
1505429690665235280,0.0,0.0,-0.403382688761,-2000.0,0.0,-0.108764578252
1505429690670561034,0.0,0.0,-0.403914839029,-2000.0,0.0,-0.108764578252
1505429690676724240,0.0,0.0,-0.403914839029,-2000.0,0.0,-0.116384955309
1505429690683626941,0.0,0.0,-0.404615908861,-2000.0,0.0,-0.116384955309
1505429690685962951,0.0,0.0,-0.404615908861,-2000.0,0.0,-0.116384955309
1505429690690309840,0.0,0.0,-0.405537694693,-2000.0,0.0,-0.116384955309
1505429690702733395,0.0,0.0,-0.406231045723,-2000.0,0.0,-0.116384955309
1505429690704027922,0.0,0.0,-0.406231045723,-2000.0,0.0,-0.116384955309
1505429690706865530,0.0,0.0,-0.407098829746,-2000.0,0.0,-0.116384955309
1505429690713247591,0.0,0.0,-0.407098829746,-2000.0,0.0,-0.116384955309
1505429690721672401,0.0,0.0,-0.407812386751,-2000.0,0.0,-0.116384955309
1505429690730368199,0.0,0.0,-0.408564597368,-2000.0,0.0,-0.117219821766
1505429690746457424,0.0,0.0,-0.409654915333,-2000.0,0.0,-0.117219821766
1505429690749640128,0.0,0.0,-0.410597652197,-2000.0,0.0,-0.117219821766
1505429690749647090,0.0,0.0,-0.410597652197,-2000.0,0.0,-0.117219821766
1505429690751551035,0.0,0.0,-0.410597652197,-2000.0,0.0,-0.117219821766
1505429690769987597,0.0,0.0,-0.412466496229,-2000.0,0.0,-0.117219821766
1505429690771014863,0.0,0.0,-0.412466496229,-2000.0,0.0,-0.117219821766
1505429690778985287,0.0,0.0,-0.413483709097,-2000.0,0.0,-0.120758668156
1505429690782638411,0.0,0.0,-0.413483709097,-2000.0,0.0,-0.120758668156
1505429690786675048,0.0,0.0,-0.414693683386,-2000.0,0.0,-0.120758668156
1505429690787409478,0.0,0.0,-0.414693683386,-2000.0,0.0,-0.120758668156
1505429690794231075,0.0,0.0,-0.414693683386,-2000.0,0.0,-0.120758668156
1505429690802806312,0.0,0.0,-0.415864914656,-2000.0,0.0,-0.120758668156
1505429690807151952,0.0,0.0,-0.416903614998,-2000.0,0.0,-0.120758668156
1505429690807222573,0.0,0.0,-0.416903614998,-2000.0,0.0,-0.120758668156
1505429690810747877,0.0,0.0,-0.416903614998,-2000.0,0.0,-0.120758668156
1505429690818746808,0.0,0.0,-0.417995363474,-2000.0,0.0,-0.120758668156
1505429690819533613,0.0,0.0,-0.417995363474,-2000.0,0.0,-0.120758668156
1505429690834587176,0.0,0.0,-0.4192532897,-2000.0,0.0,-0.118833432134
1505429690841737157,0.0,0.0,-0.420405775309,-2000.0,0.0,-0.118833432134
1505429690842737825,0.0,0.0,-0.420405775309,-2000.0,0.0,-0.118833432134
1505429690844757114,0.0,0.0,-0.420405775309,-2000.0,0.0,-0.118833432134
1505429690844919521,0.0,0.0,-0.420405775309,-2000.0,0.0,-0.118833432134
1505429690848002511,0.0,0.0,-0.42177644372,-2000.0,0.0,-0.118833432134
1505429690850856592,0.0,0.0,-0.42177644372,-2000.0,0.0,-0.118833432134
1505429690858888334,0.0,0.0,-0.423097878695,-2000.0,0.0,-0.118833432134
1505429690862411516,0.0,0.0,-0.423097878695,-2000.0,0.0,-0.118833432134
1505429690872055461,0.0,0.0,-0.42423003912,-2000.0,0.0,-0.118833432134
1505429690872303000,0.0,0.0,-0.42423003912,-2000.0,0.0,-0.118833432134
1505429690877359101,0.0,0.0,-0.425621300936,-2000.0,0.0,-0.117711990407
1505429690881056900,0.0,0.0,-0.425621300936,-2000.0,0.0,-0.117711990407
1505429690885877092,0.0,0.0,-0.425621300936,-2000.0,0.0,-0.117711990407
1505429690890988687,0.0,0.0,-0.426954299212,-2000.0,0.0,-0.117711990407
1505429690896709486,0.0,0.0,-0.428079098463,-2000.0,0.0,-0.117711990407
1505429690902992622,0.0,0.0,-0.428079098463,-2000.0,0.0,-0.117711990407
1505429690906127159,0.0,0.0,-0.428079098463,-2000.0,0.0,-0.117711990407
1505429690911317666,0.0,0.0,-0.429613143206,-2000.0,0.0,-0.117711990407
1505429690916963641,0.0,0.0,-0.430718183517,-2000.0,0.0,-0.117711990407
1505429690922640833,0.0,0.0,-0.430718183517,-2000.0,0.0,-0.117711990407
1505429690929036249,0.0,0.0,-0.432199031115,-2000.0,0.0,-0.118870164126
1505429690939215923,0.0,0.0,-0.433537900448,-2000.0,0.0,-0.118870164126
1505429690941174662,0.0,0.0,-0.433537900448,-2000.0,0.0,-0.118870164126
1505429690946234024,0.0,0.0,-0.433537900448,-2000.0,0.0,-0.118870164126
1505429690956185325,0.0,0.0,-0.434656172991,-2000.0,0.0,-0.118870164126
1505429690962121095,0.0,0.0,-0.436148226261,-2000.0,0.0,-0.118870164126
1505429690968963649,0.0,0.0,-0.437364131212,-2000.0,0.0,-0.118870164126
1505429690971401184,0.0,0.0,-0.437364131212,-2000.0,0.0,-0.118870164126
1505429690976712971,0.0,0.0,-0.438785672188,-2000.0,0.0,-0.117051513608
1505429690981363375,0.0,0.0,-0.438785672188,-2000.0,0.0,-0.117051513608
1505429690987793280,0.0,0.0,-0.440190643072,-2000.0,0.0,-0.117051513608
1505429690992081552,0.0,0.0,-0.440190643072,-2000.0,0.0,-0.117051513608
1505429691001124855,0.0,0.0,-0.441370069981,-2000.0,0.0,-0.117051513608
1505429691006657475,0.0,0.0,-0.442835152149,-2000.0,0.0,-0.117051513608
1505429691011548836,0.0,0.0,-0.442835152149,-2000.0,0.0,-0.117051513608
1505429691016964043,0.0,0.0,-0.44417989254,-2000.0,0.0,-0.117051513608
1505429691021665422,0.0,0.0,-0.44417989254,-2000.0,0.0,-0.117051513608
1505429691028026379,0.0,0.0,-0.445518642664,-2000.0,0.0,-0.115924235985
1505429691037004577,0.0,0.0,-0.446946322918,-2000.0,0.0,-0.115924235985
1505429691037614201,0.0,0.0,-0.446946322918,-2000.0,0.0,-0.115924235985
1505429691042347234,0.0,0.0,-0.446946322918,-2000.0,0.0,-0.115924235985
1505429691046738109,0.0,0.0,-0.44816121459,-2000.0,0.0,-0.115924235985
1505429691055405808,0.0,0.0,-0.44816121459,-2000.0,0.0,-0.115924235985
1505429691058554601,0.0,0.0,-0.449646055698,-2000.0,0.0,-0.115924235985
1505429691070985648,0.0,0.0,-0.451013505459,-2000.0,0.0,-0.115924235985
1505429691070996774,0.0,0.0,-0.451013505459,-2000.0,0.0,-0.115924235985
1505429691072212641,0.0,0.0,-0.451013505459,-2000.0,0.0,-0.115924235985
1505429691078587221,0.0,0.0,-0.452217072248,-2000.0,0.0,-0.115543934618
1505429691082104211,0.0,0.0,-0.452217072248,-2000.0,0.0,-0.115543934618
1505429691087393418,0.0,0.0,-0.453490585089,-2000.0,0.0,-0.115543934618
1505429691092168334,0.0,0.0,-0.453490585089,-2000.0,0.0,-0.115543934618
1505429691101188342,0.0,0.0,-0.454758197069,-2000.0,0.0,-0.115543934618
1505429691102257445,0.0,0.0,-0.454758197069,-2000.0,0.0,-0.115543934618
1505429691107636089,0.0,0.0,-0.456000179052,-2000.0,0.0,-0.115543934618
1505429691112152932,0.0,0.0,-0.456000179052,-2000.0,0.0,-0.115543934618
1505429691119189482,0.0,0.0,-0.457362085581,-2000.0,0.0,-0.115543934618
1505429691126097205,0.0,0.0,-0.457362085581,-2000.0,0.0,-0.115126113822
1505429691126936348,0.0,0.0,-0.458472073078,-2000.0,0.0,-0.115126113822
1505429691134223670,0.0,0.0,-0.458472073078,-2000.0,0.0,-0.115126113822
1505429691137340917,0.0,0.0,-0.459745794535,-2000.0,0.0,-0.115126113822
1505429691142424976,0.0,0.0,-0.459745794535,-2000.0,0.0,-0.115126113822
1505429691147267593,0.0,0.0,-0.460856944323,-2000.0,0.0,-0.115126113822
1505429691152486190,0.0,0.0,-0.460856944323,-2000.0,0.0,-0.115126113822
1505429691157774665,0.0,0.0,-0.462045103312,-2000.0,0.0,-0.115126113822
1505429691172427250,0.0,0.0,-0.463290244341,-2000.0,0.0,-0.115126113822
1505429691178709146,0.0,0.0,-0.464282095432,-2000.0,0.0,-0.114552748487
1505429691180739195,0.0,0.0,-0.464282095432,-2000.0,0.0,-0.114552748487
1505429691180742711,0.0,0.0,-0.464282095432,-2000.0,0.0,-0.114552748487
1505429691184164436,0.0,0.0,-0.464282095432,-2000.0,0.0,-0.114552748487
1505429691187812515,0.0,0.0,-0.465366512537,-2000.0,0.0,-0.114552748487
1505429691192495883,0.0,0.0,-0.465366512537,-2000.0,0.0,-0.114552748487
