%time,field.header.seq,field.header.stamp,field.header.frame_id,field.pose.position.x,field.pose.position.y,field.pose.position.z,field.pose.orientation.x,field.pose.orientation.y,field.pose.orientation.z,field.pose.orientation.w
1505429686806031643,0,1505429686805900168,world,0.340278089046,0.0457394942641,-0.255723983049,-0.00556624308228,-0.999122977257,0.000376307027182,0.0414992533624
1505429686816313719,1,1505429686816126940,world,0.340344190598,0.0457287430763,-0.253347426653,-0.00550148822367,-0.99912494421,0.000509890262038,0.0414573848248
1505429686826575652,2,1505429686826400628,world,0.34046921134,0.0455723330379,-0.251060396433,-0.00563726900145,-0.999125123024,0.000724966055714,0.0414335094392
1505429686837324691,3,1505429686837176801,world,0.340565770864,0.0454944707453,-0.248799562454,-0.0061662052758,-0.999131977558,0.0011114787776,0.0411812178791
1505429686846623872,4,1505429686846495807,world,0.340574383736,0.0455827377737,-0.246382892132,-0.00592027930543,-0.999132215977,0.000789599493146,0.0412198901176
1505429686855817399,5,1505429686855651351,world,0.340616077185,0.0455538891256,-0.24417065084,-0.00606867717579,-0.999136447906,0.000693013658747,0.0410970933735
1505429686866066014,6,1505429686865929770,world,0.340700089931,0.0455525778234,-0.241755738854,-0.00587360654026,-0.999143242836,0.000720834359527,0.0409595258534
1505429686877198247,7,1505429686876153112,world,0.340738296509,0.0455863028765,-0.239422500134,-0.00581241445616,-0.99914175272,0.00131197762676,0.0409894473851
1505429686886511522,8,1505429686886347029,world,0.34085175395,0.0454587340355,-0.237103104591,-0.00598827097565,-0.999151110649,0.00141264707781,0.0407324209809
1505429686896566878,9,1505429686895686240,world,0.340664386749,0.0457194074988,-0.234815716743,-0.00557910883799,-0.999131083488,0.000748466467485,0.0412960201502
1505429686906002194,10,1505429686905876288,world,0.340544909239,0.0456858351827,-0.232496365905,-0.00580452289432,-0.999103724957,0.000684770115186,0.0419241935015
1505429686916283440,11,1505429686916129028,world,0.340367138386,0.0456550531089,-0.230066508055,-0.00531842093915,-0.999080955982,0.00113907293417,0.0425148680806
1505429686926959518,12,1505429686926855471,world,0.340407192707,0.0457532182336,-0.227779999375,-0.00503889424726,-0.999086737633,0.00099338835571,0.0424185544252
1505429686936334023,13,1505429686936200222,world,0.341067075729,0.0450495220721,-0.225423574448,-0.00583314150572,-0.999146938324,0.00309157324955,0.0407642424107
1505429686946551794,14,1505429686946397529,world,0.340858161449,0.0453731752932,-0.223151862621,-0.00517892092466,-0.999141573906,0.00227930466644,0.0410373546183
1505429686956816520,15,1505429686956618803,world,0.340900480747,0.0452380478382,-0.22068348527,-0.00552860787138,-0.999117732048,0.00267604319379,0.0415447801352
1505429686965987683,16,1505429686965858178,world,0.340886861086,0.0451522134244,-0.218375250697,-0.00560712302104,-0.999096691608,0.00282291183248,0.0420286916196
1505429686976721599,17,1505429686976122136,world,0.340925753117,0.0453455932438,-0.215993046761,-0.00585840968415,-0.999085247517,0.00207346118987,0.0423088818789
1505429686986616505,18,1505429686986411503,world,0.341100931168,0.0452033393085,-0.213646456599,-0.00562525121495,-0.999115169048,0.0021456994582,0.0416239574552
1505429686996875308,19,1505429686996667914,world,0.341303914785,0.0450629331172,-0.21126408875,-0.00609379354864,-0.999132514,0.00225704605691,0.0411325581372
1505429687006039868,20,1505429687005927831,world,0.341260284185,0.0450676083565,-0.208874836564,-0.00577267026529,-0.999136984348,0.00249325088225,0.0410583429039
1505429687016479446,21,1505429687016242891,world,0.341137230396,0.0452507846057,-0.206510782242,-0.00548349367455,-0.999107182026,0.00168896827381,0.0418565608561
1505429687026677018,22,1505429687026523674,world,0.341160595417,0.0450503788888,-0.204241931438,-0.0053820675239,-0.999102473259,0.00231811543927,0.0419514998794
1505429687036228126,23,1505429687036032971,world,0.341216653585,0.0451972857118,-0.201988935471,-0.0061130351387,-0.999091565609,0.00247550942004,0.0421019792557
1505429687046457321,24,1505429687046313410,world,0.341183632612,0.0453254766762,-0.199767619371,-0.0057159755379,-0.999086558819,0.0020973959472,0.0422971174121
1505429687056836193,25,1505429687056559037,world,0.341308265924,0.0451120808721,-0.197527244687,-0.00588025525212,-0.999090015888,0.00279697892256,0.0421516187489
1505429687066057884,26,1505429687065892525,world,0.341351866722,0.0452016554773,-0.195474311709,-0.00601480249316,-0.999086678028,0.00229058670811,0.0422423705459
1505429687076468350,27,1505429687076181435,world,0.341332644224,0.0450126864016,-0.193197444081,-0.00558559829369,-0.999067425728,0.003548493376,0.0426679588854
1505429687086727684,28,1505429687086546510,world,0.341346979141,0.0452319979668,-0.191036090255,-0.00595163926482,-0.999063313007,0.00394366122782,0.0426786467433
1505429687096050467,29,1505429687095869114,world,0.341378986835,0.0452850498259,-0.188909366727,-0.00618950696662,-0.99905705452,0.00368954660371,0.0428143441677
1505429687106308298,30,1505429687106146937,world,0.34137570858,0.0451292172074,-0.186668097973,-0.00581471296027,-0.999051034451,0.00478489184752,0.04289990291
1505429687116609492,31,1505429687116359699,world,0.341444283724,0.0452142208815,-0.184398069978,-0.00599094387144,-0.999059855938,0.00472748745233,0.0426738113165
1505429687126731729,32,1505429687126622392,world,0.341551601887,0.0450725518167,-0.182151779532,-0.00585264712572,-0.999066829681,0.00491215707734,0.042509291321
1505429687186575638,33,1505429687186336713,world,0.341819614172,0.0453894622624,-0.167925208807,-0.00587358232588,-0.99905371666,0.00304497359321,0.0429872274399
1505429687196844258,34,1505429687196607667,world,0.341908603907,0.0453538633883,-0.165659993887,-0.00566239701584,-0.999055624008,0.00298211886548,0.0429765805602
1505429687205982155,35,1505429687205828396,world,0.341834187508,0.0455557741225,-0.16317127645,-0.00564058031887,-0.999039709568,0.00247248681262,0.0433791391551
1505429687216249306,36,1505429687216048458,world,0.341826587915,0.0455614589155,-0.160854965448,-0.00522227911279,-0.999037802219,0.00221814750694,0.043488111347
1505429687226537252,37,1505429687226415990,world,0.341937571764,0.0455660820007,-0.158472269773,-0.00515525881201,-0.999045550823,0.00181254884228,0.0433367192745
1505429687236850352,38,1505429687236610195,world,0.341957896948,0.0454923249781,-0.15622638166,-0.00512640504166,-0.999045133591,0.0019310452044,0.0433450080454
1505429687245969935,39,1505429687245866466,world,0.341994434595,0.0455156750977,-0.153947263956,-0.00520009547472,-0.99904435873,0.00190001737792,0.0433559343219
1505429687256236353,40,1505429687256061340,world,0.342001914978,0.0454355888069,-0.151786491275,-0.00504757417366,-0.999040305614,0.00206516403705,0.0434576869011
1505429687266374414,41,1505429687266245108,world,0.342033535242,0.0455156601965,-0.149704486132,-0.00491137802601,-0.99903434515,0.00159510213416,0.04363264516
1505429687276754244,42,1505429687276473047,world,0.34201914072,0.0456411093473,-0.147618636489,-0.00463041197509,-0.999039232731,0.00130238628481,0.0435594469309
1505429687285793886,43,1505429687285692762,world,0.342136621475,0.0454669520259,-0.145500198007,-0.00456916727126,-0.999054431915,0.00252441503108,0.0431613363326
1505429687296065407,44,1505429687295897205,world,0.34219750762,0.0454551167786,-0.143434643745,-0.00461393222213,-0.999050140381,0.00284958491102,0.0432356074452
1505429687306225713,45,1505429687306089845,world,0.34217068553,0.0454879365861,-0.141297265887,-0.00429755076766,-0.999043762684,0.00287143769674,0.0434142872691
1505429687316489168,46,1505429687316326482,world,0.342168807983,0.0452623851597,-0.13921649754,-0.00386426155455,-0.999038755894,0.00376228406094,0.0435032062232
1505429687326714894,47,1505429687326601633,world,0.342149823904,0.0452839247882,-0.137013107538,-0.00377777521499,-0.999028027058,0.0035364665091,0.0437740162015
1505429687336186741,48,1505429687335929083,world,0.342201054096,0.0451891124249,-0.134840875864,-0.00373903196305,-0.999028205872,0.00379605218768,0.0437527596951
1505429687346416507,49,1505429687346183974,world,0.342239946127,0.0453226603568,-0.132578551769,-0.00386159191839,-0.999034166336,0.00269055669196,0.0436879731715
1505429687356767538,50,1505429687356423670,world,0.3422716856,0.0452968776226,-0.130302414298,-0.00368608231656,-0.999035060406,0.00268709030934,0.0436817482114
1505429687366915298,51,1505429687366711301,world,0.342298656702,0.045280456543,-0.128079295158,-0.00350370723754,-0.999030292034,0.00255624880083,0.0438151992857
1505429687376210329,52,1505429687375995704,world,0.342258840799,0.0454585850239,-0.12583579123,-0.00284242536873,-0.999026894569,0.00162758352235,0.0439833328128
1505429687386484242,53,1505429687386263678,world,0.342296719551,0.0455395616591,-0.123655535281,-0.00290012103505,-0.999026179314,0.00100615073461,0.0440136753023
1505429687396655445,54,1505429687396475352,world,0.34232339263,0.0453758426011,-0.121561191976,-0.00294577679597,-0.99902176857,0.00176467082929,0.0440875329077
1505429687406916886,55,1505429687406696338,world,0.342440336943,0.0453839078546,-0.119459494948,-0.00287074386142,-0.999036848545,0.00219939858653,0.0437315963209
1505429687416120358,56,1505429687415948267,world,0.342479974031,0.045261349529,-0.117491826415,-0.00290978257544,-0.99903345108,0.00251148687676,0.043788742274
1505429687426427661,57,1505429687426213385,world,0.342449486256,0.0451617203653,-0.115500412881,-0.00278700934723,-0.999022603035,0.00357457529753,0.0439694486558
1505429687436720825,58,1505429687436506672,world,0.342478960752,0.0451394841075,-0.113585904241,-0.0025499581825,-0.999030947685,0.00465644802898,0.0436921231449
1505429687445880190,59,1505429687445753748,world,0.342484027147,0.0450830087066,-0.111651994288,-0.00220642052591,-0.999031662941,0.0047954628244,0.0436799712479
1505429687456106330,60,1505429687455932421,world,0.342504769564,0.0451120771468,-0.109670490026,-0.00230961595662,-0.999033212662,0.00507374247536,0.0436062142253
1505429687466272326,61,1505429687466157708,world,0.342520594597,0.0450536496937,-0.107732407749,-0.00249894196168,-0.999022185802,0.00570429256186,0.0437714681029
1505429687476582845,62,1505429687476419993,world,0.34269836545,0.0448583289981,-0.10572244972,-0.002404832514,-0.999033987522,0.00637128669769,0.0434134416282
1505429687486881418,63,1505429687486682458,world,0.342683881521,0.044934310019,-0.103598639369,-0.00213969685137,-0.999027609825,0.00641464488581,0.0435658916831
1505429687496192534,64,1505429687495913459,world,0.342760384083,0.0450597926974,-0.101581223309,-0.00237058335915,-0.999045491219,0.00551645364612,0.0432680211961
1505429687506386533,65,1505429687506158598,world,0.342853009701,0.0450047403574,-0.0993882864714,-0.00230964506045,-0.999047040939,0.00576056400314,0.043202124536
1505429687516653636,66,1505429687516383468,world,0.342946261168,0.0450423881412,-0.0972572416067,-0.00236086267978,-0.999056816101,0.00533448532224,0.0430293120444
1505429687526328150,67,1505429687526184776,world,0.342969298363,0.0451495684683,-0.0950475260615,-0.00234570563771,-0.999048352242,0.00508585013449,0.0432549007237
1505429687536674646,68,1505429687536416729,world,0.343047648668,0.0452628135681,-0.0928932726383,-0.00255265552551,-0.999056696892,0.00449270708486,0.0431160628796
1505429687547180147,69,1505429687547003025,world,0.34319293499,0.0451520904899,-0.0908066928387,-0.00251131225377,-0.999076783657,0.00475592911243,0.0426211506128
1505429687556375381,70,1505429687556209413,world,0.343228846788,0.0453683771193,-0.0886117443442,-0.00237893476151,-0.99908965826,0.00401914352551,0.0424038022757
1505429687566654921,71,1505429687566465513,world,0.343267410994,0.0453781895339,-0.0866396799684,-0.00257775443606,-0.999094128609,0.0034535813611,0.0423354655504
1505429687576915951,72,1505429687576683191,world,0.343357026577,0.0451829954982,-0.0846135467291,-0.00241127843037,-0.999096572399,0.00421734992415,0.0422190874815
1505429687586036375,73,1505429687585871050,world,0.343306303024,0.045326706022,-0.0825860276818,-0.00230207969435,-0.999088168144,0.0040059662424,0.042442869395
1505429687596417768,74,1505429687596141561,world,0.343322068453,0.0453397333622,-0.0806364789605,-0.00269345543347,-0.999087452888,0.00403558975086,0.042436465621
1505429687606551053,75,1505429687606399104,world,0.343446552753,0.0451711043715,-0.078679330647,-0.00260827410966,-0.999095916748,0.00491709122434,0.0421468429267
1505429687617265915,76,1505429687617103008,world,0.343544870615,0.0452053546906,-0.0767894908786,-0.00283146719448,-0.999110639095,0.00479805609211,0.0417954586446
1505429687626416524,77,1505429687626315234,world,0.343582183123,0.0452156662941,-0.0747636780143,-0.00294726155698,-0.999113559723,0.00508863199502,0.0416834205389
1505429687636743428,78,1505429687636562266,world,0.343633621931,0.0452368035913,-0.0729899182916,-0.00289562833495,-0.999120414257,0.0047144992277,0.0415660738945
1505429687645903251,79,1505429687645683676,world,0.343694120646,0.0451898127794,-0.0711011067033,-0.00284433038905,-0.999122619629,0.00516369845718,0.0414626002312
1505429687656117985,80,1505429687655964991,world,0.343745350838,0.0451644100249,-0.0692889615893,-0.00289147044532,-0.999126017094,0.00539868371561,0.0413466580212
1505429687666289950,81,1505429687666159215,world,0.343823343515,0.0452053807676,-0.0674234032631,-0.00313391443342,-0.999127745628,0.00535403424874,0.0412941798568
1505429687676915338,82,1505429687676768333,world,0.343885093927,0.045115724206,-0.0656558424234,-0.00325367623009,-0.999125540257,0.00623707845807,0.0412159264088
1505429687686160270,83,1505429687686034093,world,0.34392568469,0.0448718704283,-0.0638082325459,-0.00333118089475,-0.999111175537,0.00774042308331,0.0413015000522
1505429687696459540,84,1505429687696302234,world,0.343941688538,0.0449731275439,-0.0619477070868,-0.00352807319723,-0.999110639095,0.00780302239582,0.0412864759564
1505429687706751749,85,1505429687706525008,world,0.343948245049,0.0450691320002,-0.0601526871324,-0.00367630412802,-0.999113738537,0.00805712770671,0.0411486253142
1505429687715890766,86,1505429687715699835,world,0.343921989202,0.0449228584766,-0.058270085603,-0.00362497009337,-0.999103248119,0.00861855223775,0.0412952788174
1505429687726010924,87,1505429687725903213,world,0.343977421522,0.0448227189481,-0.0563879311085,-0.00337959942408,-0.999105155468,0.00889583025128,0.0412100665271
1505429687736465793,88,1505429687736174589,world,0.344000250101,0.0448503084481,-0.0544708222151,-0.00352719053626,-0.999097585678,0.00841342564672,0.0414821468294
1505429687746591262,89,1505429687746460016,world,0.344024270773,0.0449919067323,-0.0525630265474,-0.0035296047572,-0.99910736084,0.00755696650594,0.041410766542
1505429687755728817,90,1505429687755634967,world,0.344020485878,0.0450872331858,-0.050719384104,-0.00318044307642,-0.999111831188,0.00705387769267,0.0414208173752
1505429687765958659,91,1505429687765878272,world,0.3440990448,0.0449934527278,-0.0488393865526,-0.00299691990949,-0.999116122723,0.00737030478194,0.0412751808763
1505429687776967888,92,1505429687776178155,world,0.344082415104,0.0451279580593,-0.0469388626516,-0.00330591481179,-0.99911403656,0.0074834479019,0.0412828177214
1505429687786632258,93,1505429687786424389,world,0.34411111474,0.045120138675,-0.0450905710459,-0.00358587619849,-0.999094307423,0.00792809575796,0.0416512601078
1505429687796890468,94,1505429687796642551,world,0.344209194183,0.0450887307525,-0.0432569310069,-0.0034299553372,-0.999093353748,0.00785518437624,0.0417006611824
1505429687806095886,95,1505429687805895493,world,0.344286739826,0.0450086668134,-0.0413924828172,-0.00363305071369,-0.999088168144,0.008613971062,0.0416596978903
1505429687816857537,96,1505429687816623338,world,0.344363212585,0.0450673773885,-0.0396596826613,-0.0035180922132,-0.999103009701,0.00837474688888,0.0413594283164
1505429687826026306,97,1505429687825824464,world,0.344376444817,0.0450418740511,-0.0378201976418,-0.00342162605375,-0.999104738235,0.00798105169088,0.0414030477405
1505429687836219785,98,1505429687836046584,world,0.344404131174,0.0450383424759,-0.0360424257815,-0.00332021852955,-0.999097168446,0.00821062643081,0.0415499582887
1505429687846346200,99,1505429687846236320,world,0.344446778297,0.0449910722673,-0.0342052765191,-0.00354609265924,-0.999087333679,0.0088232178241,0.041642665863
1505429687857242147,100,1505429687856509080,world,0.344519406557,0.0451066754758,-0.0323802940547,-0.00374190299772,-0.999082505703,0.00845530349761,0.0418167114258
1505429687865898841,101,1505429687865662637,world,0.344624489546,0.0451616421342,-0.0306634362787,-0.00416499422863,-0.999090731144,0.00822204444557,0.0416279025376
1505429687876172602,102,1505429687875881792,world,0.344675064087,0.0451708287001,-0.0288937371224,-0.00410219654441,-0.999097108841,0.00778142781928,0.0415624417365
1505429687886413526,103,1505429687886268122,world,0.344790756702,0.0451595857739,-0.0271520726383,-0.00411978689954,-0.999113023281,0.00813172198832,0.0411095544696
1505429687896814301,104,1505429687896483401,world,0.344831973314,0.0451215058565,-0.0253601912409,-0.00414129905403,-0.999107241631,0.00849731545895,0.0411758832633
1505429687905817577,105,1505429687905692830,world,0.344899892807,0.0450531616807,-0.0236169248819,-0.00434498814866,-0.999103546143,0.00869088247418,0.0412025786936
1505429687916102446,106,1505429687915956721,world,0.345007956028,0.0450383983552,-0.0219102073461,-0.00435518240556,-0.999109685421,0.00861442275345,0.0410680770874
1505429687926388021,107,1505429687926230331,world,0.345081806183,0.0451887063682,-0.0201073940843,-0.0046321186237,-0.999119639397,0.00850982777774,0.0408169329166
1505429687936605702,108,1505429687936448607,world,0.345073580742,0.0453202091157,-0.0183210708201,-0.00461278297007,-0.999114692211,0.00811668112874,0.0410200767219
1505429687946953535,109,1505429687946697229,world,0.345170617104,0.0452383831143,-0.0165818314999,-0.00462260376662,-0.999107599258,0.00818228907883,0.0411786027253
1505429687956132763,110,1505429687955949137,world,0.345187664032,0.0453479997814,-0.0148895978928,-0.00482726562768,-0.999104619026,0.00744713610038,0.0413671135902
1505429687966283821,111,1505429687966197762,world,0.345252364874,0.045352589339,-0.0130588691682,-0.00519092567265,-0.999095141888,0.00778363645077,0.0414896458387
1505429687976653888,112,1505429687976417098,world,0.345318973064,0.045529410243,-0.0113620134071,-0.00505570648238,-0.999110996723,0.00745938997716,0.0411827489734
1505429687986822875,113,1505429687986700615,world,0.34540066123,0.0454929322004,-0.0096207652241,-0.0048835366033,-0.999114573002,0.00727687589824,0.04114876315
1505429687996742327,114,1505429687995950029,world,0.345400094986,0.0453731194139,-0.00790696125478,-0.00472916616127,-0.999111831188,0.00718786753714,0.0412483848631
1505429688005792930,115,1505429688005672395,world,0.345393270254,0.0454326681793,-0.00618608668447,-0.00476826261729,-0.999116539955,0.00709279999137,0.0411467887461
1505429688016783711,116,1505429688016007265,world,0.34538424015,0.0454177968204,-0.00442836619914,-0.00468322541565,-0.9991106987,0.00720500899479,0.0412803553045
1505429688026280307,117,1505429688026165664,world,0.345434904099,0.0454586446285,-0.00268653128296,-0.00457701226696,-0.999112606049,0.00683716870844,0.0413081161678
1505429688036695783,118,1505429688036403597,world,0.345444917679,0.0455051362514,-0.000995200476609,-0.00486399559304,-0.999110400677,0.00651535205543,0.0413801148534
1505429688046817649,119,1505429688046649177,world,0.345493495464,0.0455191098154,0.000765077129472,-0.00512159988284,-0.99910312891,0.0064175631851,0.0415405072272
1505429688056090883,120,1505429688055842814,world,0.345437258482,0.0454528406262,0.0025804056786,-0.00486325565726,-0.999089479446,0.00654588732868,0.04187688604
1505429688066366451,121,1505429688066199683,world,0.345449179411,0.04553700611,0.00434689223766,-0.00488119386137,-0.999089002609,0.00587121583521,0.0419864617288
1505429688076645178,122,1505429688076454369,world,0.345476329327,0.045553278178,0.00599802145734,-0.00465361541137,-0.999095261097,0.00552780600265,0.0419101156294
1505429688085806545,123,1505429688085657490,world,0.345536828041,0.0456378012896,0.00774945458397,-0.00459840660915,-0.999099254608,0.00471827900037,0.0419211275876
1505429688096101070,124,1505429688095875114,world,0.345567762852,0.0457155741751,0.00944763515145,-0.00476212659851,-0.99909889698,0.0042161825113,0.0419641211629
1505429688106206029,125,1505429688106062884,world,0.345593035221,0.0458463393152,0.0111353620887,-0.00512050278485,-0.999089181423,0.00401930976659,0.0421716719866
1505429688116471652,126,1505429688116301279,world,0.345616191626,0.045858707279,0.0127997901291,-0.00519986404106,-0.999088704586,0.00383864832111,0.0421888753772
1505429688126698707,127,1505429688126562100,world,0.34566628933,0.0458764657378,0.0144240586087,-0.00516278343275,-0.999095439911,0.00362503505312,0.0420542135835
1505429688135944371,128,1505429688135792298,world,0.345675736666,0.0457809641957,0.0160341002047,-0.00486321467906,-0.999096751213,0.00385198951699,0.0420378670096
1505429688146193096,129,1505429688146101477,world,0.345701873302,0.0458320900798,0.0174978226423,-0.00473047513515,-0.999097406864,0.0035059156362,0.0420676656067
1505429688156909787,130,1505429688156333505,world,0.345710545778,0.0458760857582,0.0189932640642,-0.0046104718931,-0.99909222126,0.0037939986214,0.0421795472503
1505429688166705518,131,1505429688166523610,world,0.345752686262,0.045894343406,0.0204224344343,-0.00475294049829,-0.999089837074,0.00357254268602,0.0422409139574
1505429688175833601,132,1505429688175690439,world,0.345820337534,0.045895922929,0.0218460615724,-0.0049846614711,-0.999092519283,0.00392094813287,0.0421179831028
1505429688186041085,133,1505429688185933327,world,0.345834344625,0.0459156520665,0.0232836361974,-0.00501457182691,-0.999090909958,0.00413890881464,0.0421316847205
1505429688196843798,134,1505429688196726008,world,0.345839858055,0.0459353588521,0.0246685612947,-0.00489620631561,-0.999078333378,0.00406823726371,0.0424502193928
1505429688206028101,135,1505429688205902518,world,0.34580591321,0.0458866544068,0.0261269509792,-0.0044896597974,-0.999066650867,0.00454895664006,0.0427209995687
1505429688216309658,136,1505429688216107793,world,0.345846712589,0.0457064695656,0.0275812596083,-0.00435469765216,-0.999063432217,0.0051040831022,0.0427477397025
1505429688226628402,137,1505429688226359927,world,0.345862090588,0.0457967929542,0.0290114674717,-0.00460153957829,-0.999074995518,0.00484256073833,0.0424792692065
1505429688236772386,138,1505429688236580793,world,0.345879048109,0.0458887591958,0.0305101741105,-0.00442928122357,-0.999088704586,0.00455919420347,0.042206633836
1505429688245961552,139,1505429688245834448,world,0.345903933048,0.0459699705243,0.0318726375699,-0.00448165182024,-0.9990888834,0.00401064753532,0.0422513484955
1505429688256853295,140,1505429688256677376,world,0.345911443233,0.0459693558514,0.0333642028272,-0.00417259987444,-0.999079406261,0.00419305916876,0.0424895137548
1505429688265921596,141,1505429688265847080,world,0.345926374197,0.0459299571812,0.0348559729755,-0.00418760208413,-0.999075174332,0.00459283404052,0.0425469242036
1505429688276214911,142,1505429688276067830,world,0.345905572176,0.046048887074,0.0363047234714,-0.00416510226205,-0.99908041954,0.0042602471076,0.0424601025879
1505429688286430702,143,1505429688286275731,world,0.345892012119,0.0461272150278,0.0377474017441,-0.00412098690867,-0.999080300331,0.00389680988155,0.0425024740398
1505429688295900424,144,1505429688295719378,world,0.345926970243,0.0460395589471,0.0391782261431,-0.00401142565534,-0.999079227448,0.00416548503563,0.0425118133426
1505429688306010038,145,1505429688305896101,world,0.346001923084,0.0460475645959,0.0405812896788,-0.00385309197009,-0.99907964468,0.00429804669693,0.0425034873188
1505429688316859393,146,1505429688316143154,world,0.34603458643,0.0460945591331,0.0419021546841,-0.00388220488094,-0.99907374382,0.00399289419875,0.0426693111658
1505429688326640565,147,1505429688326416582,world,0.345974624157,0.0462212599814,0.0432732589543,-0.00392903573811,-0.99905693531,0.00392020400614,0.0430631153286
1505429688336949452,148,1505429688336739046,world,0.345984786749,0.0462971888483,0.0445537567139,-0.00394075084478,-0.999059259892,0.00360697577707,0.0430368445814
1505429688345994794,149,1505429688345912443,world,0.346042633057,0.0463267527521,0.0458340346813,-0.00397478742525,-0.999068260193,0.00371175655164,0.042814783752
1505429688356271899,150,1505429688356124075,world,0.346090525389,0.0461911782622,0.0471097230911,-0.00375456525944,-0.999073207378,0.00445295125246,0.0426478795707
1505429688366508956,151,1505429688366380111,world,0.346100479364,0.0460631065071,0.0483863465488,-0.00354403280653,-0.999066770077,0.00532969040796,0.0427144803107
1505429688376854729,152,1505429688376644350,world,0.346066862345,0.0460136197507,0.0497153364122,-0.00355331646279,-0.999044179916,0.0056404392235,0.0431995615363
1505429688386047590,153,1505429688385908299,world,0.346051245928,0.0460162609816,0.0509366169572,-0.00363733898848,-0.999023139477,0.0055406652391,0.0436895899475
1505429688396836530,154,1505429688396187931,world,0.346059113741,0.0461052432656,0.0522866100073,-0.00381933432072,-0.999016225338,0.00536121055484,0.0438547953963
1505429688406570118,155,1505429688406460297,world,0.346138566732,0.0461797602475,0.0535519011319,-0.00367209711112,-0.999031662941,0.00478378823027,0.0435827709734
1505429688415911978,156,1505429688415712588,world,0.346204698086,0.0463454276323,0.0548011250794,-0.00352213694714,-0.999050855637,0.00399190792814,0.0432315133512
1505429688426217793,157,1505429688426064525,world,0.346231341362,0.0463958866894,0.0561801791191,-0.00349670439027,-0.999057352543,0.00369358854368,0.043110538274
1505429688436733433,158,1505429688436301844,world,0.346251308918,0.0463751591742,0.0574761480093,-0.00350191770121,-0.999054431915,0.00375149026513,0.0431732088327
1505429688446715035,159,1505429688446540224,world,0.346335381269,0.046344012022,0.0587878264487,-0.00332220899872,-0.999060213566,0.00382295344025,0.0430473722517
1505429688455904532,160,1505429688455675044,world,0.346434921026,0.0462373159826,0.0600377619267,-0.00332731963135,-0.999070763588,0.00388045422733,0.0427939593792
1505429688466103597,161,1505429688465937260,world,0.34651440382,0.0462861731648,0.061243686825,-0.00343366921879,-0.999086916447,0.00370919378474,0.0424239039421
1505429688476456923,162,1505429688476183249,world,0.346539586782,0.0464603304863,0.0624154433608,-0.00357963307761,-0.999098718166,0.00358904991299,0.0421432256699
1505429688486772905,163,1505429688486461839,world,0.3465667665,0.0463803857565,0.0635312795639,-0.00334763200954,-0.999099195004,0.00394323980436,0.0421179011464
1505429688496828963,164,1505429688496676912,world,0.346583336592,0.0463674068451,0.064620025456,-0.00336319138296,-0.999095439911,0.00431203888729,0.0421712137759
1505429688505986129,165,1505429688505873979,world,0.346558660269,0.0463886708021,0.0657555013895,-0.00336356251501,-0.99908465147,0.00451222900301,0.0424066372216
1505429688516792774,166,1505429688516670569,world,0.346586495638,0.0463446266949,0.0668596327305,-0.00344746839255,-0.999087810516,0.00512320315465,0.0422550179064
1505429688526004299,167,1505429688525908836,world,0.346622288227,0.046316601336,0.0679552555084,-0.00347598665394,-0.999093413353,0.00559740513563,0.0420582331717
1505429688536931259,168,1505429688536711611,world,0.34668058157,0.046056330204,0.069061152637,-0.00346527365036,-0.999094486237,0.006634762045,0.0418833531439
1505429688545978036,169,1505429688545876142,world,0.346741586924,0.046107377857,0.0702064409852,-0.00353039847687,-0.999096751213,0.00668056728318,0.0418173596263
1505429688556493459,170,1505429688556177371,world,0.346611469984,0.0462992340326,0.0715300068259,-0.00354922190309,-0.999084293842,0.00470454338938,0.0423785187304
1505429688566503104,171,1505429688566421509,world,0.346693068743,0.0462302155793,0.0725908055902,-0.00346204312518,-0.999098181725,0.0045850398019,0.0420706421137
1505429688576793242,172,1505429688576640333,world,0.346732765436,0.0463240519166,0.0737281441689,-0.00340031017549,-0.999108970165,0.00449736835435,0.0418280176818
1505429688585982824,173,1505429688585886812,world,0.346776396036,0.0464188233018,0.0748279243708,-0.00339735904709,-0.999113738537,0.00410433113575,0.0417533069849
1505429688596301060,174,1505429688596099997,world,0.346809864044,0.0464807488024,0.0759886428714,-0.00345697836019,-0.999111354351,0.0041966359131,0.041796207428
1505429688606568837,175,1505429688606358728,world,0.346839845181,0.0465421155095,0.0770167559385,-0.00340700568631,-0.999110937119,0.00383349345066,0.0418462045491
1505429688616880372,176,1505429688616719266,world,0.346867382526,0.046441603452,0.0780975297093,-0.00335769401863,-0.999109268188,0.00382367265411,0.0418888404965
1505429688626074914,177,1505429688625909968,world,0.346891403198,0.0464393831789,0.0791570693254,-0.00344028091058,-0.999106287956,0.00413938099518,0.0419241450727
1505429688636401881,178,1505429688636176418,world,0.3469363451,0.0464338287711,0.080189011991,-0.00365724693984,-0.999121010303,0.00419416744262,0.0415483824909
1505429688646615522,179,1505429688646415950,world,0.347007960081,0.0463338084519,0.0812053531408,-0.00360096548684,-0.999136328697,0.00458338018507,0.0411412864923
1505429688656885178,180,1505429688656657824,world,0.347044885159,0.0463242419064,0.0822461396456,-0.00355143519118,-0.999139130116,0.00485960114747,0.0410467535257
1505429688666026500,181,1505429688665871526,world,0.347045689821,0.0462393835187,0.083203330636,-0.0034543487709,-0.999130547047,0.0050183981657,0.0412436388433
1505429688676265141,182,1505429688676088312,world,0.347086727619,0.0462617501616,0.0841416567564,-0.00346285966225,-0.999126374722,0.00493302335963,0.0413543991745
1505429688686504864,183,1505429688686337932,world,0.347110629082,0.046275254339,0.085055552423,-0.00361562869512,-0.99912160635,0.00509403087199,0.041437484324
1505429688696771226,184,1505429688696589316,world,0.347103327513,0.0462870448828,0.0860155150294,-0.00374811864458,-0.999111115932,0.00517287757248,0.0416676588356
1505429688705941415,185,1505429688705853300,world,0.347100675106,0.0462900027633,0.0869385749102,-0.00377733865753,-0.999112904072,0.00536176236346,0.0415983349085
1505429688716855636,186,1505429688716121430,world,0.347119629383,0.0463013835251,0.087749607861,-0.00386209227145,-0.999119281769,0.0052293962799,0.041453730315
1505429688726074522,187,1505429688725960663,world,0.347174048424,0.0462439805269,0.0885776355863,-0.00390763953328,-0.99912828207,0.00548126781359,0.0411982536316
1505429688736482820,188,1505429688736215324,world,0.347200363874,0.0462284162641,0.0894925221801,-0.00398858683184,-0.999125659466,0.00539042055607,0.041266836226
1505429688746577414,189,1505429688746395480,world,0.347254157066,0.0461829416454,0.0904456749558,-0.00396967167035,-0.999121785164,0.00590744614601,0.0412920601666
1505429688756819929,190,1505429688756661419,world,0.347291260958,0.0462406985462,0.0913760066032,-0.00379775511101,-0.99912083149,0.00580212892964,0.0413467697799
1505429688766037577,191,1505429688765918835,world,0.347328424454,0.0461561121047,0.0922600850463,-0.00379686406814,-0.999118149281,0.00585744390264,0.041401963681
1505429688776223484,192,1505429688776107332,world,0.347334653139,0.0461546890438,0.0931189581752,-0.00383497215807,-0.99911659956,0.00558897666633,0.0414735525846
1505429688786487273,193,1505429688786324894,world,0.347298383713,0.046216096729,0.094040594995,-0.00411433773115,-0.99910736084,0.00545559218153,0.0416878387332
1505429688796693744,194,1505429688796550341,world,0.347320616245,0.0462503097951,0.0949293076992,-0.00410917121917,-0.999106049538,0.0051575913094,0.0417561940849
1505429688805913163,195,1505429688805778118,world,0.347334802151,0.0463194213808,0.095767788589,-0.00419941451401,-0.999114632607,0.00495552457869,0.0415671169758
1505429688816270824,196,1505429688816057102,world,0.347345143557,0.0462966971099,0.0965837091208,-0.00416039861739,-0.999116778374,0.00521569559351,0.0414876975119
1505429688826401486,197,1505429688826254531,world,0.347344726324,0.0462506599724,0.0973980277777,-0.00411174446344,-0.999112665653,0.0053773955442,0.0415686890483
1505429688836759245,198,1505429688836683908,world,0.347361832857,0.0462085641921,0.0982168316841,-0.00421990919858,-0.999110341072,0.00563386594877,0.0415803790092
1505429688846129153,199,1505429688845910068,world,0.347393035889,0.0462230704725,0.0989958867431,-0.0040159788914,-0.999114632607,0.00537471612915,0.0415334142745
1505429688856321574,200,1505429688856145452,world,0.34744772315,0.0462626256049,0.0997452512383,-0.00415532337502,-0.999117553234,0.00550466449931,0.041430849582
1505429688866491763,201,1505429688866319932,world,0.347493618727,0.0462762974203,0.100489772856,-0.00418949685991,-0.999117314816,0.00511498143896,0.0414850711823
1505429688876787451,202,1505429688876545302,world,0.34750187397,0.0463504418731,0.101334385574,-0.00424509122968,-0.999107003212,0.00485753454268,0.0417575836182
1505429688885859990,203,1505429688885697674,world,0.347510010004,0.0461859703064,0.102113232017,-0.00413545267656,-0.999096214771,0.00551394792274,0.0419433191419
1505429688897075480,204,1505429688896176250,world,0.347499877214,0.0461692363024,0.102870941162,-0.0040891719982,-0.999092817307,0.00530431838706,0.0420551747084
1505429688906564423,205,1505429688906475625,world,0.347492277622,0.046149071306,0.103585332632,-0.00410783896223,-0.999092340469,0.00566431740299,0.0420186594129
1505429688915925503,206,1505429688915694677,world,0.347497045994,0.0461074709892,0.104280784726,-0.00425301259384,-0.999093711376,0.0060880901292,0.0419112592936
1505429688926098865,207,1505429688925939342,world,0.34750059247,0.046144310385,0.104968950152,-0.00428976304829,-0.999092638493,0.00612000236288,0.041929949075
1505429688936408670,208,1505429688936241658,world,0.347528725863,0.0461559146643,0.105632811785,-0.00425622053444,-0.999094247818,0.00602321093902,0.0419088751078
1505429688946906507,209,1505429688946548244,world,0.347534269094,0.0461931414902,0.106296725571,-0.00423371884972,-0.999094843864,0.00567443668842,0.0419438779354
1505429688955913900,210,1505429688955706013,world,0.347568809986,0.046190276742,0.106912732124,-0.00419329060242,-0.999099433422,0.00552966166288,0.0418582297862
1505429688966128721,211,1505429688965961942,world,0.347613751888,0.0462077334523,0.107529632747,-0.00417805602774,-0.999105453491,0.00549051072448,0.0417205505073
1505429688976377798,212,1505429688976175676,world,0.347657740116,0.0462065562606,0.108155049384,-0.00421337923035,-0.99910569191,0.00569409737363,0.0416858270764
1505429688986529703,213,1505429688986380562,world,0.347645223141,0.0461934991181,0.108789429069,-0.00430816644803,-0.999091804028,0.00569081353024,0.0420068316162
1505429688996922287,214,1505429688996629483,world,0.347624629736,0.0461808815598,0.109325282276,-0.00435190275311,-0.999078333378,0.00563785899431,0.0423272848129
1505429689006073540,215,1505429689005889290,world,0.347594887018,0.0461480394006,0.109929136932,-0.00437988108024,-0.999069869518,0.00571922026575,0.0425149537623
1505429689016341577,216,1505429689016113551,world,0.347595632076,0.0460712946951,0.110533043742,-0.00447998987511,-0.9990670681,0.00633915746585,0.04248277843
1505429689026575736,217,1505429689026468270,world,0.347646892071,0.0460812970996,0.111080482602,-0.00434690574184,-0.999084711075,0.00639255391434,0.0420713834465
1505429689035830626,218,1505429689035677250,world,0.347721904516,0.0459994859993,0.111582458019,-0.0041747558862,-0.999106824398,0.00621680961922,0.0415883846581
1505429689046031229,219,1505429689045926161,world,0.347771883011,0.046056471765,0.112165465951,-0.00407220795751,-0.999115288258,0.00647160317749,0.0413552485406
1505429689056622275,220,1505429689056196024,world,0.34776481986,0.0460989736021,0.112723149359,-0.00412941910326,-0.999109148979,0.00628570187837,0.0415267236531
1505429689066682647,221,1505429689066545196,world,0.347739815712,0.0460275188088,0.113288752735,-0.00433404464275,-0.9990914464,0.00647806562483,0.0418990217149
1505429689077836662,222,1505429689077593282,world,0.34774133563,0.046061296016,0.11390530318,-0.00447580264881,-0.999081492424,0.00655747717246,0.0421080328524
1505429689086009379,223,1505429689085784344,world,0.347748637199,0.0460954979062,0.114467032254,-0.00449195876718,-0.999087452888,0.00628519942984,0.0420071110129
1505429689096722064,224,1505429689095996491,world,0.347756236792,0.0462202951312,0.11499684304,-0.00424758996814,-0.999100625515,0.0059967180714,0.0417614690959
1505429689106481391,225,1505429689106252329,world,0.347781151533,0.0461898483336,0.115424148738,-0.00403473805636,-0.999113321304,0.00562105374411,0.0415286794305
1505429689116704234,226,1505429689116515569,world,0.347759783268,0.0461721718311,0.115829601884,-0.00393969239667,-0.99910479784,0.00539724715054,0.041772224009
1505429689125933104,227,1505429689125796132,world,0.347685277462,0.0462192930281,0.116312004626,-0.00421429425478,-0.999080300331,0.00564298219979,0.0422970242798
1505429689136935503,228,1505429689136731151,world,0.347644269466,0.0461735986173,0.11670589447,-0.00434061139822,-0.999056994915,0.00591836124659,0.0427920073271
1505429689145969449,229,1505429689145896747,world,0.347607553005,0.0461333282292,0.117111928761,-0.00436227582395,-0.999042391777,0.00644664186984,0.04305363819
1505429689156342245,230,1505429689156149028,world,0.347610145807,0.0461013168097,0.11743927002,-0.0042603216134,-0.999044179916,0.00656925328076,0.0430050343275
1505429689166508477,231,1505429689166389717,world,0.347603023052,0.0461347848177,0.11773878336,-0.00414750818163,-0.999043464661,0.00638318900019,0.0430591888726
1505429689176735374,232,1505429689176633729,world,0.347572654486,0.046178419143,0.118089437485,-0.0042360778898,-0.999038279057,0.00635278504342,0.0431766062975
1505429689186001030,233,1505429689185872317,world,0.347580373287,0.0460817813873,0.118436180055,-0.00429464969784,-0.999033749104,0.0065264836885,0.0432494729757
1505429689196646406,234,1505429689196198176,world,0.347611576319,0.0460474565625,0.118794038892,-0.00429206993431,-0.999033927917,0.00706491060555,0.0431606434286
1505429689206589290,235,1505429689206450132,world,0.347640156746,0.046028457582,0.119134388864,-0.00426459452137,-0.999043405056,0.00720260245726,0.0429218709469
1505429689216893495,236,1505429689216662724,world,0.347695767879,0.0460419841111,0.119473941624,-0.00412722304463,-0.999058067799,0.00706562306732,0.042613312602
1505429689226058104,237,1505429689225905594,world,0.347748398781,0.0460977517068,0.119813941419,-0.00399177661166,-0.999073684216,0.00683882366866,0.0422977618873
1505429689236625890,238,1505429689236193686,world,0.347816377878,0.0460110157728,0.120116151869,-0.00394262047485,-0.999083638191,0.00674116145819,0.0420807600021
1505429689246589172,239,1505429689246453944,world,0.347884863615,0.0460252128541,0.120447985828,-0.00406202767044,-0.999089360237,0.00673450483009,0.0419356822968
1505429689255842354,240,1505429689255637578,world,0.34793946147,0.0460577011108,0.120765902102,-0.00411116145551,-0.999091148376,0.00677786208689,0.0418794229627
1505429689266130411,241,1505429689265926650,world,0.347953945398,0.0460362099111,0.121095918119,-0.00407377211377,-0.999085485935,0.00703859422356,0.0419773310423
1505429689277261480,242,1505429689276179550,world,0.347973167896,0.0460079424083,0.121364451945,-0.00398605084047,-0.9990914464,0.00695452606305,0.0418571718037
1505429689286534684,243,1505429689286373109,world,0.347985774279,0.045992448926,0.121552035213,-0.00395473791286,-0.999099493027,0.00655679684132,0.0417337976396
1505429689296784856,244,1505429689296596986,world,0.347978442907,0.0460214950144,0.121781401336,-0.00391871947795,-0.999103009701,0.00663406634703,0.0416390784085
1505429689306049870,245,1505429689305818944,world,0.348004877567,0.0460386648774,0.122018106282,-0.00400195922703,-0.999102652073,0.00689426669851,0.041595954448
1505429689316229441,246,1505429689316087439,world,0.347990483046,0.0459974855185,0.122277282178,-0.00404462078586,-0.999096572399,0.00721428496763,0.041686758399
1505429689326491975,247,1505429689326345432,world,0.347995907068,0.045998968184,0.122545905411,-0.00403238693252,-0.999098598957,0.00733294570819,0.0416176840663
1505429689336836369,248,1505429689336676670,world,0.347996622324,0.046044677496,0.122805207968,-0.00405041500926,-0.999106347561,0.00696517340839,0.0414933823049
1505429689346034065,249,1505429689345950108,world,0.348022520542,0.0461359396577,0.123052202165,-0.00397501466796,-0.999123096466,0.00628290930763,0.0412034466863
1505429689356632841,250,1505429689356185395,world,0.348057866096,0.0461694262922,0.123261362314,-0.00393294403329,-0.999135017395,0.0057306275703,0.0409970805049
1505429689366703585,251,1505429689366525270,world,0.348067909479,0.0463305190206,0.123515002429,-0.00393412727863,-0.999143123627,0.00503975106403,0.0408926680684
1505429689375925565,252,1505429689375792554,world,0.348053872585,0.0464945249259,0.12374419719,-0.00401801010594,-0.999138593674,0.00453506037593,0.0410540886223
1505429689386137861,253,1505429689386030747,world,0.348061770201,0.0464682020247,0.123888574541,-0.00401021586731,-0.99913752079,0.00423041637987,0.0411125831306
1505429689396575134,254,1505429689396303942,world,0.348071455956,0.0464415103197,0.123886756599,-0.00402130838484,-0.999143660069,0.00407784804702,0.0409762635827
1505429689406743658,255,1505429689406566286,world,0.348084390163,0.0464203804731,0.123852312565,-0.00397450663149,-0.999147713184,0.00412706192583,0.0408775471151
1505429689415926644,256,1505429689415789075,world,0.348066359758,0.0464631691575,0.123797014356,-0.0039882902056,-0.99914765358,0.00452348357067,0.0408353619277
1505429689426280950,257,1505429689426047073,world,0.348078072071,0.046328689903,0.123661831021,-0.00392643548548,-0.999143600464,0.00517305592075,0.0408635139465
1505429689436906463,258,1505429689436311904,world,0.348087072372,0.0461339503527,0.123478449881,-0.00394188659266,-0.999136567116,0.00577110052109,0.0409537628293
1505429689446678176,259,1505429689446498860,world,0.348059028387,0.046084202826,0.123388215899,-0.00404178351164,-0.99912828207,0.00631913077086,0.0410649329424
1505429689455821668,260,1505429689455660753,world,0.348061531782,0.0460423827171,0.123308412731,-0.00410716608167,-0.999129474163,0.00667599728331,0.0409730784595
1505429689466461231,261,1505429689465908994,world,0.348054558039,0.0460849255323,0.123284414411,-0.00402767397463,-0.999129533768,0.00655637774616,0.0410014912486
1505429689476972754,262,1505429689476771400,world,0.348061770201,0.0460372827947,0.123288653791,-0.00397840607911,-0.999130129814,0.00646674260497,0.0410045534372
1505429689486106824,263,1505429689485956046,world,0.348060876131,0.046060282737,0.123363867402,-0.00397657509893,-0.999131977558,0.00617838976905,0.0410043187439
1505429689496696620,264,1505429689496334426,world,0.348035573959,0.0462581515312,0.123514845967,-0.00399539805949,-0.999133884907,0.00569147849455,0.0410257838666
1505429689507120682,265,1505429689506586218,world,0.348046779633,0.0462600365281,0.123559772968,-0.00400203140453,-0.999136209488,0.00519261136651,0.0410350076854
1505429689516004030,266,1505429689515828482,world,0.348044753075,0.0462231785059,0.123637162149,-0.00408445764333,-0.999136507511,0.00510707031935,0.0410292670131
1505429689526176020,267,1505429689526077753,world,0.348039120436,0.0463319122791,0.123705871403,-0.00414603250101,-0.999138653278,0.00475874124095,0.0410138592124
1505429689536538474,268,1505429689536339971,world,0.348055869341,0.0463380068541,0.123722620308,-0.00393868051469,-0.999137580395,0.00485384324566,0.0410486534238
1505429689546760784,269,1505429689546572624,world,0.348051786423,0.0463480763137,0.123712651432,-0.0040666051209,-0.999138951302,0.00491008209065,0.040997132659
1505429689555951435,270,1505429689555781300,world,0.34805804491,0.0461974404752,0.123620525002,-0.00397952180356,-0.999139249325,0.00515422830358,0.0409670248628
1505429689566078335,271,1505429689566003209,world,0.34805816412,0.0461464524269,0.123546041548,-0.00402198499069,-0.999135017395,0.00557965971529,0.0410119891167
1505429689576425197,272,1505429689576243360,world,0.348040699959,0.04618069157,0.123495407403,-0.00414705276489,-0.999132573605,0.00572951091453,0.041036374867
1505429689586636898,273,1505429689586478969,world,0.348049581051,0.0461183898151,0.123417139053,-0.0040663513355,-0.999131381512,0.00586593616754,0.0410542190075
1505429689596916765,274,1505429689596700907,world,0.348039150238,0.0461143478751,0.123382650316,-0.00402265414596,-0.99912661314,0.00594169413671,0.0411645099521
1505429689606104965,275,1505429689605960099,world,0.348044633865,0.0461105033755,0.123361572623,-0.00407162727788,-0.999127805233,0.00597997941077,0.0411239042878
1505429689616339031,276,1505429689616189151,world,0.348023623228,0.0461048148572,0.123378537595,-0.00404785992578,-0.999125361443,0.00594544177875,0.0411910116673
1505429689626563590,277,1505429689626430127,world,0.348016053438,0.0461459234357,0.123395241797,-0.00408126227558,-0.999124288559,0.00563611788675,0.0412583202124
1505429689636839602,278,1505429689636698502,world,0.347995698452,0.0461664795876,0.123422697186,-0.00407337816432,-0.99911826849,0.00549153890461,0.0414237678051
1505429689646041346,279,1505429689645894497,world,0.347976505756,0.0462637767196,0.123451538384,-0.00420780107379,-0.999115526676,0.0050983633846,0.0415256433189
1505429689656612078,280,1505429689656090473,world,0.347977548838,0.0462183728814,0.123466596007,-0.00414204085246,-0.999114096165,0.00533319776878,0.0415365248919
1505429689666499422,281,1505429689666335196,world,0.347965240479,0.0462321639061,0.123439498246,-0.00414150254801,-0.999117016792,0.00526570621878,0.0414749793708
1505429689676733275,282,1505429689676587300,world,0.347978681326,0.0461545065045,0.123390048742,-0.00406065862626,-0.999119520187,0.00537043809891,0.0414112061262
1505429689685977918,283,1505429689685834863,world,0.347987741232,0.0460935421288,0.123378716409,-0.00404410762712,-0.999119222164,0.00566488830373,0.0413799248636
1505429689697734131,284,1505429689697294895,world,0.347980231047,0.0461621172726,0.123364515603,-0.00412521511316,-0.999116301537,0.00562320277095,0.0414484404027
1505429689706764474,285,1505429689706562025,world,0.347997784615,0.0461927428842,0.123319730163,-0.00417605508119,-0.999116778374,0.00561035797,0.04143448174
1505429689716049831,286,1505429689715890650,world,0.348015129566,0.0461322069168,0.12325656414,-0.00409406656399,-0.999116897583,0.00571503676474,0.0414240919054
1505429689726239605,287,1505429689726123117,world,0.348026543856,0.0460575819016,0.123186819255,-0.00406289333478,-0.999121248722,0.00572876632214,0.0413209721446
1505429689736799883,288,1505429689736337059,world,0.348015040159,0.0461184307933,0.12316673249,-0.00401684315875,-0.999124348164,0.00565783772618,0.0412611365318
1505429689746702250,289,1505429689746603754,world,0.348009198904,0.0461378879845,0.123134493828,-0.0040872390382,-0.999123632908,0.00574814109132,0.0412584505975
1505429689756051922,290,1505429689755852116,world,0.348036110401,0.0460721999407,0.123071461916,-0.00403297366574,-0.99912571907,0.00576322898269,0.0412106104195
1505429689816400763,291,1505429689815667437,world,0.348111689091,0.0460588634014,0.122600615025,-0.00399995781481,-0.999150574207,0.00592211494222,0.0405845418572
1505429689825963476,292,1505429689825841841,world,0.348138183355,0.0460343919694,0.122479274869,-0.00396568421274,-0.999157547951,0.00603940244764,0.0403981544077
1505429689836852454,293,1505429689836655604,world,0.348157197237,0.0459087751806,0.122326955199,-0.00391825661063,-0.999165296555,0.00614630617201,0.04019343853
1505429689845932199,294,1505429689845843230,world,0.348158895969,0.0459337979555,0.122216403484,-0.00388679211028,-0.999171257019,0.00627753930166,0.0400268882513
1505429689857007161,295,1505429689856588802,world,0.348166882992,0.0459080561996,0.122084543109,-0.00386156816967,-0.999177873135,0.00625590374693,0.0398695468903
1505429689866092003,296,1505429689865883248,world,0.348169386387,0.0459376461804,0.121933192015,-0.00385830085725,-0.999185264111,0.00632969290018,0.0396719314158
1505429689876577382,297,1505429689876207888,world,0.348184198141,0.0459427759051,0.121753908694,-0.00386585271917,-0.999191522598,0.00620530638844,0.0395320057869
1505429689886674763,298,1505429689886491783,world,0.348172754049,0.0459363795817,0.121528290212,-0.00394483329728,-0.999193549156,0.00612702779472,0.0394856743515
1505429689896905573,299,1505429689896691950,world,0.348163306713,0.0459799952805,0.121347218752,-0.00395280774683,-0.999192535877,0.0062464424409,0.0394919738173
1505429689906096177,300,1505429689905991165,world,0.348147213459,0.0460115522146,0.121027722955,-0.00396928098053,-0.999191820621,0.00540080666542,0.0396319925785
1505429689916437243,301,1505429689916228098,world,0.348118752241,0.0461068190634,0.120629407465,-0.0040026740171,-0.999188423157,0.00486793275923,0.0397830605507
1505429689926525754,302,1505429689926406763,world,0.348094373941,0.0461624227464,0.120238684118,-0.00405000057071,-0.99918627739,0.00477026682347,0.0398436933756
1505429689936812280,303,1505429689936651066,world,0.348084002733,0.0460918992758,0.119799897075,-0.00413155229762,-0.999180972576,0.00513971783221,0.0399234183133
1505429689945992117,304,1505429689945867101,world,0.348062694073,0.0461064428091,0.119338534772,-0.00419568922371,-0.999174952507,0.00562352826819,0.040002964437
1505429689956328605,305,1505429689956064079,world,0.348074227571,0.0459299124777,0.118751585484,-0.0042743482627,-0.999171376228,0.0060367770493,0.0400234535336
1505429689966454998,306,1505429689966320207,world,0.348056405783,0.0459092631936,0.11823426187,-0.00430021015927,-0.999171674252,0.00635572476313,0.0399638712406
1505429689976730115,307,1505429689976558487,world,0.348045557737,0.0459799282253,0.11769849807,-0.00427647307515,-0.999173879623,0.00637078238651,0.0399096570909
1505429689985990879,308,1505429689985772553,world,0.348041087389,0.0459686368704,0.117201894522,-0.00421216478571,-0.999171793461,0.00599660910666,0.0400258041918
1505429689996986042,309,1505429689995956908,world,0.348017960787,0.0459718741477,0.116754449904,-0.00423190742731,-0.99916768074,0.00613869959489,0.0401043258607
1505429690006021995,310,1505429690005852322,world,0.348021179438,0.0459233857691,0.116327412426,-0.00414756918326,-0.999164998531,0.00596336368471,0.0402066931129
1505429690066036836,311,1505429690065954412,world,0.347888290882,0.0461355783045,0.113298475742,-0.00439522834495,-0.999144911766,0.00483935838565,0.0408247299492
1505429690076413601,312,1505429690076175259,world,0.347929418087,0.0460537448525,0.112644121051,-0.00428731599823,-0.999154508114,0.00496726157144,0.0405870489776
1505429690086557982,313,1505429690086436865,world,0.34796962142,0.0460557378829,0.11196129024,-0.00421603349969,-0.999164044857,0.00473904656246,0.04038503021
1505429690096970140,314,1505429690096647197,world,0.347928136587,0.046045139432,0.111350521445,-0.00419893395156,-0.999162256718,0.00513740768656,0.0403831750154
1505429690105982462,315,1505429690105831920,world,0.347912728786,0.0460140295327,0.110680982471,-0.00407776655629,-0.999164521694,0.00540975388139,0.040303952992
1505429690116820157,316,1505429690116599681,world,0.347876369953,0.0459902472794,0.109966777265,-0.0040999436751,-0.999160885811,0.00529679330066,0.0404075309634
1505429690125911492,317,1505429690125772374,world,0.347828388214,0.0460558757186,0.109196096659,-0.00420055957511,-0.999157726765,0.00487601477653,0.040527138859
1505429690136865127,318,1505429690136588754,world,0.34782075882,0.0461578406394,0.108412981033,-0.00425933301449,-0.999160170555,0.00441680941731,0.0405143946409
1505429690146014880,319,1505429690145838502,world,0.347760528326,0.0461992248893,0.107702255249,-0.00432170880958,-0.999149143696,0.00451315939426,0.0407677479088
1505429690156328895,320,1505429690156040097,world,0.347716659307,0.0460750348866,0.106948643923,-0.00429961830378,-0.999139368534,0.00516471453011,0.0409298017621
1505429690166432461,321,1505429690166307074,world,0.347694575787,0.0460024885833,0.106211565435,-0.00415643723682,-0.99913674593,0.00542817497626,0.0409741252661
1505429690176727305,322,1505429690176591424,world,0.347633510828,0.0460304655135,0.105413250625,-0.00408369489014,-0.999127268791,0.00533769512549,0.041225746274
1505429690186064306,323,1505429690185843230,world,0.3475920856,0.0461804158986,0.104549668729,-0.00410862779245,-0.99911737442,0.00476012472063,0.0415320396423
1505429690196952660,324,1505429690196048645,world,0.347620725632,0.046159259975,0.10367744416,-0.00415704073384,-0.999116241932,0.00462134787813,0.0415706858039
1505429690206333518,325,1505429690206227385,world,0.347630262375,0.0461251102388,0.102871373296,-0.00429249601439,-0.999112963676,0.00478120567277,0.0416168645024
1505429690217027986,326,1505429690216474613,world,0.347653746605,0.04624209553,0.102037318051,-0.00437862146646,-0.999125242233,0.00480140699074,0.0413103401661
1505429690225858122,327,1505429690225685746,world,0.347627699375,0.046256840229,0.101210139692,-0.00417747488245,-0.999132871628,0.00479247327894,0.0411475524306
1505429690236144106,328,1505429690235889496,world,0.347584694624,0.0462176948786,0.100325405598,-0.00391369173303,-0.999127745628,0.00459610437974,0.041319873184
1505429690246414732,329,1505429690246166129,world,0.347544103861,0.0462985858321,0.0994746312499,-0.00388301839121,-0.999120295048,0.00399066647515,0.0415655970573
1505429690256630204,330,1505429690256433883,world,0.347511857748,0.0462490618229,0.098676122725,-0.00414235610515,-0.999113023281,0.004157315474,0.0416969358921
1505429690265844318,331,1505429690265673307,world,0.347529828548,0.0462417453527,0.097838871181,-0.00425113691017,-0.999120295048,0.00459753861651,0.0414656028152
1505429690276796880,332,1505429690275903097,world,0.347489207983,0.0461859963834,0.0969048365951,-0.00420047855005,-0.999121546745,0.00464727915823,0.0414342209697
1505429690286351824,333,1505429690286158136,world,0.347446233034,0.0462198518217,0.095942646265,-0.00410169083625,-0.999121785164,0.00415017036721,0.041492652148
1505429690296717152,334,1505429690296383437,world,0.347420275211,0.0462720915675,0.094954200089,-0.00392215559259,-0.99911993742,0.00389389344491,0.0415787659585
1505429690306873233,335,1505429690306644672,world,0.347426474094,0.0462812334299,0.0939597412944,-0.00390046043321,-0.999125361443,0.00405148649588,0.0414341576397
1505429690316450473,336,1505429690315863361,world,0.347469478846,0.0462443605065,0.0930101200938,-0.00382327544503,-0.999134719372,0.0045424066484,0.041164137423
1505429690326304068,337,1505429690326088347,world,0.347493767738,0.0461859852076,0.0920381322503,-0.0039568580687,-0.999137759209,0.00485857063904,0.0410429388285
1505429690336833234,338,1505429690336304082,world,0.347463458776,0.0462681688368,0.0910504162312,-0.00383516983129,-0.999143481255,0.00458472827449,0.0409463196993
1505429690346809469,339,1505429690346607452,world,0.347419112921,0.0463669151068,0.0899850577116,-0.00382840353996,-0.999148845673,0.00400471827015,0.0408774726093
1505429690356180037,340,1505429690355932764,world,0.34740242362,0.0463250614703,0.0889955163002,-0.00387214706279,-0.999152839184,0.00429911911488,0.0407456532121
1505429690366373291,341,1505429690366172100,world,0.347358047962,0.0462218262255,0.0880138874054,-0.00382066331804,-0.999142706394,0.00490317912772,0.0409296378493
1505429690376693625,342,1505429690376393910,world,0.347298741341,0.0461833141744,0.0870882943273,-0.00374672887847,-0.999135613441,0.00498148240149,0.0411004349589
1505429690386778425,343,1505429690386644051,world,0.347315192223,0.0462444312871,0.086024299264,-0.00369621766731,-0.99914419651,0.00459749391302,0.0409406609833
1505429690396789817,344,1505429690395885266,world,0.347329437733,0.0461945906281,0.0849403291941,-0.00362007669173,-0.999159932137,0.00464925030246,0.0405529253185
1505429690406285031,345,1505429690406153190,world,0.347288370132,0.0461261980236,0.0839589387178,-0.00363122369163,-0.999161839485,0.00470540020615,0.0405021756887
1505429690416873404,346,1505429690416586599,world,0.347268462181,0.0462507903576,0.0829628631473,-0.00365880294703,-0.999164938927,0.00453016301617,0.0404424890876
1505429690425883921,347,1505429690425784825,world,0.347238600254,0.0463452376425,0.0819176808,-0.00368318660185,-0.999158680439,0.00410752790049,0.0406367965043
1505429690436856060,348,1505429690436667859,world,0.347191333771,0.0464070700109,0.0808984488249,-0.00373262562789,-0.999149978161,0.00387572171167,0.0408704951406
1505429690446108881,349,1505429690445926724,world,0.347182303667,0.0464304946363,0.0798439010978,-0.00366758019663,-0.999141871929,0.00339530571364,0.0411168709397
1505429690456383141,350,1505429690456123910,world,0.347205013037,0.046477407217,0.0788164064288,-0.00347352400422,-0.999149918556,0.00305983540602,0.040963884443
1505429690466555270,351,1505429690466373817,world,0.347214609385,0.0465431064367,0.077777646482,-0.00340036093257,-0.99916523695,0.00284771458246,0.0406096540391
1505429690476817379,352,1505429690476640470,world,0.347170829773,0.0465888828039,0.0765995085239,-0.00323234801181,-0.999169647694,0.00229401607066,0.0405491478741
1505429690486091479,353,1505429690485909520,world,0.347143262625,0.0465996228158,0.0753877013922,-0.00319064292125,-0.999168395996,0.0022218762897,0.040587477386
1505429690496337251,354,1505429690496113093,world,0.347098708153,0.0465301983058,0.0741684511304,-0.00315276323818,-0.999166190624,0.00258618127555,0.0406229160726
1505429690506492229,355,1505429690506313037,world,0.34706735611,0.0464011393487,0.0729051530361,-0.00360309681855,-0.999154269695,0.00322018307634,0.0408336482942
1505429690516747027,356,1505429690516605960,world,0.347046643496,0.0463005006313,0.0717251449823,-0.00389378680848,-0.999144494534,0.00391820119694,0.0409852936864
1505429690525967674,357,1505429690525808181,world,0.347055464983,0.0462603606284,0.0703663975,-0.00367524474859,-0.999150276184,0.00395738147199,0.0408611670136
1505429690536232796,358,1505429690536057766,world,0.347090423107,0.0462181903422,0.0689411014318,-0.00355993118137,-0.999155938625,0.0053922389634,0.0405667088926
1505429690546451957,359,1505429690546320224,world,0.346968412399,0.0464568771422,0.0677144601941,-0.00332326442003,-0.999145686626,0.00433584908023,0.0409643091261
1505429690556796732,360,1505429690556583541,world,0.346911072731,0.0464124009013,0.0664481669664,-0.00334484153427,-0.999142050743,0.0039640115574,0.041087705642
1505429690565904822,361,1505429690565782531,world,0.346945136786,0.0464337915182,0.0651353895664,-0.00339229381643,-0.999157965183,0.00365212094039,0.0407261773944
1505429690576572605,362,1505429690575996930,world,0.346937656403,0.0463652051985,0.0639364644885,-0.00333778024651,-0.999168157578,0.00381854386069,0.0404634661973
1505429690586409284,363,1505429690586266124,world,0.346909821033,0.0464286953211,0.0626650080085,-0.00325520802289,-0.99917525053,0.00323225557804,0.0403450913727
1505429690596638504,364,1505429690596479713,world,0.346915215254,0.0463458970189,0.0613365545869,-0.00313738547266,-0.999170362949,0.00332134193741,0.0404675751925
1505429690606812077,365,1505429690606682173,world,0.346893042326,0.0463107228279,0.0599720329046,-0.00319523410872,-0.999159455299,0.00300804036669,0.04075858742
1505429690616315137,366,1505429690616071548,world,0.346851319075,0.0463033467531,0.0587046742439,-0.00350420596078,-0.999150812626,0.00324427732266,0.0409258827567
