%time,field.linear.x,field.linear.y,field.linear.z,field.angular.x,field.angular.y,field.angular.z
1505429686823106376,0.0157869587577,-0.00486449331785,1.23806072474,0.0,0.0,-0.0478624009219
1505429686873032812,0.0158555781749,-0.00488953212646,1.23811493516,0.0,0.0,-0.0478409103259
1505429686923030139,0.0159419851178,-0.00489273519821,1.2380614996,0.0,0.0,-0.0478570325088
1505429686973101552,0.015825413616,-0.00486546816148,1.23806984425,0.0,0.0,-0.0478595420115
1505429687023011215,0.0158717886114,-0.00488902142579,1.2380673185,0.0,0.0,-0.0478479594916
1505429687073159777,0.0158158332757,-0.00487267078183,1.23811749071,0.0,0.0,-0.0478520461453
1505429687123295402,0.0159322735115,-0.00489067098315,1.23806816041,0.0,0.0,-0.0478520239976
1505429687173040342,0.0157772000804,-0.00486593245283,1.23812278435,0.0,0.0,-0.0478398928696
1505429687223057997,0.0159653642995,-0.00490471931361,1.23803758696,0.0,0.0,-0.0478456837261
1505429687273073267,0.0157708734017,-0.00485431252393,1.23808428347,0.0,0.0,-0.0478511018918
1505429687323088514,0.0158952887863,-0.0048865101636,1.2380824618,0.0,0.0,-0.0478339634411
1505429687373156974,0.0158687417672,-0.00488687689746,1.23807240352,0.0,0.0,-0.0478514317005
1505429687423044252,0.0158297140387,-0.00486507731593,1.23810408711,0.0,0.0,-0.0478448269834
1505429687472984569,0.0158694452879,-0.00488807493089,1.2381087102,0.0,0.0,-0.0478385599677
1505429687523125561,0.0158784598191,-0.00487968152883,1.23809266165,0.0,0.0,-0.0478568586916
1505429687573014241,0.0158650449318,-0.00487633472104,1.23807263076,0.0,0.0,-0.0478542048698
1505429687623063302,0.0158405762594,-0.00487903041613,1.23807994723,0.0,0.0,-0.0478645316591
1505429687673087340,0.0159097659149,-0.00488969618742,1.23803328425,0.0,0.0,-0.0478544963346
1505429687723034246,0.0158185312443,-0.00486902795685,1.23805863485,0.0,0.0,-0.0478653657856
1505429687772963630,0.0158906127893,-0.00489456443713,1.23804866225,0.0,0.0,-0.0478553320842
1505429687823088224,0.0158541704331,-0.00487106985833,1.23805870935,0.0,0.0,-0.0478668006281
1505429687873041062,0.0158824945905,-0.00488943350914,1.23804874048,0.0,0.0,-0.0478598280481
1505429687923088956,0.0158243507964,-0.00487422148241,1.23809058294,0.0,0.0,-0.0478545405409
1505429687973045350,0.0158839383391,-0.00489190918952,1.2380945392,0.0,0.0,-0.0478496526296
1505429688023069778,0.015861726567,-0.00487948450224,1.2380952619,0.0,0.0,-0.0478696509407
1505429688072958635,0.0158937715838,-0.0048844751573,1.23805457428,0.0,0.0,-0.0478507617427
1505429688123007684,0.0158116393565,-0.00487197967784,1.23809008002,0.0,0.0,-0.0478467464927
1505429688173090634,0.0158745737219,-0.00488589486617,1.2380952619,0.0,0.0,-0.0478560071666
1505429688223210296,0.0158455258894,-0.00487295376432,1.23810989112,0.0,0.0,-0.0478469527638
1505429688272947727,0.0158750019093,-0.00488020240577,1.23809309378,0.0,0.0,-0.0478233331644
1505429688323072697,0.0158909312158,-0.00488176307466,1.23805719689,0.0,0.0,-0.0480905406056
1505429688373045617,0.0157535201959,-0.00484674431851,1.23811720386,0.0,0.0,-0.0484337470325
1505429688423087453,0.0158711573808,-0.00491953265731,1.23814985976,0.0,0.0,-0.0482547124125
1505429688473080748,0.0158677631174,-0.0048959414885,1.23816762939,0.0,0.0,-0.0483478183492
1505429688522983504,0.0159179862153,-0.00489165598413,1.23808638453,0.0,0.0,-0.0484701876544
1505429688573134999,0.0157092163935,-0.00486096990894,1.23816729411,0.0,0.0,-0.0485122356692
1505429688623092072,0.0158893428819,-0.00492500207077,1.23817312047,0.0,0.0,-0.0485217594944
1505429688673005240,0.0158926962861,-0.00489881115857,1.23810537234,0.0,0.0,-0.0483994329179
1505429688723058032,0.015822829686,-0.00488831724173,1.23808443248,0.0,0.0,-0.0484715037861
1505429688773054938,0.0158630724381,-0.00491078523329,1.23807028756,0.0,0.0,-0.048291740073
1505429688823077133,0.0158225537501,-0.00486993389597,1.2380932726,0.0,0.0,-0.0482296283955
1505429688873285940,0.0159174644579,-0.00493204657105,1.23803324699,0.0,0.0,-0.0479809582365
1505429688923058211,0.0158443694201,-0.00487170373582,1.23798374161,0.0,0.0,-0.0486795409722
1505429688973104789,0.0158588349071,-0.00494329884982,1.23799668327,0.0,0.0,-0.0483939303465
1505429689023076413,0.0160273104156,-0.00487186278382,1.2378988944,0.0,0.0,-0.0478248801936
1505429689072995163,0.0157897264073,-0.00489719008824,1.23792903945,0.0,0.0,-0.0482422235386
1505429689123015487,0.0158045211743,-0.00483413507051,1.23799923509,0.0,0.0,-0.0490936029685
1505429689173028776,0.0159538678258,-0.00495985873836,1.2379239358,0.0,0.0,-0.0491294666824
1505429689223149815,0.0159398389032,-0.00496276687731,1.2378517583,0.0,0.0,-0.0489191998317
1505429689272980647,0.0159680095356,-0.00492409677329,1.23779832274,0.0,0.0,-0.0484209862964
1505429689323103158,0.0158873321526,-0.00488855075838,1.23784665838,0.0,0.0,-0.0480576813238
1505429689372983103,0.0160784422434,-0.0049428720436,1.23769197688,0.0,0.0,-0.0480018186879
1505429689423131829,0.015805978545,-0.0047986679773,1.23770150617,0.0,0.0,-0.0483676317848
1505429689473028644,0.0161296472054,-0.00516981210425,1.2375068523,0.0,0.0,-0.048664343524
1505429689523058033,0.0156827822902,-0.00474209775396,1.2376798436,0.0,0.0,-0.0487032397878
1505429689573066801,0.015915287014,-0.00497290186223,1.23780549765,0.0,0.0,-0.0489784353107
1505429689623128774,0.0161442859604,-0.00493515778883,1.23769349307,0.0,0.0,-0.0484760356922
1505429689673065217,0.0159357681987,-0.00499239090068,1.23757637367,0.0,0.0,-0.0484435161329
1505429689723033693,0.0157407150853,-0.00477197038749,1.23775727749,0.0,0.0,-0.0487378809158
1505429689772985707,0.0161359733361,-0.00501586043335,1.23769511729,0.0,0.0,-0.0485801795
1505429689823030798,0.0159515878431,-0.00493451333895,1.23759718686,0.0,0.0,-0.049306742259
1505429689873047079,0.0159430135446,-0.00497164554855,1.23756443411,0.0,0.0,-0.0490820456587
1505429689923091533,0.0159381241612,-0.00490134369466,1.23757308424,0.0,0.0,-0.0486072335502
1505429689973082849,0.0160998968286,-0.0049957340869,1.23751752898,0.0,0.0,-0.0494401801672
1505429690023057075,0.0159716703894,-0.00496193264679,1.23743546456,0.0,0.0,-0.0490734453846
1505429690073070958,0.0159921822582,-0.00487620578693,1.23726878017,0.0,0.0,-0.0500304541959
1505429690123027158,0.0161824784686,-0.00500950269777,1.23691365197,0.0,0.0,-0.0502914770381
1505429690173039654,0.0169037834522,-0.00522083631706,1.23579046577,0.0,0.0,-0.0508335248334
1505429690223148682,0.0167371589926,-0.00530609982476,1.23442977741,0.0,0.0,-0.0513700717663
1505429690273046599,0.0181081945174,-0.00587770761116,1.23199160099,0.0,0.0,-0.0511707639684
1505429690323033251,0.0186565973002,-0.00622769428418,1.22868773229,0.0,0.0,-0.049944452871
1505429690372990492,0.0193755917584,-0.00683240971471,1.22481317148,0.0,0.0,-0.04875757188
1505429690423049750,0.0205901867215,-0.00758757891535,1.22038135007,0.0,0.0,-0.0466449958698
1505429690472999383,0.0218185987747,-0.00937333640086,1.21545536332,0.0,0.0,-0.0440591840481
1505429690523020886,0.0228557793001,-0.0120197739733,1.21023039594,0.0,0.0,-0.0441756177216
1505429690573126883,0.0240326003072,-0.0155480704057,1.2047493712,0.0,0.0,-0.0468526941023
1505429690623075867,0.0329210585526,-0.024883403488,1.19484153371,0.0,0.0,-0.04943844466
1505429690672988869,0.0344277173729,-0.0288275915597,1.18215243965,0.0,0.0,-0.0529022524133
1505429690723022463,0.0395446317288,-0.0364718682707,1.16707008407,0.0,0.0,-0.0532817371663
1505429690773035332,0.044601566868,-0.0452485855073,1.14997588545,0.0,0.0,-0.0548903037071
1505429690823010172,0.0514935979717,-0.0561601015386,1.13097108603,0.0,0.0,-0.0540151964247
1505429690872980623,0.0544881985205,-0.0639164262849,1.11163814813,0.0,0.0,-0.0535054501851
1505429690923033629,0.0572369441514,-0.0706129916728,1.09318181574,0.0,0.0,-0.0540318927846
1505429690973020759,0.0615139002434,-0.0803396294723,1.07610298395,0.0,0.0,-0.0532052334581
1505429691023022435,0.0675645421004,-0.0923177749362,1.06015936732,0.0,0.0,-0.0526928345387
1505429691073053780,0.0751001294004,-0.106702454907,1.04469266236,0.0,0.0,-0.0525199702811
1505429691123046879,0.0765946873953,-0.114785682762,1.0304233849,0.0,0.0,-0.0523300517372
1505429691173052526,0.0801535114437,-0.125735716376,1.01742651761,0.0,0.0,-0.0520694311304
1505429691223080627,0.0838640684253,-0.137187477254,1.00553594232,0.0,0.0,-0.0514586891389
1505429691273033607,0.087674976422,-0.148646854687,0.994391393661,0.0,0.0,-0.0507008648365
1505429691323006893,0.0891605770095,-0.159145692229,0.983868148923,0.0,0.0,-0.0505886022856
1505429691373070737,0.0965931214071,-0.177022869608,0.972958770394,0.0,0.0,-0.0493709908268
1505429691423077861,0.0924779951585,-0.179217194411,0.962679368258,0.0,0.0,-0.0495647384723
1505429691473055079,0.105517233822,-0.207404152673,0.951054793596,0.0,0.0,-0.0475681162022
1505429691523092783,0.103111451721,-0.213942407662,0.938467037678,0.0,0.0,-0.0470150557696
1505429691572997761,0.09999973858,-0.218127075643,0.925178033113,0.0,0.0,-0.0483331007707
1505429691623012700,0.101642999205,-0.230373572548,0.910858315229,0.0,0.0,-0.0480690754961
1505429691673029665,0.102654431284,-0.239581257583,0.895467621088,0.0,0.0,-0.0481828140082
1505429691723036793,0.0984531549658,-0.244663718192,0.879138451815,0.0,0.0,-0.048510100969
1505429691773064181,0.0966325993319,-0.251383277642,0.86173735261,0.0,0.0,-0.0481180091667
1505429691822978064,0.0841729893736,-0.236569041594,0.844884675741,0.0,0.0,-0.0484665994075
1505429691873034733,0.0829074802887,-0.245262910744,0.827933114767,0.0,0.0,-0.0464374299778
1505429691923064988,0.0787182478308,-0.250595186683,0.810304385424,0.0,0.0,-0.0474400660761
1505429691973038838,0.0689357640573,-0.236731364835,0.793002825975,0.0,0.0,-0.0467976028337
1505429692023074928,0.0635835322924,-0.22612753874,0.776246201992,0.0,0.0,-0.0464222103618
1505429692073010746,0.059125231058,-0.220934459145,0.759910476208,0.0,0.0,-0.0451129205431
1505429692123003989,0.0598152622306,-0.189937277795,0.746903729439,0.0,0.0,-0.0435889585297
1505429692172965409,0.0534411420235,-0.282628233568,0.727378767729,0.0,0.0,-0.0427073252859
1505429692223010438,0.0377248478364,-0.168694982621,0.71180049777,0.0,0.0,-0.0425049187061
1505429692272992441,0.0761727767516,-0.287517798448,0.699982893467,0.0,0.0,-0.0417051824627
1505429692323109029,0.0387312912787,-0.362551974869,0.681985628605,0.0,0.0,-0.0402890213268
1505429692373146323,0.0381322503642,-0.234572569451,0.666396033764,0.0,0.0,-0.0401790143101
1505429692423036462,0.0316700207715,-0.227967139163,0.650897753239,0.0,0.0,-0.0393372158758
1505429692472958908,0.047242645545,-0.216069978309,0.637422335148,0.0,0.0,-0.0396752908893
1505429692523041348,-0.0115312702254,-0.181737978317,0.617054653168,0.0,0.0,-0.039510591976
1505429692573054938,0.00919716834761,-0.113239302029,0.600534629822,0.0,0.0,-0.0397760452476
1505429692623130986,0.0276106619296,-0.131610341902,0.587160778046,0.0,0.0,-0.0397723238194
1505429692673018777,-0.0308530936086,-0.0262848653922,0.56704570055,0.0,0.0,-0.0396619721419
1505429692722986698,-0.00259404241962,-0.0298236811044,0.549938511848,0.0,0.0,-0.0394075739054
1505429692772976983,0.0146941038807,-0.0562132246858,0.535431754589,0.0,0.0,-0.0385431011394
1505429692823031120,-0.0535043104877,0.134766974775,0.511200737953,0.0,0.0,-0.038724406074
1505429692873055939,-0.0124628662634,0.0426656457253,0.489463102818,0.0,0.0,-0.0383904106066
1505429692923041182,0.00470978060923,0.00833369513653,0.470982861519,0.0,0.0,-0.0395673522034
1505429692973001040,-0.0771085428466,0.275339184126,0.44067735672,0.0,0.0,-0.0388123300076
1505429693023201565,-0.0190582217578,0.0924298651034,0.412820291519,0.0,0.0,-0.0387566355723
1505429693072996667,-0.00383410276593,0.0467636072783,0.38922406435,0.0,0.0,-0.0374840678622
1505429693122982926,-0.0957036740976,0.389441306322,0.352882277966,0.0,0.0,-0.0381791964479
1505429693172999791,-0.0226328477609,0.113871357069,0.320459616184,0.0,0.0,-0.0376451664354
1505429693222988941,-0.00740057384904,0.0685998411554,0.293225181103,0.0,0.0,-0.0378322429665
1505429693273025377,-0.136747479019,0.572009308778,0.249716830254,0.0,0.0,-0.0393559803433
1505429693323058382,-0.0190583639952,0.103484729772,0.212007296085,0.0,0.0,-0.0382908151796
1505429693373128032,-0.0249922451071,0.122136878779,0.174315404892,0.0,0.0,-0.0387983864385
1505429693423140088,-0.0234796804288,0.111828893675,0.137980890274,0.0,0.0,-0.0406350621705
1505429693473070410,-0.00909552023192,0.0557636658431,0.110055279732,0.0,0.0,-0.0383825145876
1505429693523001551,-0.0526911115044,0.212641464635,0.0724716901779,0.0,0.0,-0.0402501805993
1505429693573035372,-0.0135696284631,0.0591983561209,0.0467983007431,0.0,0.0,-0.0401865400652
1505429693623014445,-0.00756999104574,0.0409736077293,0.0300539255142,0.0,0.0,-0.0408960721335
1505429693672984981,-0.023331100319,0.102864561301,0.0103346824646,0.0,0.0,-0.0412296558447
1505429693723074799,-0.0089592760332,0.0411005394264,-0.00134031772614,0.0,0.0,-0.0414193348707
1505429693773116405,-0.00363111793206,0.0274374002929,-0.00789337158203,0.0,0.0,-0.0417458103846
1505429693823079507,-0.0103267732116,0.0440125050377,-0.0138798236847,0.0,0.0,-0.0414638993014
1505429693873045048,-0.00235717215887,0.0216129962578,-0.0163321971893,0.0,0.0,-0.0412297521332
1505429693922973677,5.56942135836e-05,0.0107765015338,-0.0170207500458,0.0,0.0,-0.0411316474356
1505429693973112313,0.000181827338448,0.00113809938741,-0.0161512374878,0.0,0.0,-0.0409251828715
1505429694023016450,0.00083820753648,-0.00722731533924,-0.0140678167343,0.0,0.0,-0.0408486262798
1505429694072977915,0.00325121542704,-0.0106155215058,-0.0120020389557,0.0,0.0,-0.04049524648
1505429694123113549,0.0011945188352,-0.0251524766602,-0.00833885669708,0.0,0.0,-0.0401912053163
1505429694173010095,0.00431323381834,-0.0282067514359,-0.00540046691895,0.0,0.0,-0.0398390217145
1505429694223004620,0.00567544911108,-0.035957416177,-0.0026355266571,0.0,0.0,-0.0389106107929
1505429694273009263,0.00464811290671,-0.043624532861,0.000203084945679,0.0,0.0,-0.0380165531249
1505429694323037770,0.00414221712871,-0.0519363554467,0.00219602584839,0.0,0.0,-0.036660702444
1505429694373035364,0.00418231746294,-0.0537911318734,0.00326163768768,0.0,0.0,-0.0375199429406
1505429694423083923,-0.00145450908082,-0.0713962245438,0.00445492267609,0.0,0.0,-0.03740782554
1505429694473114573,-0.0020235712449,-0.0744207914013,0.00513966083527,0.0,0.0,-0.0367624863873
1505429694523067858,-0.00365428878328,-0.0746157606097,0.00589711666107,0.0,0.0,-0.0351231505601
1505429694573019434,-0.00596920360772,-0.0740460099014,0.00663049221039,0.0,0.0,-0.034214074105
1505429694623089891,-0.00899313529115,-0.0676442197618,0.00735790729523,0.0,0.0,-0.0359443174993
1505429694672977871,-0.0104459186938,-0.0583472405706,0.00903697013855,0.0,0.0,-0.0349803630166
1505429694723048406,-0.0122744246424,-0.0474298795997,0.0115228414536,0.0,0.0,-0.035537679414
1505429694773137922,-0.0122091026536,-0.0358907302896,0.0142969608307,0.0,0.0,-0.0348028427991
1505429694823092007,-0.0114882532013,-0.0269992028588,0.0171445131302,0.0,0.0,-0.0343157123211
1505429694873033463,-0.0108434275966,-0.0175163031326,0.0202265501022,0.0,0.0,-0.0328250205097
1505429694923128471,-0.00984506122825,-0.00605963277957,0.0237000703812,0.0,0.0,-0.0329072529167
1505429694973118195,-0.00935078865222,0.0063706327354,0.0278805017471,0.0,0.0,-0.0326376516741
1505429695023032985,-0.00867569507997,0.0184994250602,0.0324202299118,0.0,0.0,-0.0323150191446
1505429695073023455,-0.00795180125539,0.0279632560777,0.0372397422791,0.0,0.0,-0.0313659893184
1505429695123029125,-0.0062574407423,0.0389684007001,0.041187953949,0.0,0.0,-0.0310375648658
1505429695173015016,-0.00600965370457,0.041959221621,0.0450305461884,0.0,0.0,-0.0308625742737
1505429695223081401,-0.00410925861382,0.0426445023008,0.0487598896027,0.0,0.0,-0.0311726144727
1505429695273076418,-0.00232829609781,0.0490263231625,0.0520519733429,0.0,0.0,-0.0322157073928
1505429695323030927,0.000284771605759,0.0535799486446,0.0546755313873,0.0,0.0,-0.0318916472043
1505429695372975015,0.00235251756985,0.0542808299067,0.0565479516983,0.0,0.0,-0.0325077234572
1505429695423052048,0.00467778607714,0.056068303952,0.0578188419342,0.0,0.0,-0.0336754805887
1505429695473032373,0.00635596886824,0.0550544134745,0.0589993715286,0.0,0.0,-0.0341349817131
1505429695523012756,0.00823226773886,0.0556697777801,0.0599064350128,0.0,0.0,-0.0348372212638
1505429695573089118,0.0104557057104,0.0516950563847,0.0606305122375,0.0,0.0,-0.0349832521577
1505429695623015113,0.0115293762783,0.0475574679848,0.0609855175018,0.0,0.0,-0.03619908631
1505429695673037821,0.0126424250205,0.0437057372041,0.0600492477417,0.0,0.0,-0.0361374936601
1505429695723129188,0.0111773618533,0.0364638490842,0.0588254451752,0.0,0.0,-0.0363382884293
1505429695773056565,0.0113867011,0.0357253453845,0.0575650453568,0.0,0.0,-0.0385810158353
1505429695823066227,0.0113431408361,0.035440637015,0.0555606603622,0.0,0.0,-0.0398025271396
1505429695873086625,0.00841168069696,0.0256228830173,0.0538539409637,0.0,0.0,-0.0402416491301
1505429695923038061,0.0137494041562,0.0266078009597,0.0514996767044,0.0,0.0,-0.0415455859009
1505429695972996828,0.0110483705718,0.0217996227753,0.0497968912125,0.0,0.0,-0.0435019683723
1505429696023292721,0.0108776051622,0.0212631520683,0.0486787080765,0.0,0.0,-0.0445124499863
1505429696072995946,0.011314150429,0.0216901066362,0.0479925394058,0.0,0.0,-0.0445501546934
1505429696123066092,0.0125013972793,0.0192536123384,0.0473608493805,0.0,0.0,-0.0448910495698
1505429696173110526,0.0101124156551,0.0172225751272,0.0471267223358,0.0,0.0,-0.0460812374009
1505429696223017185,0.0116730172881,0.015074554347,0.0472808599472,0.0,0.0,-0.0467316658482
1505429696272994345,0.00984724105534,0.012844534664,0.0477265834808,0.0,0.0,-0.046903221584
1505429696323045137,0.00880475297159,0.0139272710171,0.0483455181122,0.0,0.0,-0.0472637693
1505429696373150481,0.0105776474389,0.00140231974285,0.0492674827576,0.0,0.0,-0.0472522928445
1505429696423042386,0.00900931312302,0.000405527621929,0.0500193357468,0.0,0.0,-0.0479749474923
1505429696473138523,0.00776868179451,-0.00767204305291,0.0510024547577,0.0,0.0,-0.0482144216336
1505429696523076936,0.00680735191107,-0.0122368790503,0.0519693613052,0.0,0.0,-0.0492452715145
1505429696573059090,0.00658163373726,-0.0180596288904,0.0527470827103,0.0,0.0,-0.0494982037841
1505429696623075095,0.00554596170142,-0.022573586139,0.0530464172363,0.0,0.0,-0.0497336838269
1505429696673012851,0.00422849582801,-0.0279617634458,0.0534151315689,0.0,0.0,-0.0502203221612
1505429696723083868,0.0029845073031,-0.0293649190215,0.0536424636841,0.0,0.0,-0.0515408088769
1505429696773018802,0.00298889452702,-0.0325861391476,0.0536075353622,0.0,0.0,-0.0517320935603
1505429696823077664,0.00320695847999,-0.0367224651045,0.0533039093018,0.0,0.0,-0.0519436488128
1505429696872979026,0.00247550379996,-0.0372338348797,0.0531123399734,0.0,0.0,-0.0520746777727
1505429696923127507,0.00350578979147,-0.0377902525439,0.052773308754,0.0,0.0,-0.0525291353159
1505429696973030883,0.00557237578198,-0.0377794699109,0.0520412445068,0.0,0.0,-0.0516355060576
1505429697023056172,0.00645318989812,-0.0373319851999,0.0511896133423,0.0,0.0,-0.0516882170271
1505429697073055031,0.00726124719174,-0.0394029117446,0.0502920866013,0.0,0.0,-0.0515342225065
1505429697123033732,0.00690869224926,-0.0357487613053,0.0493257761002,0.0,0.0,-0.0512774827663
1505429697172971369,0.00878859359059,-0.0363322639691,0.0478182554245,0.0,0.0,-0.0505989668584
1505429697223005069,0.0080167563147,-0.0351472769144,0.0458031415939,0.0,0.0,-0.0505157829353
1505429697273059147,0.00839800061053,-0.0354192296001,0.0435244560242,0.0,0.0,-0.0503365327766
1505429697323139822,0.00899258636064,-0.0378190689563,0.040874671936,0.0,0.0,-0.0500984326187
1505429697373280579,0.00939058237,-0.0399580629954,0.0379933834076,0.0,0.0,-0.0503942542306
1505429697423025600,0.00901354086857,-0.044521694228,0.034352016449,0.0,0.0,-0.0500331332596
1505429697473016024,0.00793967314363,-0.0443965033206,0.0306667804718,0.0,0.0,-0.0495180365808
1505429697523114394,0.00813501576189,-0.0432223702271,0.0272471427917,0.0,0.0,-0.0486727556621
1505429697573044007,0.00876693216553,-0.0366415270891,0.0246840238571,0.0,0.0,-0.0484612180353
1505429697623781768,0.0103073177068,-0.0505110439789,0.0209156990051,0.0,0.0,-0.0475737006733
1505429697673044932,0.0111878346682,-0.0433054319111,0.0178040981293,0.0,0.0,-0.0454282651081
1505429697723093786,0.0101142932357,-0.0366389116842,0.015619468689,0.0,0.0,-0.0459552606717
1505429697773061194,0.012758456003,-0.0458818773442,0.0137158155441,0.0,0.0,-0.0456827706495
1505429697823074079,0.0114186133735,-0.0412434913328,0.0132172822952,0.0,0.0,-0.0453618856385
1505429697873092751,0.0125660886546,-0.0433359047997,0.0133578300476,0.0,0.0,-0.0453320515046
1505429697923027279,0.0131916725538,-0.0470143853102,0.0133141994476,0.0,0.0,-0.046455597508
1505429697973074200,0.0120973911433,-0.04938250169,0.0131597042084,0.0,0.0,-0.0472071689019
1505429698022991620,0.0105627666649,-0.0491912584346,0.0135542869568,0.0,0.0,-0.0471066591795
1505429698073117471,0.0102139814921,-0.040974449767,0.0143457174301,0.0,0.0,-0.0476167952187
1505429698123055602,0.0126672683775,-0.0356155722644,0.0158185482025,0.0,0.0,-0.0481443971478
1505429698173170007,0.0152728912602,-0.0255450833185,0.0171947002411,0.0,0.0,-0.0482994230905
1505429698223015676,0.0178325255281,-0.0153997369172,0.0184906244278,0.0,0.0,-0.0482326414731
1505429698273062983,0.019794508028,-0.00927900837495,0.0196942806244,0.0,0.0,-0.0489611060184
1505429698323013065,0.0186834711845,-0.0123306143414,0.0206919431686,0.0,0.0,-0.0491924647636
1505429698373034121,0.0231893520789,0.00730923992675,0.0218915462494,0.0,0.0,-0.0503579238697
1505429698423130092,0.0227835707094,0.0042050840322,0.0224716186523,0.0,0.0,-0.0513844300425
1505429698473061763,0.0225832540717,0.00644846625492,0.0223938941956,0.0,0.0,-0.0505307650177
1505429698523191928,0.0292960959603,0.0244752390534,0.0210186958313,0.0,0.0,-0.0527871001966
1505429698573172214,0.0253418483355,0.023914372893,0.0200324773788,0.0,0.0,-0.0538089245184
1505429698623087826,0.0256151497591,0.0296487269038,0.0196008205414,0.0,0.0,-0.0546064413147
1505429698673122461,0.0264231910346,0.0375481151155,0.019410443306,0.0,0.0,-0.0549945286085
1505429698723172101,0.0251680868033,0.0286607667546,0.0195465803146,0.0,0.0,-0.0553571434415
1505429698773034268,0.027161773647,0.0505427075291,0.0205211162567,0.0,0.0,-0.0546509738851
1505429698823041737,0.0239338292171,0.0464724933428,0.0221451044083,0.0,0.0,-0.0557248235521
1505429698873050370,0.0243073894509,0.052572593263,0.024044585228,0.0,0.0,-0.0569748837381
1505429698923024135,0.0246742350393,0.0578466592067,0.0256365060806,0.0,0.0,-0.0571513021673
1505429698973099739,0.0248769342918,0.0615056271182,0.0272806406021,0.0,0.0,-0.0579025373654
1505429699023059259,0.0229729803751,0.0690073072393,0.0291063308716,0.0,0.0,-0.0580866309526
1505429699073081703,0.0235661985853,0.0769820170696,0.0306124210358,0.0,0.0,-0.0592615698801
1505429699123043573,0.0227707526014,0.0859824158847,0.0315855264664,0.0,0.0,-0.0603864761042
1505429699172976987,0.0215047849555,0.0909331015216,0.0317627906799,0.0,0.0,-0.0612905476655
1505429699223042099,0.0198333631557,0.0932061279138,0.0312438726425,0.0,0.0,-0.0604781392348
1505429699273042464,0.018464286657,0.0994901579632,0.0298729658127,0.0,0.0,-0.0639504010386
1505429699323072236,0.0174462146504,0.102062390239,0.0274507522583,0.0,0.0,-0.0633783598036
1505429699373022557,0.0147219242052,0.0967152600682,0.0242334127426,0.0,0.0,-0.0655363674692
1505429699422990839,0.0126227852615,0.100344213759,0.0206614255905,0.0,0.0,-0.0671985564792
1505429699473045495,0.011945743719,0.102188306881,0.0165315389633,0.0,0.0,-0.0684288840795
1505429699522957257,0.0113636168752,0.102058898354,0.0121141195297,0.0,0.0,-0.0693739247214
1505429699573085407,0.0106400980141,0.0889922011451,0.00865466594696,0.0,0.0,-0.0704891008821
1505429699623166578,0.00793162774761,0.119940553805,0.00306029319763,0.0,0.0,-0.071677668944
1505429699673013786,0.00661326484473,0.0917906277736,-0.00136737823486,0.0,0.0,-0.0712824478876
1505429699723018932,0.00618220944845,0.0887472361488,-0.00566976070404,0.0,0.0,-0.0733428398864
1505429699772981820,0.00452361687102,0.0794856964474,-0.00920312404633,0.0,0.0,-0.0739409608929
1505429699823021130,0.00410478269599,0.0757894777727,-0.0125236988068,0.0,0.0,-0.0748057202593
1505429699872985876,0.00364990465448,0.0710313134806,-0.0161608934402,0.0,0.0,-0.0741749106943
1505429699923045514,0.00192965975471,0.0633755301115,-0.0205213308334,0.0,0.0,-0.0752570234512
1505429699973168702,0.00283385134898,0.0539219109191,-0.0239525318146,0.0,0.0,-0.075606289531
1505429700022982521,-1.33407454626e-05,0.053080795053,-0.0290390729904,0.0,0.0,-0.0762717450461
1505429700073020395,0.00266187543798,0.0467085356916,-0.0331231832504,0.0,0.0,-0.0762247502624
1505429700123047476,0.00530158851423,0.00217707355997,-0.00252661833289,0.0,0.0,-0.105178070068
1505429700173071903,0.00342554050237,-0.00523978270508,0.0,0.0,0.0,0.0
1505429700223068031,0.00658288614165,-0.00988432515094,-0.00250553595166,0.0,0.0,-0.0755294036865
1505429700273056954,0.00911705303396,-0.00913259275139,-0.00250086871196,0.0,0.0,-0.0823013305664
1505429700323118937,0.0102655531076,-0.0217671390422,-0.00250138565252,0.0,0.0,-0.109008407593
1505429700373156555,0.014573452444,-0.0159314395922,-0.00346597354393,0.0,0.0,-0.106121826172
1505429700423030079,0.0138570526822,-0.0138848248252,-0.00342877014611,0.0,0.0,-0.108816986084
1505429700473017273,0.0204955510902,-0.0187589146165,0.0,0.0,0.0,0.0
1505429700523086128,0.014134933154,-0.00532817528177,0.0,0.0,0.0,0.0
1505429700573026353,0.0259927351244,-0.0134096474951,-0.00338955864564,0.0,0.0,-0.0864958190918
1505429700623049591,0.0197116164311,-0.000910552290629,0.0,0.0,0.0,0.0
1505429700673121200,0.0207580522087,0.00302857220742,-0.0034053799605,0.0,0.0,-0.0996932983398
1505429700723015087,0.024783032077,0.0148240170376,0.0,0.0,0.0,0.0
1505429700773043230,0.0220524416937,0.0151045195111,0.0,0.0,0.0,0.0
1505429700823090067,0.0189164143473,0.0190573146745,0.0,0.0,0.0,0.0
1505429700873052976,0.0248190557399,0.0308297227717,-0.00343054121952,0.0,0.0,-0.0883023071289
1505429700922989907,0.0200968236207,0.0319886549431,-0.00343744494061,0.0,0.0,-0.0866076660156
1505429700973031646,0.0180126829531,0.0357444898761,0.0,0.0,0.0,0.0
1505429701023048846,0.0151077812902,0.0364292723859,0.0,0.0,0.0,0.0
1505429701073007515,0.01530609153,0.0432292532313,-0.00347370608495,0.0,0.0,-0.0857164764404
1505429701122968356,0.0141045941543,0.0417834060668,0.0,0.0,0.0,0.0
1505429701173041087,0.0146738277403,0.0450456872817,0.0,0.0,0.0,0.0
1505429701223025966,0.016905112525,0.0538671011082,0.0,0.0,0.0,0.0
1505429701273011219,0.0172097114775,0.0570678503483,-0.00470132873482,0.0,0.0,-0.0886825561523
1505429701323182249,0.0175731091901,0.0565926453256,0.0,0.0,0.0,0.0
1505429701373008122,0.0170851738122,0.0560908870727,0.0,0.0,0.0,0.0
1505429701423058610,0.0157092717539,0.0617559562946,0.0,0.0,0.0,0.0
1505429701473098970,0.0150632648934,0.0625405448258,0.0,0.0,0.0,0.0
1505429701523030262,0.0148696050627,0.0665114143205,0.0,0.0,0.0,0.0
1505429701573094211,0.0118375009065,0.0672823653566,0.0,0.0,0.0,0.0
1505429701623079594,0.00956661127081,0.0710353271134,0.0,0.0,0.0,0.0
1505429701673048112,0.00705164187226,0.0572626352662,0.0,0.0,0.0,0.0
1505429701723119632,0.00276846464801,0.0930091808086,0.0,0.0,0.0,0.0
1505429701773039412,0.000461282157781,0.0847359193801,0.0,0.0,0.0,0.0
1505429701823010101,-0.000589407122723,0.0821916957982,0.0,0.0,0.0,0.0
1505429701873081421,-0.0105791901539,0.100163193192,0.0,0.0,0.0,0.0
1505429701923124517,-0.010892045112,0.103907790165,0.0,0.0,0.0,0.0
1505429701973332542,-0.0131276921619,0.111214732332,0.0,0.0,0.0,0.0
1505429702023072157,-0.015997741274,0.117272859111,0.0,0.0,0.0,0.0
1505429702073054654,-0.0169697018663,0.122234071363,-0.00352073976726,0.0,0.0,-0.155027236938
1505429702123095132,-0.018676211744,0.129743403264,0.0,0.0,0.0,0.0
1505429702173155501,-0.020667066223,0.138918745217,0.0,0.0,0.0,0.0
1505429702223090044,-0.0200860770962,0.145009237036,0.0,0.0,0.0,0.0
1505429702272963419,-0.0190196579049,0.15029380779,-0.00362271760929,0.0,0.0,-0.133389816284
1505429702322989318,-0.0161334663459,0.148953289382,0.0,0.0,0.0,0.0
1505429702373066197,-0.0145320053346,0.148170527941,0.0,0.0,0.0,0.0
1505429702422976980,-0.0120473941561,0.141623553463,0.0,0.0,0.0,0.0
1505429702473053070,-0.00808008561532,0.141359621313,0.0,0.0,0.0,0.0
1505429702523034264,-0.00249856204055,0.130816517338,0.0,0.0,0.0,0.0
1505429702573032115,0.00333521501299,0.126762275265,0.0,0.0,0.0,0.0
1505429702623047496,0.00367915720738,0.128644459835,-0.00284056516793,0.0,0.0,-0.134550323486
1505429702673015450,0.00514136095274,0.115602652434,0.0,0.0,0.0,0.0
1505429702723194845,0.00796310588744,0.117328924221,0.0,0.0,0.0,0.0
1505429702773046406,0.0101714853783,0.117546523147,0.0,0.0,0.0,0.0
1505429702823092520,0.0110846740676,0.10246046851,0.0,0.0,0.0,0.0
1505429702873009240,0.0121331582993,0.0949008217131,0.0,0.0,0.0,0.0
1505429702923314641,0.0122490746648,0.0858993436415,0.0,0.0,0.0,0.0
1505429702973009014,0.0113905981926,0.0771020879785,0.0,0.0,0.0,0.0
1505429703023041390,0.0102640311032,0.0630660188621,0.0,0.0,0.0,0.0
1505429703073030380,0.00910721927479,0.0477487791746,0.0,0.0,0.0,0.0
1505429703123115727,0.00936003880918,0.0366382247466,0.0,0.0,0.0,0.0
1505429703173054035,0.00722689820047,0.026671477248,0.0,0.0,0.0,0.0
1505429703223017795,0.00613430960126,0.0111517748722,0.0,0.0,0.0,0.0
1505429703273008537,0.00648954689446,0.00507800809531,0.0,0.0,0.0,0.0
1505429703323015514,0.00758004530181,0.00312421381125,0.0,0.0,0.0,0.0
1505429703373080369,0.00813170567142,0.0198719762785,0.0,0.0,0.0,0.0
1505429703423084368,0.00982755100103,-0.00361932353804,0.0,0.0,0.0,0.0
1505429703473027419,0.00925344250865,0.0132338072075,0.0,0.0,0.0,0.0
1505429703522993363,0.014912993933,0.0454165688432,-0.00153401027599,0.0,0.0,-0.18873550415
1505429703573077175,0.0168038666188,0.0284672035401,0.0,0.0,0.0,0.0
1505429703623031756,0.0179332085783,0.0485515796401,-0.00148555196616,0.0,0.0,-0.194083404541
1505429703673020573,0.0180866582528,0.0543683624161,-0.00147498920104,0.0,0.0,-0.183338012695
1505429703723047146,0.019578071774,0.0618974968592,0.0,0.0,0.0,0.0
1505429703773275284,0.0214386723954,0.069858351004,-0.00143503633601,0.0,0.0,-0.195955352783
1505429703823167096,0.0226000914036,0.0773533377169,-0.00148096394177,0.0,0.0,-0.177967834473
1505429703873009103,0.0239812597756,0.0808770179189,0.0,0.0,0.0,0.0
1505429703923350138,0.0199576852206,0.0838263241715,0.0,0.0,0.0,0.0
1505429703973060423,0.0217848533207,0.0829680298852,0.0,0.0,0.0,0.0
1505429704023037811,0.0213826344394,0.0823423523216,0.0,0.0,0.0,0.0
1505429704073044337,0.0190828009725,0.0863072089677,0.0,0.0,0.0,0.0
1505429704123045617,0.0187010385223,0.0870420047573,0.0,0.0,0.0,0.0
1505429704172984516,0.0196844555277,0.0888286047154,0.0,0.0,0.0,0.0
1505429704223032991,0.017696705519,0.0875871925277,0.0,0.0,0.0,0.0
1505429704273038783,0.0202746008565,0.0909727786372,0.0,0.0,0.0,0.0
1505429704323024046,0.0237424268619,0.0955846933741,0.0,0.0,0.0,0.0
1505429704373094474,0.0215213226981,0.0916584276875,0.0,0.0,0.0,0.0
1505429704423003857,0.0205299038781,0.0926238599524,0.0,0.0,0.0,0.0
1505429704472974504,0.0221941145073,0.0933324686867,0.0,0.0,0.0,0.0
1505429704522993575,0.0184663989302,0.0907445130298,0.0,0.0,0.0,0.0
1505429704573027165,0.0173569994272,0.0875713616881,0.0,0.0,0.0,0.0
1505429704623082594,0.0155266388084,0.0851105232144,0.0,0.0,0.0,0.0
1505429704673092906,0.00895910512298,0.0769697849572,0.0,0.0,0.0,0.0
1505429704723001970,0.00709463460291,0.0740482683827,0.0,0.0,0.0,0.0
1505429704773037854,0.00695751094105,0.0768192139479,0.0,0.0,0.0,0.0
1505429704823142596,0.00211640128749,0.0655075094029,0.0,0.0,0.0,0.0
1505429704873072935,0.00231263798467,0.0657578065901,0.0,0.0,0.0,0.0
1505429704923322542,0.00214563417795,0.0636532359176,0.0,0.0,0.0,0.0
1505429704973205530,0.00216924122241,0.0640935359525,0.0,0.0,0.0,0.0
1505429705022986235,0.00238607983157,0.0609940300533,0.0,0.0,0.0,0.0
1505429705072990414,0.00465654990685,0.0680573083381,0.0,0.0,0.0,0.0
1505429705123039717,0.00128241925655,0.0495603448992,0.0,0.0,0.0,0.0
1505429705173092468,0.00608633727631,0.050484038163,0.0,0.0,0.0,0.0
1505429705223027521,0.0104771391999,0.0521033499429,0.0,0.0,0.0,0.0
1505429705273041306,0.0112697460819,0.028044052278,0.0,0.0,0.0,0.0
1505429705323029957,0.0157185749971,0.0267141418921,0.0,0.0,0.0,0.0
1505429705373122910,0.0181239835841,0.0332310570388,0.0,0.0,0.0,0.0
1505429705423021187,0.0171442438871,0.0527891820879,0.0,0.0,0.0,0.0
1505429705473133285,0.0326610854654,-0.0657021812242,0.0,0.0,0.0,0.0
1505429705523034539,0.0247025161084,0.00730044216086,0.0,0.0,0.0,0.0
1505429705573086201,0.0328018239352,-0.034657914636,0.0,0.0,0.0,0.0
1505429705623070797,0.028495194185,-0.00158987690242,0.0,0.0,0.0,0.0
1505429705672978211,0.0374440208836,-0.041501451479,0.0,0.0,0.0,0.0
1505429705723264259,0.0354682203068,-0.0261915446213,0.0,0.0,0.0,0.0
1505429705772965113,0.034056432728,-0.0128981572474,0.0,0.0,0.0,0.0
1505429705823092305,0.0406534255054,-0.0514079028266,0.0,0.0,0.0,0.0
1505429705873128736,0.0377738847723,-0.0458694710724,0.0,0.0,0.0,0.0
1505429705923293018,0.0327533925095,-0.0300867637819,0.0,0.0,0.0,0.0
1505429705973038979,0.0371961746789,-0.0838890039628,0.0,0.0,0.0,0.0
1505429706023054053,0.0314851714732,-0.0659226469027,0.0,0.0,0.0,0.0
1505429706073059713,0.0278820897523,-0.0466899231209,0.0,0.0,0.0,0.0
1505429706123053953,0.0303467575531,-0.10150242062,0.0,0.0,0.0,0.0
1505429706173002776,0.0279977792213,-0.0853563692521,0.0,0.0,0.0,0.0
1505429706223298642,0.0252764995418,-0.0659487048695,0.0,0.0,0.0,0.0
1505429706273050721,0.0268739117594,-0.126741679175,0.0,0.0,0.0,0.0
1505429706323076451,0.0245101804159,-0.109357348785,0.0,0.0,0.0,0.0
1505429706373060749,0.0213500830738,-0.0818986583589,0.0,0.0,0.0,0.0
1505429706423014419,0.0166732387097,-0.138624724788,0.0,0.0,0.0,0.0
1505429706473015049,0.0155524464456,-0.117176085706,0.0,0.0,0.0,0.0
1505429706523009167,0.0129336426814,-0.11809995426,0.0,0.0,0.0,0.0
1505429706573026805,0.0115038352275,-0.121682694397,0.0,0.0,0.0,0.0
1505429706622996017,0.0103051847466,-0.0941328080368,0.0,0.0,0.0,0.0
1505429706673012898,0.00318474925832,-0.153531010867,0.0,0.0,0.0,0.0
1505429706723085160,0.00373074474317,-0.119223004683,0.0,0.0,0.0,0.0
1505429706773025727,0.0043973998906,-0.0869822562025,0.0,0.0,0.0,0.0
1505429706823001747,-0.00560603659143,-0.147833636067,0.0,0.0,0.0,0.0
1505429706873035299,-0.00303350149513,-0.103374240291,0.0,0.0,0.0,0.0
1505429706923114404,0.000429059912698,-0.0781105091215,0.0,0.0,0.0,0.0
1505429706973024556,-0.00849556555091,-0.115698254165,0.0,0.0,0.0,0.0
1505429707023191092,0.000154665744296,-0.071694356865,0.0,0.0,0.0,0.0
1505429707073042492,-0.00934356505069,-0.0938308097716,0.0,0.0,0.0,0.0
1505429707123051336,-0.00521973067152,-0.074757802572,0.0,0.0,0.0,0.0
1505429707172983635,-0.00311088334531,-0.0634599915941,0.0,0.0,0.0,0.0
1505429707223060097,-0.0110328296804,-0.0742749736141,0.0,0.0,0.0,0.0
1505429707273058554,-0.00858091830801,-0.0655191378718,0.0,0.0,0.0,0.0
1505429707323043065,-0.00475681433933,-0.0465351641016,0.0,0.0,0.0,0.0
1505429707372973484,-0.0134013398039,-0.0475873629059,0.0,0.0,0.0,0.0
1505429707423053902,-0.00905982240436,-0.0281084006333,0.0,0.0,0.0,0.0
1505429707473042687,-0.00496463399946,-0.0157988971653,0.0,0.0,0.0,0.0
1505429707523027648,-0.0143994661626,-0.0105883777051,0.0,0.0,0.0,0.0
1505429707572997411,-0.0102730112412,-0.00402472203625,0.0,0.0,0.0,0.0
1505429707623026684,-0.0106851637255,0.00154799201974,0.0,0.0,0.0,0.0
1505429707672984411,-0.0123767339322,0.00883795480786,0.0,0.0,0.0,0.0
1505429707723095177,-0.00845748976704,0.00629018039301,0.0,0.0,0.0,0.0
1505429707772990041,-0.0132876056338,0.0174648717557,0.0,0.0,0.0,0.0
1505429707823049612,-0.0168848840447,0.034444064604,0.0,0.0,0.0,0.0
1505429707872987874,0.0199888902789,0.11135205815,-0.00249140817696,0.0,0.0,-0.170378570557
1505429707922961348,0.0116774228,0.135178889489,-0.00245161422222,0.0,0.0,-0.147169189453
1505429707973075338,0.0159312081036,0.124977589233,0.0,0.0,0.0,0.0
1505429708023076775,0.0206997410963,0.1190611614,0.0,0.0,0.0,0.0
1505429708072988909,0.0143327051279,0.149910691364,0.0,0.0,0.0,0.0
1505429708123119323,0.0163598674441,0.1246084593,0.0,0.0,0.0,0.0
1505429708173141023,0.0183886207398,0.103582151374,0.0,0.0,0.0,0.0
1505429708223051181,0.0100552665858,0.119948339704,0.0,0.0,0.0,0.0
1505429708273003594,0.0113008848854,0.0920166596049,0.0,0.0,0.0,0.0
1505429708323049114,0.0139012782099,0.0800343052471,0.0,0.0,0.0,0.0
1505429708373072013,0.00110773572111,0.0698939576587,0.0,0.0,0.0,0.0
1505429708423124023,0.00361505729898,0.0562370842664,0.0,0.0,0.0,0.0
1505429708473044858,0.00634492843811,0.0563847683967,0.0,0.0,0.0,0.0
1505429708523029850,-0.00893996584525,0.0298567323112,0.0,0.0,0.0,0.0
1505429708572998515,-0.00583920747471,0.0312542676571,0.0,0.0,0.0,0.0
1505429708622963691,0.000466543899111,0.0255508098693,0.0,0.0,0.0,0.0
1505429708673071102,-0.0147210313458,0.0138356003319,0.0,0.0,0.0,0.0
1505429708722963871,-0.00358153587036,0.0202325291298,0.0,0.0,0.0,0.0
1505429708773026899,-0.0110484982497,0.011707158895,0.0,0.0,0.0,0.0
1505429708823005225,-0.0202518096944,-0.00100550610084,0.0,0.0,0.0,0.0
1505429708872989325,-0.00757904779643,0.0171554433937,0.0,0.0,0.0,0.0
1505429708923208871,-0.0245256382829,-0.00267615905012,0.0,0.0,0.0,0.0
1505429708972994747,-0.0178404914639,0.00292169561692,0.0,0.0,0.0,0.0
1505429709023070214,-0.0110993737888,0.0138391789938,0.0,0.0,0.0,0.0
1505429709073033494,-0.0279960244493,-0.0112861731218,0.0,0.0,0.0,0.0
1505429709123076953,-0.0232367520696,0.00154771212938,0.0,0.0,0.0,0.0
1505429709173086354,-0.0177838892308,0.0173315351273,-0.00242031959721,0.0,0.0,-0.106074981689
1505429709223043157,-0.0351221432154,-0.00425832385738,-0.00239224361158,0.0,0.0,-0.0968838500977
1505429709273037778,-0.0306353209247,0.00596411836863,0.0,0.0,0.0,0.0
1505429709322994198,-0.0235287235327,0.0153946453628,-0.0024070213206,0.0,0.0,-0.0814938354492
1505429709373062800,-0.0443357540669,-0.00607694471413,-0.00240999775098,0.0,0.0,-0.0750605773926
1505429709423072623,-0.0299674458147,0.011645074406,0.0,0.0,0.0,0.0
1505429709473023447,0.00717749017202,0.0396003818439,-0.00250929068639,0.0,0.0,-0.0745040893555
1505429709523022338,-0.0985822301505,-0.056157267896,0.0,0.0,0.0,0.0
1505429709573056299,-0.0518958213333,-0.00840652948337,0.0,0.0,0.0,0.0
1505429709623104500,-0.0383908353247,-0.00242048660334,0.0,0.0,0.0,0.0
1505429709673076957,-0.0663758940564,-0.0134063543378,0.0,0.0,0.0,0.0
1505429709723032534,-0.043865238233,0.00574758144821,0.0,0.0,0.0,0.0
1505429709773045072,-0.0725457020088,-0.000676822088326,0.0,0.0,0.0,0.0
1505429709823097357,-0.0468836392934,0.0133568439924,0.0,0.0,0.0,0.0
1505429709873094319,-0.0625314424102,0.0155514608891,0.0,0.0,0.0,0.0
1505429709923048296,-0.0720246613973,0.0115637166511,0.0,0.0,0.0,0.0
1505429709973107482,-0.0531802097727,0.0147813553985,0.0,0.0,0.0,0.0
1505429710023005662,-0.055012004184,0.020339717759,-0.00237451596193,0.0,0.0,-0.0358245849609
1505429710073205993,-0.0514709447777,0.0216560412035,-0.00238091967023,0.0,0.0,-0.0430307006836
1505429710123219193,-0.0491688068773,0.0192446610939,0.0,0.0,0.0,0.0
1505429710173071195,-0.0392309332755,0.0228818997678,-0.00344882283704,0.0,0.0,-0.0274694824219
1505429710223009230,-0.0587884678862,0.030570848196,0.0,0.0,0.0,0.0
1505429710273020060,-0.0401299387163,0.0220302346533,0.0,0.0,0.0,0.0
1505429710323002376,-0.0331861753148,0.0245152536388,0.0,0.0,0.0,0.0
1505429710372979491,-0.0446364786572,0.0314462190072,0.0,0.0,0.0,0.0
1505429710423094114,-0.0297098655328,0.0199106172717,0.0,0.0,0.0,0.0
1505429710473016864,-0.0263876224522,0.0148234090284,-0.0035215412641,0.0,0.0,-0.0195530700684
1505429710523037902,-0.0266390444601,0.0237986876723,-0.00353894249457,0.0,0.0,-0.0270896911621
1505429710572997419,-0.0202700299774,0.0113221852169,-0.00352638654942,0.0,0.0,-0.0179219818115
1505429710622974768,-0.0185241508047,0.0101659605351,0.0,0.0,0.0,0.0
1505429710673025640,-0.0131760372657,0.00963309094687,-0.00351116243749,0.0,0.0,-0.00462753295898
1505429710723038388,-0.0146949342444,0.00385249038715,-0.00350576339062,0.0,0.0,-0.0109323120117
1505429710773068391,-0.00711193938211,0.00507079822969,0.0,0.0,0.0,0.0
1505429710823083710,-0.00707378234037,0.0039067668712,-0.00346691894046,0.0,0.0,0.00193954467773
1505429710873026752,-0.00787481880302,-0.00228348724477,-0.00344338310824,0.0,0.0,-0.00298645019531
1505429710923119596,-0.000442177561559,0.0113183511646,0.0,0.0,0.0,0.0
1505429710973032323,-0.00210227464544,0.00525448876192,-0.00343895642369,0.0,0.0,0.00229370117187
1505429711023063211,-0.00470020185357,0.00262358151196,0.0,0.0,0.0,0.0
1505429711073025653,0.0036650699298,0.011506622084,0.0,0.0,0.0,0.0
1505429711123051783,-0.00192214321975,0.00465066098101,0.0,0.0,0.0,0.0
1505429711173002011,-0.00436327706057,-0.00563458021374,-0.00344386581308,0.0,0.0,0.0207795715332
1505429711223051201,0.00116252573189,-0.00293451016628,0.0,0.0,0.0,0.0
1505429711273041069,-0.00649726668349,-0.00989670766674,0.0,0.0,0.0,0.0
1505429711323090035,-0.00524693555644,-0.0124299299129,0.0,0.0,0.0,0.0
1505429711373103226,-0.00232087958576,-0.0232426580391,-0.00344947307097,0.0,0.0,0.052884979248
1505429711423019406,-0.00712904311051,-0.0325848799812,0.0,0.0,0.0,0.0
1505429711473256421,-0.00871600947304,-0.0378957212885,0.0,0.0,0.0,0.0
1505429711523001081,-0.00909915950996,-0.0462367506394,0.0,0.0,0.0,0.0
1505429711573019299,-0.0114331184009,-0.048623918285,0.0,0.0,0.0,0.0
1505429711622999350,-0.0102901442075,-0.0674267759197,-0.00342197244907,0.0,0.0,0.0622174072266
1505429711672987517,-0.0149958034226,-0.0683685316961,0.0,0.0,0.0,0.0
1505429711723020121,-0.0186913420026,-0.0738136414818,0.0,0.0,0.0,0.0
1505429711773059897,-0.0216166515032,-0.0801248220964,0.0,0.0,0.0,0.0
1505429711823014949,-0.0209706883878,-0.0862576021628,-0.00345126466001,0.0,0.0,0.0661364746094
1505429711873045376,-0.0209008399296,-0.0741441500492,-0.0034755503743,0.0,0.0,0.07483543396
1505429711923027678,-0.0245332305369,-0.0879049798299,-0.00350876430046,0.0,0.0,0.078080368042
1505429711973058783,-0.0240628890574,-0.078597402802,-0.0035199354203,0.0,0.0,0.0703601074219
1505429712023028924,-0.0209026785543,-0.0749437981952,-0.0035381981414,0.0,0.0,0.0642869567871
1505429712073076932,-0.0208655988314,-0.0671696842447,-0.00356267895471,0.0,0.0,0.0639398193359
1505429712123083348,-0.0179357108555,-0.0607451074745,0.0,0.0,0.0,0.0
1505429712173013726,-0.015189669575,-0.0506983278755,0.0,0.0,0.0,0.0
1505429712223041760,-0.0139049474862,-0.0332310136993,0.0,0.0,0.0,0.0
1505429712273083995,-0.0136861450537,-0.0449151429421,0.0,0.0,0.0,0.0
1505429712323029619,-0.01020605866,-0.0298643037939,-0.00362202585208,0.0,0.0,0.0574072265625
1505429712373093855,-0.00765127222635,-0.0155426372221,0.0,0.0,0.0,0.0
1505429712423131503,-0.00908257086843,-0.0315175120378,0.0,0.0,0.0,0.0
1505429712473033864,-0.00543527932369,-0.0123042523035,0.0,0.0,0.0,0.0
1505429712523065203,-0.00208852485981,0.00461934738763,0.0,0.0,0.0,0.0
1505429712573036937,-0.00610170053265,-0.0147228552178,0.0,0.0,0.0,0.0
1505429712623016540,-0.00361032655257,-0.00309208183552,0.0,0.0,0.0,0.0
1505429712672990729,-0.00248189556692,0.0142098909084,0.0,0.0,0.0,0.0
1505429712723003859,-0.00704919347137,-0.00261913739652,0.0,0.0,0.0,0.0
1505429712773096275,-0.00111283398677,0.0136845476518,-0.00250317144413,0.0,0.0,0.0621789550781
1505429712823080526,-0.00519013489502,-0.00467185061832,0.0,0.0,0.0,0.0
1505429712873124732,-0.00275611100479,0.00408077503165,0.0,0.0,0.0,0.0
1505429712923074411,-0.00112949459967,0.0158175520666,0.0,0.0,0.0,0.0
1505429712973000613,-0.00669326716233,-0.0160374713007,-0.00235547525373,0.0,0.0,0.0561695861816
1505429713023303852,-0.00445874178596,-0.0116635975137,-0.00234322513052,0.0,0.0,0.0235260772705
1505429713072989706,-0.00537652772541,-0.0162361363453,-0.00234018090273,0.0,0.0,0.0369078063965
1505429713123132847,-0.00832944169145,-0.040481977886,-0.00232540825327,0.0,0.0,0.0158751678467
1505429713172996441,-0.00753881757787,-0.0364818845627,-0.00238120110649,0.0,0.0,0.0317653656006
1505429713223006990,-0.00833273395291,-0.0481056891271,-0.00242183796051,0.0,0.0,0.0235343933105
1505429713273099837,-0.00662187801649,-0.044535912427,0.0,0.0,0.0,0.0
1505429713323024050,-0.00617094341593,-0.0502301484597,-0.00245680645015,0.0,0.0,0.016565322876
1505429713373100062,-0.0057737354928,-0.0488536832018,-0.00246567178368,0.0,0.0,0.0258406829834
1505429713423050297,-0.00541684832112,-0.0540828894194,-0.00246820056399,0.0,0.0,0.015959777832
1505429713473003875,-0.00331213451811,-0.0584549664664,-0.00248439856627,0.0,0.0,0.0136287689209
1505429713523086016,-0.00633588984009,-0.0556396937727,-0.00249580136523,0.0,0.0,0.0180662536621
1505429713573029234,-0.0055420093869,-0.0604695216395,-0.002500438486,0.0,0.0,0.015196685791
1505429713623051640,-0.00561238475181,-0.0694042172731,0.0,0.0,0.0,0.0
1505429713673039821,-0.0067325677213,-0.0597009832655,-0.00252611473576,0.0,0.0,0.00471908569336
1505429713723083723,-0.0085960280896,-0.0739044405749,0.0,0.0,0.0,0.0
1505429713773094027,-0.00752436064065,-0.0680599691712,-0.00253564256205,0.0,0.0,0.00860397338867
1505429713823156060,-0.00798542720852,-0.067054316346,0.0,0.0,0.0,0.0
1505429713873069424,-0.0090364190675,-0.0725561691025,0.0,0.0,0.0,0.0
1505429713923139147,-0.00962928216411,-0.0827991765799,0.0,0.0,0.0,0.0
1505429713973010371,-0.0111149623999,-0.0744453871342,0.0,0.0,0.0,0.0
1505429714023166345,-0.0131076771183,-0.0814840669078,0.0,0.0,0.0,0.0
1505429714073012850,-0.0140454048542,-0.0826253188311,0.0,0.0,0.0,0.0
1505429714123063979,-0.0161462343718,-0.081650810663,0.0,0.0,0.0,0.0
1505429714173008920,-0.0168508426107,-0.086755241495,0.0,0.0,0.0,0.0
1505429714222980410,-0.0145430479116,-0.0773828554431,0.0,0.0,0.0,0.0
1505429714273039287,-0.0133487790037,-0.0697149286492,0.0,0.0,0.0,0.0
1505429714323029192,-0.0144086499929,-0.0905279466777,0.0,0.0,0.0,0.0
1505429714373110043,-0.0120676877018,-0.076726766549,0.0,0.0,0.0,0.0
1505429714423033009,-0.00930162239028,-0.0645871681158,0.0,0.0,0.0,0.0
1505429714473127463,-0.00551758823581,-0.0593926293332,0.0,0.0,0.0,0.0
1505429714523069486,-0.000209038600414,-0.0484293043126,0.0,0.0,0.0,0.0
1505429714573071716,-0.000917456091751,-0.0450581011403,0.0,0.0,0.0,0.0
1505429714623137611,0.00483922507048,-0.033325479361,0.0,0.0,0.0,0.0
1505429714672983344,0.00445228589322,-0.0313577241103,0.0,0.0,0.0,0.0
1505429714723023018,0.00558145127302,-0.0255639545579,0.0,0.0,0.0,0.0
1505429714773041362,0.00455326274759,-0.0313415523437,0.0,0.0,0.0,0.0
1505429714823025659,0.00718340004374,-0.0264509716939,-0.00244775045737,0.0,0.0,-0.00360244750977
1505429714873041834,0.0127191181096,-0.0143815754194,-0.00242189675061,0.0,0.0,0.00576751708984
1505429714923152304,0.00662786146676,-0.0299941601341,0.0,0.0,0.0,0.0
1505429714973041496,0.0106357539032,-0.024470266606,0.0,0.0,0.0,0.0
1505429715023099397,0.0112203167687,-0.0305076523291,0.0,0.0,0.0,0.0
1505429715072995353,0.0117417943024,-0.0356456903404,0.0,0.0,0.0,0.0
1505429715123051562,0.0108621043677,-0.0424399226655,0.0,0.0,0.0,0.0
1505429715173027684,-0.00299017695989,-0.0480043588844,0.0,0.0,0.0,0.0
1505429715222995238,0.0238405476104,-0.0664536739277,0.0,0.0,0.0,0.0
1505429715273067143,-0.00309057578276,-0.0463313038407,0.0,0.0,0.0,0.0
1505429715323126758,0.0230078471016,-0.0997819847184,-0.00236106327064,0.0,0.0,0.00416519165039
1505429715373104835,0.00413552414977,-0.0650467673648,-0.00239870986032,0.0,0.0,9.62829589844e-05
1505429715423249710,0.00491290430789,-0.0831618591582,0.0,0.0,0.0,0.0
1505429715473122933,-0.00133833332592,-0.0631347006525,-0.00239671700466,0.0,0.0,0.00167877197266
1505429715523040474,0.000704860732271,-0.130856011498,0.0,0.0,0.0,0.0
1505429715573072115,-0.0063662727141,-0.0895077959657,-0.0025249641264,0.0,0.0,-0.0138600158691
1505429715623082016,-0.0101612817571,-0.0918799429035,0.0,0.0,0.0,0.0
1505429715673063112,-0.0151361735089,-0.0929922321676,0.0,0.0,0.0,0.0
1505429715723049605,-0.0196356307084,-0.0909724873978,0.0,0.0,0.0,0.0
1505429715773055187,-0.024656696787,-0.0879731898535,-0.00262246645354,0.0,0.0,-0.0193487548828
1505429715823060025,-0.0286248256716,-0.0861635099461,-0.00265354176211,0.0,0.0,-0.0200346374512
1505429715873132679,-0.0306047939793,-0.0801608342347,0.0,0.0,0.0,0.0
1505429715922983006,-0.0369328005594,-0.0782936389523,-0.00265155148467,0.0,0.0,-0.0247605895996
1505429715973163503,-0.0386297874582,-0.0746962046679,-0.0026749558708,0.0,0.0,-0.02833984375
1505429716023083437,-0.0412918602675,-0.0728055661068,-0.00270281609229,0.0,0.0,-0.0402006530762
1505429716073066694,-0.0430273689984,-0.0690951926468,-0.00262805956726,0.0,0.0,-0.0494953155518
1505429716123027371,-0.0539832261616,-0.0819990042317,-0.00254194571097,0.0,0.0,-0.0329455566406
1505429716173040099,-0.0385456606106,-0.0608066130666,0.0,0.0,0.0,0.0
1505429716223101211,-0.0461904529162,-0.0692228556369,0.0,0.0,0.0,0.0
1505429716273073716,-0.0441525052171,-0.0546642045247,-0.00268084389166,0.0,0.0,-0.0280097961426
1505429716323110346,-0.0442866049498,-0.0513236650747,-0.0026808087542,0.0,0.0,-0.0280949401855
1505429716373088499,-0.0405250884506,-0.0462014088583,0.0,0.0,0.0,0.0
1505429716422993714,-0.0411573389403,-0.037663350339,-0.00267426810664,0.0,0.0,-0.0252777862549
1505429716473091053,-0.0395243128588,-0.0319289291507,-0.00261806122109,0.0,0.0,-0.0277708435059
1505429716523064194,-0.0375737555031,-0.0270743541517,-0.00257387247397,0.0,0.0,-0.0266142272949
1505429716573030689,-0.0374739325729,-0.0197832804619,-0.00254779279694,0.0,0.0,-0.0191165161133
1505429716623059281,-0.0344947195771,-0.0124943879772,-0.00260126930643,0.0,0.0,-0.0257217407227
1505429716673029996,-0.0328832116324,-0.00715731326456,0.0,0.0,0.0,0.0
1505429716723062293,-0.0319537445259,0.00349441989768,-0.00261374371374,0.0,0.0,-0.0132499694824
1505429716773040893,-0.0302609954914,0.0142856706692,-0.00260902674116,0.0,0.0,-0.017176361084
1505429716823100866,-0.0293369653875,0.0169110301039,-0.00256485289489,0.0,0.0,-0.0194268035889
1505429716873075330,-0.0284944462597,0.025927907608,-0.00252061011737,0.0,0.0,-0.0249838256836
1505429716922988471,-0.0266703298924,0.0290210350509,-0.00249379650166,0.0,0.0,-0.0239189147949
1505429716973040561,-0.0255115940683,0.0323477739386,-0.00243934199909,0.0,0.0,-0.010719833374
1505429717023132103,-0.0255905425511,0.0306965920386,-0.00240911602814,0.0,0.0,-0.0131438446045
1505429717073041379,-0.0250913729613,0.0276811461404,0.0,0.0,0.0,0.0
1505429717123098134,-0.0250281724269,0.0320269512326,-0.00242466441331,0.0,0.0,-0.0102610778809
1505429717172996621,-0.0231472401191,0.0308658909908,-0.00242426812041,0.0,0.0,-0.0168598937988
1505429717223067780,-0.0211484104507,0.0248955290106,-0.00240941417113,0.0,0.0,-0.0171286010742
1505429717273048730,-0.0192611934415,0.0195622666693,0.0,0.0,0.0,0.0
1505429717323102009,-0.0156571979598,0.0213136261876,-0.0024397333118,0.0,0.0,-0.0173692321777
1505429717373025383,-0.012801406072,0.0178855829445,-0.00242977419725,0.0,0.0,-0.0285824584961
1505429717423094821,-0.00954577369126,0.014137390352,-0.00243166395651,0.0,0.0,-0.0194709777832
1505429717473064481,-0.00777011071518,0.0119379974187,-0.00244466291349,0.0,0.0,-0.0105268859863
1505429717523044321,-0.00589744092271,0.0153366953173,-0.00245893429224,0.0,0.0,-0.00602500915527
1505429717573017927,-0.00269807771505,0.0156155098553,-0.00245609334149,0.0,0.0,-0.00547103881836
1505429717623067711,-0.000629735843294,0.0126263735936,0.0,0.0,0.0,0.0
1505429717673048598,0.00143750648849,0.00852599258366,0.0,0.0,0.0,0.0
1505429717723113058,0.00191577040973,0.011053984402,-0.00243386539768,0.0,0.0,-0.00631225585938
1505429717773044926,0.00164351788911,0.0130974648852,-0.00243069579431,0.0,0.0,-0.0167473602295
1505429717823041241,0.00140394068479,0.0133100734724,-0.00241781390457,0.0,0.0,-0.00098876953125
1505429717873062089,0.00198853515699,0.0150937221707,-0.00241199235716,0.0,0.0,-0.0268231201172
1505429717923261333,0.000473527194395,0.0168329030502,-0.0024209413297,0.0,0.0,-0.017396774292
1505429717973026652,-0.00100740591844,0.0197464940452,0.0,0.0,0.0,0.0
1505429718023123257,-0.00106290077241,0.0249583940507,0.0,0.0,0.0,0.0
1505429718073039261,2.72424714103e-05,0.031498185037,-0.00244032781651,0.0,0.0,-0.014656829834
1505429718123101738,0.000710447991034,0.0338476712125,0.0,0.0,0.0,0.0
1505429718173005258,0.00137498809486,0.0452582858936,0.0,0.0,0.0,0.0
1505429718223103079,0.0011744854096,0.0521304501587,0.0,0.0,0.0,0.0
1505429718273039502,0.00149748921132,0.0616045574608,-0.00243197472765,0.0,0.0,-0.0179348754883
1505429718323027104,0.00112901295573,0.0669798001669,0.0,0.0,0.0,0.0
1505429718373009875,-6.99280168417e-05,0.068405164993,0.0,0.0,0.0,0.0
1505429718423148435,-0.00192857255492,0.0719363959315,-0.00346160710697,0.0,0.0,-0.0179930114746
1505429718473184907,-0.00440650916007,0.0694716790118,0.0,0.0,0.0,0.0
1505429718523037012,-0.00516251720795,0.0684250397023,0.0,0.0,0.0,0.0
1505429718573043884,-0.00433114923959,0.0762013124159,-0.00348326080903,0.0,0.0,-0.0265515136719
1505429718623054195,-0.00482831834547,0.0748037250022,-0.00351269157515,0.0,0.0,-0.0194773864746
1505429718673055240,-0.00535759582893,0.0743274232749,0.0,0.0,0.0,0.0
1505429718723079028,-0.00584193212334,0.0783942717168,-0.00351189056631,0.0,0.0,-0.0128071594238
1505429718773035035,-0.00573743117908,0.0797165345762,-0.00351127411502,0.0,0.0,-0.00726470947266
1505429718823038497,-0.0049676718751,0.083222728956,0.0,0.0,0.0,0.0
1505429718873112612,-0.00528549794716,0.0845357638176,-0.00354074652014,0.0,0.0,-0.0039518737793
1505429718923253734,-0.00568183397626,0.0833338290035,0.0,0.0,0.0,0.0
1505429718973217538,-0.0062148333491,0.0900151184009,-0.00357240122176,0.0,0.0,-0.00735412597656
1505429719023085038,-0.00475024282691,0.0852387535774,0.0,0.0,0.0,0.0
1505429719073050026,-0.00373006804287,0.08576733791,0.0,0.0,0.0,0.0
1505429719122972269,-0.00205735999636,0.08765056908,0.0,0.0,0.0,0.0
1505429719173054340,-0.00108029490414,0.0872562608302,0.0,0.0,0.0,0.0
1505429719223090431,-0.000802177408058,0.0956965828045,-0.00366265284683,0.0,0.0,-0.0145107269287
1505429719273070405,-0.000353500300737,0.0927037801661,0.0,0.0,0.0,0.0
1505429719322988709,0.00109169454281,0.0876286619226,-0.00360468341747,0.0,0.0,0.00225662231445
1505429719373037468,0.00228978510561,0.0869215676087,-0.00359274208377,0.0,0.0,0.00571670532227
1505429719423075847,0.00433306585173,0.0828897993896,0.0,0.0,0.0,0.0
1505429719473025329,0.00695408237757,0.0797149195907,0.0,0.0,0.0,0.0
1505429719523030122,0.00980792631902,0.074630765246,-0.00272214984197,0.0,0.0,0.0101054382324
1505429719573029842,0.01239906967,0.071342426984,0.0,0.0,0.0,0.0
1505429719623001537,0.0132839921176,0.0626964437519,0.0,0.0,0.0,0.0
1505429719673060735,0.0149124844988,0.0591386582403,0.0,0.0,0.0,0.0
1505429719723016696,0.0165013067404,0.0543548573382,0.0,0.0,0.0,0.0
1505429719773015004,0.0191852733007,0.0491054466803,0.0,0.0,0.0,0.0
1505429719823102201,0.0223450629167,0.0442181552797,0.0,0.0,0.0,0.0
1505429719873078550,0.0244421354884,0.0432601639879,0.0,0.0,0.0,0.0
1505429719923007179,0.0258255246859,0.0505160102475,0.0,0.0,0.0,0.0
1505429719973008115,0.027558327994,0.05392993844,-0.00250996599899,0.0,0.0,0.0113867950439
1505429720023032771,0.0279563138398,0.0501752241063,-0.00259212032167,0.0,0.0,0.0102722930908
1505429720073039186,0.0287985611568,0.0451524157063,-0.0016915860918,0.0,0.0,-0.00524215698242
1505429720123084039,0.027306044676,0.0416280039389,0.0,0.0,0.0,0.0
1505429720173208139,0.0259263825773,0.0377484644244,0.0,0.0,0.0,0.0
1505429720223091458,0.0257495282694,0.0390517979408,0.0,0.0,0.0,0.0
1505429720273203654,0.0240626947122,0.044933936117,-0.00250862666127,0.0,0.0,0.0240333557129
1505429720323137944,0.0226293919363,0.0431802483536,0.0,0.0,0.0,0.0
1505429720373121695,0.0209054990641,0.0353582331687,-0.00169461925626,0.0,0.0,0.0116566467285
1505429720423092550,0.0177973239928,0.0326076149382,0.0,0.0,0.0,0.0
1505429720473047145,0.0133275150724,0.0349144847396,0.0,0.0,0.0,0.0
1505429720523109031,0.0126240785519,0.0379560918294,-0.00243953267452,0.0,0.0,0.0361817932129
1505429720573058493,0.0105145292967,0.0397408777037,-0.00244978914804,0.0,0.0,0.0361817932129
1505429720623051593,0.00846989259741,0.038910505917,0.0,0.0,0.0,0.0
1505429720673145982,0.00605279524434,0.0328254592042,-0.00259828764733,0.0,0.0,0.0302662658691
1505429720723151216,0.00397143534174,0.0315936308419,-0.00260029489933,0.0,0.0,0.0249633789062
1505429720773147037,0.00253060208615,0.0292737199454,-0.00252187135045,0.0,0.0,0.0257412719727
1505429720823040450,0.00101920730983,0.0267762514229,0.0,0.0,0.0,0.0
1505429720873084539,-0.00047809340819,0.0234079267271,0.0,0.0,0.0,0.0
1505429720923165655,-0.00230236599424,0.0196402018758,0.0,0.0,0.0,0.0
1505429720973149738,-0.00303797108218,0.0206135048664,0.0,0.0,0.0,0.0
1505429721023164680,-0.0054466946321,0.00682957475893,0.0,0.0,0.0,0.0
1505429721073199468,-0.0070839610178,0.0190666016604,0.0,0.0,0.0,0.0
1505429721123090044,-0.00889134620036,0.0257409599655,0.0,0.0,0.0,0.0
1505429721173018996,-0.0113455992731,0.0293494945839,0.0,0.0,0.0,0.0
1505429721223020039,-0.0139054056766,0.0313958460526,0.0,0.0,0.0,0.0
1505429721272991417,-0.0157343081721,0.0378928680387,-0.00246070895576,0.0,0.0,0.0213725280762
1505429721323156861,-0.0168574097714,0.0410582412267,-0.00244259130885,0.0,0.0,0.0364735412598
1505429721373155580,-0.0164825467671,0.0451632215713,0.0,0.0,0.0,0.0
1505429721423181988,-0.0171322892953,0.0486737246974,0.0,0.0,0.0,0.0
1505429721473035576,-0.016874137314,0.0486240111975,0.0,0.0,0.0,0.0
1505429721523141309,-0.0173496171526,0.050135944521,0.0,0.0,0.0,0.0
1505429721573093779,-0.0182308080184,0.0449910111289,0.0,0.0,0.0,0.0
1505429721623054989,-0.0186378942408,0.0387221571691,0.0,0.0,0.0,0.0
1505429721673345936,-0.0174657626716,0.0352656528558,-0.00163912592927,0.0,0.0,0.0342425537109
1505429721723080293,-0.0159880242581,0.0272973125271,0.0,0.0,0.0,0.0
1505429721773000635,-0.0158713011331,0.0227178478111,-0.00267104869101,0.0,0.0,0.0344814300537
1505429721823119353,-0.0149663673246,0.00851055004451,0.0,0.0,0.0,0.0
1505429721873080661,-0.0139621539359,0.00157224196376,-0.00257541847098,0.0,0.0,0.0573913574219
1505429721923087492,-0.0136588012876,-0.00820909275354,0.0,0.0,0.0,0.0
1505429721973091561,-0.0131148955022,-0.0139811120184,0.0,0.0,0.0,0.0
1505429722023087122,-0.0134962102829,-0.0301416639531,-0.00257251727462,0.0,0.0,0.0396379089355
1505429722073007598,-0.0129699342338,-0.0396631007228,-0.0025075809635,0.0,0.0,0.0425991821289
1505429722123127354,-0.0127208172883,-0.0383135065897,0.0,0.0,0.0,0.0
1505429722173052726,-0.0106779737855,-0.0368773239335,0.0,0.0,0.0,0.0
1505429722223076916,-0.0090103477023,-0.0370822999515,0.0,0.0,0.0,0.0
1505429722273028848,-0.00637599527079,-0.0371615994428,-0.00234607767416,0.0,0.0,0.039748840332
1505429722323155550,-0.00337393424137,-0.0347985649797,-0.00234607273759,0.0,0.0,0.0525866699219
1505429722373053060,-0.00163280197004,-0.0237325320025,-0.00234640864806,0.0,0.0,0.0286990356445
1505429722423103277,0.00228456886533,-0.0368288540443,0.0,0.0,0.0,0.0
1505429722473021067,0.00261119252946,-0.0249738911193,-0.00234263360965,0.0,0.0,0.0436084747314
1505429722523139306,0.00112815691043,-0.0119594526343,0.0,0.0,0.0,0.0
1505429722573117528,0.00610104418192,-0.0142089158296,0.0,0.0,0.0,0.0
1505429722623107061,0.00313087397662,-0.00793047349104,-0.00337175996542,0.0,0.0,0.0170945739746
1505429722673048408,0.00130000839208,-0.00636450523064,0.0,0.0,0.0,0.0
1505429722723232952,0.00506360955512,0.0185722696581,0.0,0.0,0.0,0.0
1505429722773146100,0.00259427810475,0.00518633682796,0.0,0.0,0.0,0.0
