%time,field.header.seq,field.header.stamp,field.header.frame_id,field.pose.position.x,field.pose.position.y,field.pose.position.z,field.pose.orientation.x,field.pose.orientation.y,field.pose.orientation.z,field.pose.orientation.w
1505429686806027117,5238,1505429686805880663,-0.401376307011,-0.0380374789238,-0.139875411987,0.00861013028771,0.0525492429733,-0.00831433292478,0.998546600342
1505429686816309093,5239,1505429686816107625,-0.401372551918,-0.0380607247353,-0.13989777863,0.00861971825361,0.052549879998,-0.00829011946917,0.998546659946
1505429686826569458,5240,1505429686826386825,-0.401367515326,-0.0381113179028,-0.139932662249,0.00864985026419,0.0525439791381,-0.00828989036381,0.998546719551
1505429686837322729,5241,1505429686837125461,-0.40137180686,-0.0380766168237,-0.139909803867,0.00863476563245,0.0525310486555,-0.00829752907157,0.998547494411
1505429686846621040,5242,1505429686846479350,-0.40138193965,-0.037982005626,-0.139872729778,0.00860858242959,0.052554294467,-0.00834628008306,0.998546123505
1505429686855812575,5243,1505429686855634240,-0.401367068291,-0.0381153561175,-0.139918625355,0.0085979020223,0.0525311976671,-0.00828343722969,0.998547971249
1505429686866061037,5244,1505429686865912189,-0.401365578175,-0.0381149351597,-0.139926970005,0.00868705566972,0.0525263771415,-0.00822707358748,0.998547852039
1505429686877193855,5245,1505429686876133399,-0.401369124651,-0.0380429923534,-0.139892458916,0.00858046859503,0.0525524914265,-0.00829492416233,0.99854683876
1505429686886509838,5246,1505429686886331351,-0.401376187801,-0.0380305573344,-0.139902576804,0.00861150119454,0.0525451824069,-0.00831815507263,0.998546779156
1505429686896553823,5247,1505429686895666249,-0.401378512383,-0.0380769744515,-0.139904335141,0.00864285882562,0.0525513067842,-0.00829426571727,0.998546361923
1505429686905998392,5248,1505429686905861100,-0.401381522417,-0.0381066352129,-0.139930054545,0.00862699002028,0.0525316558778,-0.00833343248814,0.998547255993
1505429686916279014,5249,1505429686916102403,-0.401373505592,-0.0380614995956,-0.139896839857,0.00860241707414,0.0525438413024,-0.00831821653992,0.998546898365
1505429686926956202,5250,1505429686926840975,-0.401374995708,-0.0380311235785,-0.139892548323,0.00861700531095,0.0525441206992,-0.00830898154527,0.998546898365
1505429686936331285,5251,1505429686936182524,-0.401373833418,-0.0380998551846,-0.139928072691,0.00862949620932,0.0525199137628,-0.00828597322106,0.998548209667
1505429686946544317,5252,1505429686946380384,-0.401377052069,-0.0380948297679,-0.139907360077,0.00863117258996,0.0525530911982,-0.00826905108988,0.998546600342
1505429686956812296,5253,1505429686956599957,-0.401380926371,-0.0380660668015,-0.139889225364,0.00860055815428,0.0525427050889,-0.0083055915311,0.998547077179
1505429686965986308,5254,1505429686965842105,-0.401379078627,-0.0380698442459,-0.139887660742,0.00861182529479,0.0525465458632,-0.00831651128829,0.998546779156
1505429686976703906,5255,1505429686976102848,-0.401383727789,-0.0380990989506,-0.139895275235,0.00861558225006,0.0525520220399,-0.00830436777323,0.998546481133
1505429686986612331,5256,1505429686986397151,-0.401372134686,-0.0380569957197,-0.139910638332,0.00862702075392,0.0525390952826,-0.00829703267664,0.998547136784
1505429686996871357,5257,1505429686996646724,-0.401372224092,-0.0380891896784,-0.13991330564,0.00860875472426,0.0525445267558,-0.00830596778542,0.998546898365
1505429687006033824,5258,1505429687005902988,-0.401382148266,-0.0380627699196,-0.139883413911,0.008599774912,0.0525551959872,-0.00832978636026,0.998546302319
1505429687016456189,5259,1505429687016212412,-0.40137976408,-0.0380673184991,-0.139904275537,0.00860429555178,0.0525337718427,-0.00832743570209,0.998547375202
1505429687026673754,5260,1505429687026508895,-0.401370644569,-0.038103684783,-0.139917954803,0.00861179642379,0.0525378026068,-0.00830337032676,0.998547315598
1505429687036222204,5261,1505429687036006510,-0.40137937665,-0.0380362533033,-0.139877796173,0.00862352177501,0.0525654479861,-0.00832584965974,0.998545527458
1505429687046453672,5262,1505429687046297334,-0.401372134686,-0.0380336306989,-0.139902606606,0.00862292200327,0.0525409765542,-0.0083046797663,0.99854695797
1505429687056831950,5263,1505429687056543758,-0.401373177767,-0.0380633212626,-0.139895126224,0.00862588919699,0.0525505542755,-0.00829333253205,0.998546600342
1505429687066040481,5264,1505429687065872812,-0.401378214359,-0.0381174907088,-0.139920458198,0.00863200519234,0.0525384433568,-0.00828719232231,0.998547255993
1505429687076436799,5265,1505429687076148023,-0.401377916336,-0.0381029807031,-0.139926984906,0.008634400554,0.0525308325887,-0.00829411391169,0.998547554016
1505429687086720982,5266,1505429687086531899,-0.401380330324,-0.038001306355,-0.139869749546,0.00858888309449,0.05255080387,-0.00835074298084,0.998546421528
1505429687096048056,5267,1505429687095840155,-0.401371836662,-0.0380531027913,-0.139903128147,0.00860608462244,0.052529592067,-0.00829439330846,0.998547852039
1505429687106308399,5268,1505429687106131775,-0.401372253895,-0.0380688272417,-0.139893129468,0.00862019695342,0.0525533631444,-0.00829081144184,0.998546481133
1505429687116605925,5269,1505429687116340054,-0.401380389929,-0.0380681604147,-0.139892295003,0.00863770861179,0.0525382347405,-0.00830121804029,0.998547077179
1505429687126727152,5270,1505429687126597691,-0.401371657848,-0.0381227843463,-0.139921486378,0.00861985236406,0.0525254867971,-0.00825648102909,0.998548209667
1505429687186579041,5271,1505429687186321515,-0.401374071836,-0.0380424372852,-0.139882668853,0.00860577635467,0.0525502376258,-0.00829519610852,0.998546779156
1505429687196838429,5272,1505429687196589122,-0.40136128664,-0.0381129868329,-0.139917716384,0.00865804683417,0.0525306239724,-0.00824151467532,0.99854773283
1505429687205947754,5273,1505429687205812137,-0.401363730431,-0.0380824841559,-0.139911934733,0.00863104127347,0.0525250844657,-0.00829162076116,0.998547852039
1505429687216244450,5274,1505429687216028395,-0.401368170977,-0.0380375869572,-0.139903351665,0.00863073952496,0.052531529218,-0.00828058086336,0.998547673225
1505429687226533342,5275,1505429687226401875,-0.401383787394,-0.0380140990019,-0.139887869358,0.00861017499119,0.0525548681617,-0.00834714714438,0.998546004295
1505429687236844865,5276,1505429687236589219,-0.401384830475,-0.0380771495402,-0.139899164438,0.00860465690494,0.0525365695357,-0.00834063906223,0.998547077179
1505429687245971641,5277,1505429687245851360,-0.401383340359,-0.0381036736071,-0.139898136258,0.00862409733236,0.0525479242206,-0.00829591229558,0.998546719551
1505429687256233993,5278,1505429687256042949,-0.401374965906,-0.0380584783852,-0.139876395464,0.00862922240049,0.0525409840047,-0.00831636600196,0.99854695797
1505429687266371041,5279,1505429687266231369,-0.401363164186,-0.0380842834711,-0.139906004071,0.00865352153778,0.052537355572,-0.00827523786575,0.998547196388
1505429687276711306,5280,1505429687276452453,-0.401372253895,-0.0380872264504,-0.139906451106,0.00863151624799,0.0525268316269,-0.00830783322453,0.998547673225
1505429687285790929,5281,1505429687285678873,-0.40138193965,-0.0380714014173,-0.139897510409,0.0086110830307,0.0525404252112,-0.00829265359789,0.998547255993
1505429687296061534,5282,1505429687295877134,-0.401381283998,-0.0380730368197,-0.13989828527,0.00859620515257,0.0525251738727,-0.00831434130669,0.998547971249
1505429687306221867,5283,1505429687306073682,-0.40137898922,-0.0380652807653,-0.139878481627,0.00858774408698,0.0525552146137,-0.00828108377755,0.998546719551
1505429687316465178,5284,1505429687316300124,-0.401368290186,-0.0380824618042,-0.13989892602,0.0086067840457,0.0525188073516,-0.00828398391604,0.99854850769
1505429687326713941,5285,1505429687326585567,-0.401374220848,-0.0380644500256,-0.13990958035,0.00860481895506,0.0525194890797,-0.00833425018936,0.998548030853
1505429687336078798,5286,1505429687335903192,-0.40137591958,-0.0380680300295,-0.139887437224,0.00860011763871,0.052543271333,-0.00830846559256,0.998547017574
1505429687346413032,5287,1505429687346169266,-0.401384145021,-0.0381093136966,-0.139905527234,0.00861309189349,0.0525256283581,-0.00832684244961,0.99854773283
1505429687356763465,5288,1505429687356394548,-0.401365309954,-0.0380605831742,-0.139893248677,0.00862575601786,0.0525364503264,-0.00827918946743,0.998547434807
1505429687366910245,5289,1505429687366690267,-0.401369422674,-0.0380724035203,-0.139911323786,0.00860400591046,0.0525377988815,-0.00830588769168,0.998547315598
1505429687376163431,5290,1505429687375958925,-0.401368498802,-0.0380595587194,-0.139911517501,0.00862980633974,0.0525484979153,-0.00829741917551,0.998546600342
1505429687386470764,5291,1505429687386245008,-0.401371657848,-0.0380548536777,-0.139896467328,0.00858857110143,0.0525348372757,-0.00834039691836,0.998547315598
1505429687396627290,5292,1505429687396459631,-0.401371568441,-0.0381053052843,-0.139915555716,0.00862902402878,0.052525728941,-0.00830271374434,0.998547792435
1505429687406890233,5293,1505429687406681456,-0.401377350092,-0.0380691699684,-0.13988776505,0.00863462220877,0.0525442585349,-0.00829725433141,0.99854683876
1505429687416096758,5294,1505429687415928976,-0.401374042034,-0.0381040871143,-0.13989828527,0.00859462562948,0.0525306947529,-0.00829810835421,0.998547852039
1505429687426304380,5295,1505429687426198750,-0.401366204023,-0.0380741618574,-0.139906167984,0.00861241109669,0.0525419451296,-0.0083024315536,0.998547136784
1505429687436711291,5296,1505429687436477311,-0.401367276907,-0.038009122014,-0.139906287193,0.00865070242435,0.0525408834219,-0.00830572005361,0.998546779156
1505429687445862629,5297,1505429687445740843,-0.401369810104,-0.0380959250033,-0.139907449484,0.00862455461174,0.0525389462709,-0.00830306950957,0.998547136784
1505429687456101392,5298,1505429687455918806,-0.401386171579,-0.0380664877594,-0.139875248075,0.00857319962233,0.0525678023696,-0.00834635831416,0.998545706272
1505429687466252883,5299,1505429687466141795,-0.401368200779,-0.0381087101996,-0.139913395047,0.00863394606858,0.052523765713,-0.00827197358012,0.998548150063
1505429687476573540,5300,1505429687476401347,-0.401368975639,-0.0380819551647,-0.139911308885,0.00863580033183,0.0525338426232,-0.00825831666589,0.998547673225
1505429687486793091,5301,1505429687486668329,-0.401376157999,-0.0380368717015,-0.139879718423,0.0086138099432,0.0525623187423,-0.00831585470587,0.998545944691
1505429687496194757,5302,1505429687495891033,-0.401377528906,-0.0380778759718,-0.139916718006,0.00863824877888,0.0525386296213,-0.00830852147192,0.998547017574
1505429687506377515,5303,1505429687506145100,-0.401382803917,-0.0380687192082,-0.139893710613,0.00861009396613,0.0525455586612,-0.00832664035261,0.998546659946
1505429687516649705,5304,1505429687516362281,-0.401384502649,-0.038092661649,-0.139901340008,0.00860417727381,0.0525436215103,-0.00831984169781,0.998546898365
1505429687526324718,5305,1505429687526169997,-0.401370376348,-0.0380963124335,-0.139911532402,0.00862778257579,0.0525142550468,-0.00829539913684,0.99854850769
1505429687536659366,5306,1505429687536389382,-0.401376128197,-0.0380648784339,-0.139918729663,0.00863045547158,0.0525344870985,-0.00829378794879,0.998547375202
1505429687547148555,5307,1505429687546986766,-0.401369482279,-0.0380995944142,-0.139907732606,0.00863148830831,0.052525036037,-0.00829400680959,0.998547911644
1505429687556356452,5308,1505429687556192026,-0.40137937665,-0.037997443229,-0.139863178134,0.00859805848449,0.0525726862252,-0.00831381976604,0.998545467854
1505429687566634303,5309,1505429687566450062,-0.401380509138,-0.0380726307631,-0.139888063073,0.00861543044448,0.0525405146182,-0.00833082664758,0.99854695797
1505429687576910580,5310,1505429687576665008,-0.401378244162,-0.0381071940064,-0.139907464385,0.00859223864973,0.0525373890996,-0.00829668436199,0.998547494411
1505429687585954939,5311,1505429687585857822,-0.401371032,-0.038057167083,-0.139903664589,0.00863848626614,0.052540641278,-0.00829267222434,0.998547017574
1505429687596398327,5312,1505429687596125076,-0.401367813349,-0.0380405448377,-0.139915406704,0.00861763302237,0.0525298118591,-0.00830329302698,0.998547673225
1505429687606543214,5313,1505429687606383359,-0.401366382837,-0.0380570366979,-0.139890015125,0.00861669145525,0.0525644384325,-0.00827306229621,0.998546123505
1505429687617262413,5314,1505429687617084795,-0.401374548674,-0.0380799472332,-0.139900177717,0.00861864816397,0.0525522381067,-0.00828943867236,0.998546600342
1505429687626412603,5315,1505429687626293201,-0.401375204325,-0.0380620099604,-0.139890477061,0.00861041806638,0.0525413416326,-0.00831335969269,0.998547017574
1505429687636738584,5316,1505429687636544940,-0.401382505894,-0.0380801707506,-0.139899984002,0.00859540700912,0.0525582022965,-0.00831763911992,0.998546242714
1505429687645896510,5317,1505429687645669747,-0.401373714209,-0.0380792282522,-0.139907941222,0.00861991290003,0.0525545664132,-0.0083163715899,0.998546302319
1505429687656098667,5318,1505429687655944758,-0.401369601488,-0.0380335822701,-0.139882043004,0.00862046238035,0.0525535568595,-0.00828236807138,0.998546540737
1505429687666286257,5319,1505429687666142969,-0.401374429464,-0.0380332842469,-0.139887318015,0.00860816985369,0.0525409206748,-0.00832750834525,0.99854695797
1505429687676911578,5320,1505429687676751631,-0.401382088661,-0.0380992479622,-0.139908075333,0.00861077662557,0.0525360405445,-0.00829212926328,0.998547494411
1505429687686156378,5321,1505429687686011890,-0.401376724243,-0.0381193906069,-0.139907240868,0.00859599653631,0.0525460839272,-0.00827726256102,0.998547255993
1505429687696455418,5322,1505429687696273437,-0.401380896568,-0.0380260571837,-0.139892816544,0.00861306674778,0.0525448657572,-0.00831406284124,0.99854683876
1505429687706747569,5323,1505429687706511044,-0.40136256814,-0.038041498512,-0.139896690845,0.00862353015691,0.0525509156287,-0.00829090271145,0.998546600342
1505429687715887285,5324,1505429687715681139,-0.401373505592,-0.0380586348474,-0.139891415834,0.00859908480197,0.0525530688465,-0.00831366702914,0.998546540737
1505429687726007347,5325,1505429687725885868,-0.401371955872,-0.0380886718631,-0.139903604984,0.00862737372518,0.0525476336479,-0.0082974229008,0.998546719551
1505429687736461952,5326,1505429687736146530,-0.401378631592,-0.0380723029375,-0.139920666814,0.00863129645586,0.0525363795459,-0.00831090472639,0.998547136784
1505429687746554930,5327,1505429687746446478,-0.40138053894,-0.0380759127438,-0.13989341259,0.00860623084009,0.0525326095521,-0.00831712596118,0.998547554016
1505429687755726499,5328,1505429687755621676,-0.401376396418,-0.0380647815764,-0.139895036817,0.00861600972712,0.0525480732322,-0.00830649863929,0.998546659946
1505429687765948897,5329,1505429687765862765,-0.401368677616,-0.0380486622453,-0.139905542135,0.00860716123134,0.052542027086,-0.00830895733088,0.998547017574
1505429687776959927,5330,1505429687776151764,-0.40137436986,-0.0380588620901,-0.139879032969,0.00859572272748,0.0525500625372,-0.00831231102347,0.998546659946
1505429687786633335,5331,1505429687786409460,-0.401377469301,-0.0380956344306,-0.139876618981,0.0085905212909,0.0525563061237,-0.00831220392138,0.998546421528
1505429687796882691,5332,1505429687796628096,-0.401374459267,-0.0380960069597,-0.139922142029,0.00863115023822,0.0525242760777,-0.00825534481555,0.998548209667
1505429687806091396,5333,1505429687805880016,-0.401373535395,-0.0380711369216,-0.139914512634,0.00861071608961,0.0525388792157,-0.00830512400717,0.998547196388
1505429687816838089,5334,1505429687816604683,-0.401369333267,-0.0380587093532,-0.139886215329,0.00861898902804,0.0525547042489,-0.00829167291522,0.998546421528
1505429687826022233,5335,1505429687825806953,-0.401371866465,-0.0380322337151,-0.139897570014,0.00862798560411,0.0525434799492,-0.00831077527255,0.998546779156
1505429687836215785,5336,1505429687836026458,-0.401377856731,-0.0380948893726,-0.139898076653,0.00861856061965,0.0525515116751,-0.0082851247862,0.998546659946
1505429687846330528,5337,1505429687846222869,-0.401379138231,-0.0381149537861,-0.139914497733,0.00863882806152,0.0525429435074,-0.00829799938947,0.99854683876
1505429687857238146,5338,1505429687856494442,-0.401381641626,-0.0380628965795,-0.139902174473,0.00862056389451,0.0525387302041,-0.00831224769354,0.998547077179
1505429687865890391,5339,1505429687865648839,-0.4013697505,-0.0380487404764,-0.139894247055,0.0085980752483,0.0525470077991,-0.00831202976406,0.99854683876
1505429687876168915,5340,1505429687875861453,-0.401362121105,-0.0380861535668,-0.139918863773,0.00863820035011,0.0525362566113,-0.00825172755867,0.998547554016
1505429687886394372,5341,1505429687886254658,-0.401363223791,-0.0380746200681,-0.139895319939,0.00863332115114,0.0525558069348,-0.00829725153744,0.998546183109
1505429687896786345,5342,1505429687896465777,-0.401379793882,-0.0380652733147,-0.139888316393,0.00860568881035,0.0525386966765,-0.00834652315825,0.99854695797
1505429687905814248,5343,1505429687905670121,-0.401384025812,-0.0380697138608,-0.1399063766,0.00860976893455,0.0525375790894,-0.00834974460304,0.99854695797
1505429687916098203,5344,1505429687915938812,-0.401371240616,-0.038090582937,-0.139908537269,0.00861343555152,0.0525413714349,-0.00828251987696,0.998547255993
1505429687926368930,5345,1505429687926214674,-0.40136963129,-0.0380871109664,-0.1398999542,0.00862173829228,0.0525389239192,-0.0082981986925,0.998547136784
1505429687936602151,5346,1505429687936428756,-0.40136796236,-0.0380143225193,-0.139881446958,0.00862008519471,0.0525455288589,-0.00829660240561,0.998546898365
1505429687946949776,5347,1505429687946683408,-0.401375740767,-0.0380529984832,-0.139891475439,0.00862494856119,0.0525318458676,-0.00830717198551,0.998547494411
1505429687956128903,5348,1505429687955921337,-0.401373565197,-0.0381271541119,-0.139927312732,0.00860747881234,0.052518710494,-0.00831849779934,0.998548150063
1505429687966263288,5349,1505429687966138855,-0.401375234127,-0.0380945391953,-0.139922469854,0.0086273830384,0.0525355637074,-0.00831614527851,0.998547196388
1505429687976586181,5350,1505429687976398282,-0.40136885643,-0.038018848747,-0.139877840877,0.00860142242163,0.0525567606091,-0.00830739270896,0.998546302319
1505429687986819208,5351,1505429687986686298,-0.401360690594,-0.0380819141865,-0.139900907874,0.00862892810255,0.0525424331427,-0.00829351879656,0.99854695797
1505429687996728870,5352,1505429687995930659,-0.401376724243,-0.038087464869,-0.139885500073,0.00860929023474,0.0525548942387,-0.00832137651742,0.998546242714
1505429688005725092,5353,1505429688005646957,-0.401372760534,-0.03807047382,-0.139915257692,0.00861938856542,0.0525286458433,-0.00829095300287,0.998547792435
1505429688016780013,5354,1505429688015989551,-0.401380777359,-0.0380952619016,-0.139919042587,0.00860469043255,0.0525578036904,-0.00830605160445,0.998546242714
1505429688026276303,5355,1505429688026152665,-0.401380121708,-0.038054253906,-0.139887079597,0.00858880206943,0.0525504909456,-0.00835618749261,0.998546361923
1505429688036687233,5356,1505429688036383261,-0.401367247105,-0.0380662605166,-0.139898478985,0.00861876085401,0.0525419339538,-0.00831398833543,0.99854695797
1505429688046815825,5357,1505429688046628304,-0.401374220848,-0.03807214275,-0.139904156327,0.00861615501344,0.0525253601372,-0.0083131659776,0.998547792435
1505429688056065661,5358,1505429688055826275,-0.401376515627,-0.0380827449262,-0.139900118113,0.0086101712659,0.0525602921844,-0.0082947043702,0.998546183109
1505429688066322537,5359,1505429688066185613,-0.401374489069,-0.038054574281,-0.139903247356,0.00861091259867,0.0525369122624,-0.00831590406597,0.998547255993
1505429688076608328,5360,1505429688076435440,-0.401372909546,-0.0380272865295,-0.139886945486,0.00858587305993,0.0525343306363,-0.00831504072994,0.998547554016
1505429688085804678,5361,1505429688085643869,-0.40137347579,-0.0380943715572,-0.139891952276,0.0086387116462,0.0525556243956,-0.00826934166253,0.998546361923
1505429688096014200,5362,1505429688095842423,-0.401368528605,-0.0381092391908,-0.139909550548,0.00862789340317,0.0525484159589,-0.00825974810869,0.99854695797
1505429688106201263,5363,1505429688106047166,-0.401376485825,-0.03804115206,-0.139880791306,0.00859280303121,0.0525732710958,-0.00830155424774,0.998545587063
1505429688116466616,5364,1505429688116283025,-0.401384711266,-0.0380900800228,-0.139923632145,0.0086222179234,0.0525323152542,-0.00832584686577,0.998547315598
1505429688126694423,5365,1505429688126534603,-0.401370614767,-0.0380887277424,-0.139909908175,0.00865516811609,0.0525464192033,-0.00826390553266,0.99854683876
1505429688135923246,5366,1505429688135764820,-0.40137398243,-0.0380718335509,-0.139890879393,0.00860273372382,0.0525399409235,-0.00833345856518,0.99854695797
1505429688146189151,5367,1505429688146087037,-0.40137141943,-0.0380647033453,-0.139902561903,0.00861555710435,0.0525401644409,-0.00829721149057,0.998547136784
1505429688156905213,5368,1505429688156316595,-0.40137270093,-0.0380544774234,-0.139878258109,0.00859609432518,0.0525546371937,-0.00831584539264,0.998546421528
1505429688166677946,5369,1505429688166508683,-0.401376485825,-0.0380952619016,-0.139925464988,0.00863506551832,0.0525426864624,-0.00829581264406,0.99854695797
1505429688175828847,5370,1505429688175665539,-0.401370793581,-0.0380769520998,-0.139913469553,0.00864244159311,0.052538767457,-0.00826799683273,0.998547255993
1505429688186037665,5371,1505429688185914285,-0.401377260685,-0.0380664840341,-0.139895156026,0.00861841440201,0.0525477416813,-0.00831131543964,0.998546659946
1505429688196840028,5372,1505429688196700078,-0.401371061802,-0.0380846820772,-0.139905825257,0.00862721353769,0.0525419861078,-0.0083097005263,0.99854695797
1505429688206026827,5373,1505429688205889180,-0.401365309954,-0.0380351915956,-0.139879330993,0.00861632265151,0.0525373741984,-0.00831351336092,0.998547196388
1505429688216304304,5374,1505429688216089619,-0.401370674372,-0.0381098911166,-0.139917552471,0.00864401273429,0.0525328926742,-0.00827326718718,0.998547554016
1505429688226621461,5375,1505429688226344324,-0.401372671127,-0.0380861610174,-0.139907553792,0.00862838048488,0.0525235161185,-0.00829290784895,0.998547971249
1505429688236750561,5376,1505429688236559691,-0.4013864398,-0.038054831326,-0.139882668853,0.00861861649901,0.0525513291359,-0.00831992924213,0.998546361923
1505429688245949203,5377,1505429688245816015,-0.401375085115,-0.0380936563015,-0.139905571938,0.00860724132508,0.0525450333953,-0.00829329900444,0.998547017574
1505429688256848652,5378,1505429688256652317,-0.401373416185,-0.0380649976432,-0.139900118113,0.0086200684309,0.0525567978621,-0.00830941926688,0.998546242714
1505429688265916563,5379,1505429688265834355,-0.401359021664,-0.0380930937827,-0.13990701735,0.00867034960538,0.0525067895651,-0.00826837029308,0.998548686504
1505429688276211092,5380,1505429688276049008,-0.401386797428,-0.0380435325205,-0.139944404364,0.00866773538291,0.0525998212397,-0.00831740815192,0.998543381691
1505429688286419759,5381,1505429688286261435,-0.401388347149,-0.0380795188248,-0.139893263578,0.00879340618849,0.0532161556184,-0.00824650097638,0.998510241508
1505429688295896199,5382,1505429688295702031,-0.401390880346,-0.0381514392793,-0.139897629619,0.00860709417611,0.0530629381537,-0.00828804727644,0.998519659042
1505429688306006338,5383,1505429688305879914,-0.401378452778,-0.0380737930536,-0.139898017049,0.00845791492611,0.0526661537588,-0.00846964307129,0.998540461063
1505429688316855622,5384,1505429688316118318,-0.401391714811,-0.0380571968853,-0.139871194959,0.00869156699628,0.0527995787561,-0.00832415465266,0.998532652855
1505429688326637173,5385,1505429688326399692,-0.401362925768,-0.0380579568446,-0.139893874526,0.00855277571827,0.0530058331788,-0.008111176081,0.998524606228
1505429688336945436,5386,1505429688336712306,-0.401320666075,-0.0381572470069,-0.139858871698,0.00855249352753,0.0530961118639,-0.00807881262153,0.998520076275
1505429688345996451,5387,1505429688345900256,-0.401410162449,-0.0381530970335,-0.139892950654,0.00859457533807,0.0531102865934,-0.00834799278527,0.998516738415
1505429688356269296,5388,1505429688356105058,-0.401392281055,-0.0381009168923,-0.139845713973,0.00859336182475,0.0531653277576,-0.0083274608478,0.998513996601
1505429688366500428,5389,1505429688366359057,-0.401309520006,-0.0381172038615,-0.139798030257,0.00859848316759,0.0531795807183,-0.00809071026742,0.998515188694
1505429688376827173,5390,1505429688376624809,-0.401371061802,-0.0381029359996,-0.139889195561,0.00853561796248,0.0530352778733,-0.00820585060865,0.998522460461
1505429688386043662,5391,1505429688385895387,-0.401370733976,-0.0381560660899,-0.139872148633,0.00873050093651,0.0530884973705,-0.00830939877778,0.998517036438
1505429688396813398,5392,1505429688396154877,-0.401411265135,-0.0381166934967,-0.139819413424,0.00840826518834,0.0532624423504,-0.00846026930958,0.998509287834
1505429688406516737,5393,1505429688406402838,-0.401354849339,-0.038135189563,-0.139808192849,0.00849188212305,0.0530151240528,-0.00815198849887,0.998524367809
1505429688415907057,5394,1505429688415687305,-0.401353478432,-0.0381498597562,-0.139868184924,0.00840190984309,0.0529835484922,-0.0081810420379,0.998526513577
1505429688426212840,5395,1505429688426049045,-0.401362329721,-0.038132160902,-0.139874264598,0.00863405503333,0.0533335246146,-0.00824994780123,0.998505294323
1505429688436457229,5396,1505429688436273916,-0.401420235634,-0.0381125807762,-0.13976816833,0.00833105295897,0.0532404594123,-0.00828911364079,0.998512506485
1505429688446690463,5397,1505429688446527835,-0.401332527399,-0.0380790866911,-0.139773979783,0.00830840412527,0.0530283488333,-0.00827192794532,0.998524188995
1505429688455899813,5398,1505429688455659361,-0.401334375143,-0.0381783694029,-0.139855235815,0.0084632197395,0.0529928505421,-0.00831912644207,0.998524367809
1505429688466100121,5399,1505429688465922009,-0.401416689157,-0.038167629391,-0.13987095654,0.00847777444869,0.0530831739306,-0.00839249324054,0.998518824577
1505429688476452554,5400,1505429688476166682,-0.401383936405,-0.0380567796528,-0.139778196812,0.00841210409999,0.0532993674278,-0.00827183201909,0.998508870602
1505429688486769613,5401,1505429688486447927,-0.401343256235,-0.0381157919765,-0.139786601067,0.00837769079953,0.0531716533005,-0.00814813096076,0.998516976833
1505429688496824289,5402,1505429688496658452,-0.40133997798,-0.0381409227848,-0.139858737588,0.00843621697277,0.0529914349318,-0.00827923603356,0.99852502346
1505429688505980198,5403,1505429688505861393,-0.401409775019,-0.038120187819,-0.139860868454,0.00847414322197,0.0529539845884,-0.00850406009704,0.998524725437
1505429688516773990,5404,1505429688516645726,-0.401403009892,-0.0380863845348,-0.139796823263,0.00843520835042,0.0532180592418,-0.00837810151279,0.998512148857
1505429688525980582,5405,1505429688525894225,-0.401348084211,-0.0381383895874,-0.139773890376,0.00841290969402,0.0533435344696,-0.0081193074584,0.998507797718
1505429688536929686,5406,1505429688536694422,-0.401340454817,-0.038159057498,-0.139855995774,0.00846649892628,0.0531018860638,-0.00821653660387,0.998519480228
1505429688545974730,5407,1505429688545864075,-0.401399880648,-0.0380882956088,-0.13983759284,0.00841705314815,0.0528923496604,-0.00844683218747,0.998529076576
1505429688556489454,5408,1505429688556159162,-0.401383906603,-0.0380979180336,-0.139793664217,0.00842481385916,0.053103223443,-0.00839503854513,0.998518168926
1505429688566496342,5409,1505429688566398768,-0.401358574629,-0.0381672941148,-0.139800235629,0.00838075764477,0.0532665587962,-0.0081827128306,0.99851167202
1505429688576789461,5410,1505429688576623095,-0.401382148266,-0.0381109565496,-0.139827027917,0.0084001775831,0.0531927198172,-0.00823790952563,0.998514950275
1505429688585971257,5411,1505429688585844711,-0.401367425919,-0.0381307899952,-0.139838039875,0.00848095677793,0.0529812276363,-0.00836587976664,0.998524487019
1505429688596297593,5412,1505429688596081521,-0.401384919882,-0.0380697473884,-0.139806523919,0.00843261461705,0.0529378131032,-0.00835275929421,0.998527288437
1505429688606551739,5413,1505429688606345071,-0.401376843452,-0.0381062813103,-0.139818295836,0.0084495190531,0.0532089173794,-0.00823444034904,0.998513698578
1505429688616876480,5414,1505429688616683293,-0.401384800673,-0.0381731204689,-0.139841258526,0.00848914775997,0.0532755069435,-0.00825221277773,0.998509645462
1505429688626070264,5415,1505429688625897143,-0.401378750801,-0.0380786843598,-0.139812901616,0.00842294376343,0.0531122349203,-0.0083581879735,0.998517990112
1505429688636394877,5416,1505429688636150082,-0.401375025511,-0.0381015911698,-0.139817938209,0.00838049687445,0.0530368499458,-0.00841959938407,0.998521864414
1505429688646601819,5417,1505429688646401196,-0.401387304068,-0.0381270051003,-0.139806956053,0.00839687790722,0.0531477294862,-0.00826918706298,0.998517096043
1505429688656861189,5418,1505429688656638914,-0.401385009289,-0.0381140448153,-0.139825388789,0.0084324600175,0.0532665811479,-0.00821027997881,0.998510956764
1505429688666005621,5419,1505429688665848128,-0.401366591454,-0.0381053723395,-0.139812558889,0.00841546244919,0.0531412437558,-0.00830147508532,0.998517096043
1505429688676244428,5420,1505429688676061902,-0.401367098093,-0.0380736328661,-0.139796376228,0.00841092504561,0.0529068224132,-0.00839128810912,0.998528838158
1505429688686501305,5421,1505429688686324185,-0.401380747557,-0.0381093248725,-0.139824554324,0.00843012239784,0.0529430136085,-0.00836324971169,0.998526990414
1505429688696749593,5422,1505429688696556251,-0.401374548674,-0.0381050258875,-0.139829292893,0.00847202539444,0.0531588122249,-0.00825389847159,0.998516023159
1505429688705938048,5423,1505429688705827792,-0.401370465755,-0.0381117500365,-0.139790222049,0.00846682675183,0.0532827302814,-0.00822481233627,0.998509705067
1505429688716851824,5424,1505429688716102970,-0.401366323233,-0.0380844324827,-0.139808997512,0.00835475046188,0.0532200112939,-0.00839138869196,0.998512625694
1505429688726070498,5425,1505429688725944714,-0.401386499405,-0.0380701832473,-0.139812126756,0.0083840219304,0.0531350709498,-0.00842631794512,0.998516619205
1505429688736473230,5426,1505429688736201086,-0.401397079229,-0.0381595939398,-0.1398139745,0.0083540501073,0.0531003400683,-0.00832966342568,0.998519480228
1505429688746571782,5427,1505429688746381767,-0.401349723339,-0.0381453223526,-0.139800563455,0.00841126404703,0.053016230464,-0.00817754212767,0.998524785042
1505429688756816668,5428,1505429688756644708,-0.40137553215,-0.0380811244249,-0.139837190509,0.00832252856344,0.0529047474265,-0.00833919364959,0.998530089855
1505429688766021478,5429,1505429688765904093,-0.4013915658,-0.0380702875555,-0.139855012298,0.00853098277003,0.0530208572745,-0.00842299684882,0.998521387577
1505429688776219339,5430,1505429688776093730,-0.401378184557,-0.038085963577,-0.139803960919,0.00850008428097,0.0533323250711,-0.00839113350958,0.998505413532
1505429688786483727,5431,1505429688786311046,-0.401332944632,-0.0381178446114,-0.139786288142,0.00844561401755,0.0533430874348,-0.008181235753,0.998507022858
1505429688796676359,5432,1505429688796534876,-0.401394367218,-0.0381447188556,-0.139834776521,0.00836614891887,0.0531270392239,-0.00829078163952,0.99851834774
1505429688805909588,5433,1505429688805763773,-0.401401162148,-0.0380933433771,-0.139804586768,0.00843272544444,0.052898209542,-0.00845567509532,0.998528540134
1505429688816245375,5434,1505429688816037832,-0.401369273663,-0.0380932725966,-0.13982090354,0.00836452282965,0.0529548227787,-0.0083329891786,0.998527109623
1505429688826397975,5435,1505429688826240504,-0.401347219944,-0.038092404604,-0.139845922589,0.00849302019924,0.0530323684216,-0.0080979662016,0.998523890972
1505429688836571212,5436,1505429688836453963,-0.40137091279,-0.0380746908486,-0.139858454466,0.00868940073997,0.0531654730439,-0.00805252976716,0.998515427113
1505429688846125232,5437,1505429688845898432,-0.401351928711,-0.0380787625909,-0.139868527651,0.00887441169471,0.0533929094672,-0.00804152712226,0.998501718044
1505429688856301599,5438,1505429688856131241,-0.401327669621,-0.0380729548633,-0.13980910182,0.00892572570592,0.0530805848539,-0.00805500894785,0.998517870903
1505429688866488374,5439,1505429688866305388,-0.401351124048,-0.038033246994,-0.139900371432,0.00894267857075,0.0526783205569,-0.00821902509779,0.998537659645
1505429688876787105,5440,1505429688876524457,-0.401400089264,-0.0380216985941,-0.139874324203,0.00896824523807,0.0531673170626,-0.00814935006201,0.998512089252
1505429688885860457,5441,1505429688885679936,-0.401317387819,-0.0380431190133,-0.139844641089,0.00878608133644,0.0535269454122,-0.00797835923731,0.998495876789
1505429688897065775,5442,1505429688896162799,-0.401341348886,-0.0380219444633,-0.139833942056,0.0082571329549,0.0529247410595,-0.00810177065432,0.998531520367
1505429688906536626,5443,1505429688906441278,-0.401356160641,-0.0379819236696,-0.139773070812,0.00826628226787,0.0531130097806,-0.00817732419819,0.998520851135
1505429688915818375,5444,1505429688915671106,-0.40127569437,-0.0379837416112,-0.139796003699,0.00842388626188,0.0534517690539,-0.00799847766757,0.998502850533
1505429688926094196,5445,1505429688925923068,-0.401350468397,-0.0379440300167,-0.139889761806,0.00811877660453,0.052649512887,-0.00784648861736,0.998549222946
1505429688936404790,5446,1505429688936218009,-0.40132817626,-0.0379146151245,-0.139845520258,0.00831304211169,0.0530635342002,-0.0078015984036,0.998526096344
1505429688946902846,5447,1505429688946534669,-0.401195198298,-0.0379323475063,-0.139690726995,0.00871787127107,0.0536595620215,-0.00788828637451,0.998490095139
1505429688955893808,5448,1505429688955681804,-0.401399612427,-0.0379631221294,-0.139882981777,0.00845378264785,0.0527172349393,-0.00801016483456,0.998541593552
1505429688966123194,5449,1505429688965947119,-0.401351988316,-0.0379966832697,-0.139929249883,0.00851201824844,0.0531374402344,-0.00799428578466,0.998518943787
1505429688976345906,5450,1505429688976158701,-0.401170909405,-0.0379647165537,-0.139683619142,0.00853442773223,0.0535398125648,-0.00781012838706,0.998498737812
1505429688986517984,5451,1505429688986362416,-0.401375174522,-0.0379082150757,-0.139846265316,0.0080550564453,0.0526498667896,-0.00792616140097,0.998549163342
1505429688996826283,5452,1505429688996610697,-0.40130096674,-0.0379053615034,-0.13985593617,0.00825362093747,0.0535549260676,-0.00792372226715,0.998499393463
1505429689006068294,5453,1505429689005875565,-0.401229768991,-0.0379661507905,-0.139746785164,0.00825220439583,0.0535227842629,-0.00793678779155,0.998501002789
1505429689016337687,5454,1505429689016086780,-0.401455909014,-0.0378988943994,-0.139800935984,0.00802732165903,0.0525154098868,-0.00806087441742,0.99855530262
1505429689026569589,5455,1505429689026450378,-0.401261925697,-0.0379302166402,-0.139793783426,0.00861163064837,0.0536463856697,-0.00792060978711,0.998491406441
1505429689035825174,5456,1505429689035652339,-0.401270747185,-0.037989731878,-0.139841809869,0.00864493567497,0.0533324740827,-0.00782708637416,0.998508691788
1505429689046027919,5457,1505429689045910804,-0.401425004005,-0.0378328412771,-0.139732763171,0.00838933605701,0.052980851382,-0.00808882433921,0.99852758646
1505429689056456790,5458,1505429689056176079,-0.401199102402,-0.0378765128553,-0.139679804444,0.00874671060592,0.0539649687707,-0.00810090452433,0.998471677303
1505429689066679482,5459,1505429689066530693,-0.401399940252,-0.0379290394485,-0.139858454466,0.00853880215436,0.0529704429209,-0.00801094993949,0.998527467251
1505429689077816426,5460,1505429689077578299,-0.401390820742,-0.0379408970475,-0.139845833182,0.00849052891135,0.0531244911253,-0.00778041407466,0.998521506786
1505429689085969830,5461,1505429689085769348,-0.401169478893,-0.03795337677,-0.139678120613,0.00870102457702,0.0537668652833,-0.00761809479445,0.998486578465
1505429689096699003,5462,1505429689095970666,-0.401443749666,-0.0378106087446,-0.139706939459,0.00816429778934,0.0530198141932,-0.00803368352354,0.998527765274
1505429689106473760,5463,1505429689106237597,-0.401362389326,-0.0378814712167,-0.139743804932,0.0084334993735,0.0539859384298,-0.00823704898357,0.998472094536
1505429689116700172,5464,1505429689116487741,-0.401280611753,-0.0379992350936,-0.139641806483,0.0083172917366,0.0539072081447,-0.00801450107247,0.998479187489
1505429689125927061,5465,1505429689125781110,-0.401507586241,-0.0378968082368,-0.139703050256,0.00766066554934,0.0529458932579,-0.00798110663891,0.998536169529
1505429689136930149,5466,1505429689136714729,-0.401254117489,-0.037896964699,-0.139718309045,0.00791402813047,0.0539370216429,-0.00779720628634,0.998482525349
1505429689145966196,5467,1505429689145883948,-0.401350080967,-0.037833750248,-0.139727532864,0.00784245412797,0.0533092170954,-0.00795728527009,0.998515546322
1505429689156321292,5468,1505429689156119257,-0.40145483613,-0.0378874801099,-0.13976188004,0.00797107629478,0.0529959760606,-0.00808752514422,0.99853014946
1505429689166488950,5469,1505429689166375940,-0.401204437017,-0.0379239358008,-0.139650061727,0.00848834123462,0.0539452061057,-0.00802539009601,0.998475551605
1505429689176704922,5470,1505429689176616288,-0.401428639889,-0.0378562696278,-0.13975417614,0.00812533963472,0.0530784316361,-0.00810548942536,0.998524367809
1505429689185995656,5471,1505429689185857421,-0.401389837265,-0.0379444546998,-0.139738276601,0.00805689115077,0.053636059165,-0.00797225255519,0.998496174812
1505429689196617828,5472,1505429689196180953,-0.401218265295,-0.0379313267767,-0.139661952853,0.00813531689346,0.0539461672306,-0.00772762531415,0.998480856419
1505429689206581717,5473,1505429689206435924,-0.401464611292,-0.0378187783062,-0.139764800668,0.00774489389732,0.0528025962412,-0.00789398606867,0.998543739319
1505429689216885644,5474,1505429689216642617,-0.40130469203,-0.0378517583013,-0.139730870724,0.00805143639445,0.0537185259163,-0.00792027171701,0.99849230051
1505429689226053823,5475,1505429689225879249,-0.401299476624,-0.0378214381635,-0.139680817723,0.00799585971981,0.0534778833389,-0.00806263741106,0.998504459858
1505429689236378496,5476,1505429689236165964,-0.40150052309,-0.0379155091941,-0.139743134379,0.00787383131683,0.0529117248952,-0.00810499116778,0.998535275459
1505429689246588499,5477,1505429689246440827,-0.401237130165,-0.0379645787179,-0.139622375369,0.00829549692571,0.0539548881352,-0.00787187274545,0.998477935791
1505429689255761665,5478,1505429689255623155,-0.401444107294,-0.0378684438765,-0.139794021845,0.0081002060324,0.0531361401081,-0.00793270207942,0.998522937298
1505429689266062496,5479,1505429689265910709,-0.401442319155,-0.0377983227372,-0.139742076397,0.008060881868,0.0531706549227,-0.00798218604177,0.998521029949
1505429689277256711,5480,1505429689276164398,-0.401215404272,-0.0378493517637,-0.139628201723,0.00823655817658,0.0538429878652,-0.00798150058836,0.998483538628
1505429689286526061,5481,1505429689286357806,-0.401489377022,-0.0379136987031,-0.139789998531,0.00791016034782,0.0527775771916,-0.00816843193024,0.998541533947
1505429689296779686,5482,1505429689296578365,-0.40138733387,-0.0378414802253,-0.139770239592,0.00811469741166,0.0535212531686,-0.0080774249509,0.998501062393
1505429689306036815,5483,1505429689305805840,-0.401271760464,-0.0378899984062,-0.139751449227,0.00828987266868,0.0535393618047,-0.00786297395825,0.998500347137
1505429689316217745,5484,1505429689316061529,-0.40152952075,-0.0378466583788,-0.139750629663,0.00808341894299,0.0527714900672,-0.00797583255917,0.998542070389
1505429689326484631,5485,1505429689326330884,-0.401276379824,-0.0378694459796,-0.139712333679,0.00846907962114,0.0539479963481,-0.00797050539404,0.998476028442
1505429689336833478,5486,1505429689336657633,-0.401410162449,-0.0378674902022,-0.139793008566,0.00846470240504,0.0534114614129,-0.00817482639104,0.998503267765
1505429689346028397,5487,1505429689345926321,-0.401481986046,-0.0378717668355,-0.139749899507,0.00839501805604,0.0532783903182,-0.00811061449349,0.998511493206
1505429689356496227,5488,1505429689356167261,-0.401220083237,-0.0379777140915,-0.139718979597,0.00864994525909,0.0539351627231,-0.00783149618655,0.998476266861
1505429689366692316,5489,1505429689366509414,-0.401470810175,-0.0376919768751,-0.139727801085,0.00791976694018,0.0527106262743,-0.00805582664907,0.998545944691
1505429689375922283,5490,1505429689375767624,-0.401461303234,-0.0374024398625,-0.139729619026,0.00719974189997,0.0528495274484,-0.00833485741168,0.99854183197
1505429689386134446,5491,1505429689386011630,-0.401310414076,-0.0374218448997,-0.139782786369,0.00688618095592,0.0528707802296,-0.00827496685088,0.998543322086
1505429689396570623,5492,1505429689396277397,-0.401554256678,-0.0374990180135,-0.139694690704,0.00588448345661,0.0524363256991,-0.00857857894152,0.998570084572
1505429689406739656,5493,1505429689406551447,-0.401448905468,-0.037648268044,-0.139731541276,0.00563320005313,0.053049530834,-0.00846700835973,0.998540103436
1505429689415921880,5494,1505429689415765437,-0.4013428092,-0.0377015061677,-0.139494135976,0.00564122153446,0.0531283430755,-0.00827401969582,0.998537540436
1505429689426252416,5495,1505429689426031932,-0.40144097805,-0.0378368571401,-0.139645904303,0.00619257474318,0.0532867796719,-0.00770284095779,0.998530328274
1505429689436902362,5496,1505429689436293930,-0.401260584593,-0.0378777272999,-0.139656662941,0.00690923398361,0.0534444227815,-0.00752957072109,0.998518586159
1505429689446616121,5497,1505429689446484385,-0.401452600956,-0.0376518107951,-0.139864712954,0.0074503258802,0.0527536682785,-0.00819097086787,0.998546183109
1505429689455784393,5498,1505429689455636460,-0.401447594166,-0.0375535786152,-0.139729961753,0.00844740308821,0.0530417747796,-0.00833303015679,0.99852180481
1505429689466458170,5499,1505429689465896097,-0.401362925768,-0.037506852299,-0.13997335732,0.00840962585062,0.0534322969615,-0.0082975467667,0.998501598835
1505429689476969176,5500,1505429689476746254,-0.4014287889,-0.0377031825483,-0.139901429415,0.00846408959478,0.0529019758105,-0.0079942997545,0.998531877995
1505429689486102419,5501,1505429689485941026,-0.401322633028,-0.0378661192954,-0.13987056911,0.00806307978928,0.0534789375961,-0.00756822153926,0.998507738113
1505429689496551370,5502,1505429689496317258,-0.401238143444,-0.0377777852118,-0.139565616846,0.00714511238039,0.0535403229296,-0.00772613566369,0.998510241508
1505429689506879873,5503,1505429689506560848,-0.401505857706,-0.0377327091992,-0.139703884721,0.00633373484015,0.05320892483,-0.00802614819258,0.99853104353
1505429689515984916,5504,1505429689515799967,-0.401254236698,-0.0376798436046,-0.139642119408,0.00640760269016,0.0534936003387,-0.00792213901877,0.998516201973
1505429689526172008,5505,1505429689526064450,-0.401224166155,-0.0375593006611,-0.139846220613,0.00615705410019,0.0532151907682,-0.0081497495994,0.998530864716
1505429689536454170,5506,1505429689536323814,-0.401278585196,-0.0374757684767,-0.139611214399,0.00582714518532,0.0531207472086,-0.00808614958078,0.998538315296
1505429689546756266,5507,1505429689546558023,-0.401074171066,-0.0375577509403,-0.139855071902,0.00579595565796,0.0536062568426,-0.0080347424373,0.998512983322
1505429689555947758,5508,1505429689555757858,-0.401217877865,-0.0377505458891,-0.139566525817,0.00603574467823,0.0531819425523,-0.00809046532959,0.998533785343
1505429689566074270,5509,1505429689565968469,-0.401171386242,-0.0378054976463,-0.139726385474,0.00636444659904,0.0537965372205,-0.00787635240704,0.998500645161
1505429689576421798,5510,1505429689576227998,-0.401097536087,-0.0377995856106,-0.139561697841,0.00664082355797,0.0538240596652,-0.00758772203699,0.998499512672
1505429689586633493,5511,1505429689586464775,-0.401277214289,-0.0377077236772,-0.139742195606,0.007062447723,0.0533653125167,-0.00782949663699,0.998519420624
1505429689596908564,5512,1505429689596682462,-0.401106894016,-0.0376353822649,-0.139594659209,0.00746954232454,0.0537854768336,-0.00779471220449,0.998494148254
1505429689606100930,5513,1505429689605946687,-0.401078283787,-0.0376051329076,-0.139779031277,0.00725211156532,0.0534838549793,-0.00777604524046,0.998512089252
1505429689616322377,5514,1505429689616170910,-0.401245564222,-0.0376934930682,-0.139610931277,0.00706197787076,0.0532390139997,-0.00793644413352,0.998525261879
1505429689626556661,5515,1505429689626417135,-0.401088684797,-0.0377777591348,-0.139730334282,0.00696085812524,0.0539703629911,-0.00802067201585,0.998486101627
1505429689636834694,5516,1505429689636682447,-0.401182115078,-0.037816349417,-0.139439105988,0.00619561504573,0.0535360984504,-0.00811478216201,0.998513698578
1505429689646037741,5517,1505429689645880714,-0.401159077883,-0.0377349331975,-0.139624536037,0.00595178734511,0.0537395775318,-0.0079258736223,0.99850577116
1505429689656276356,5518,1505429689656073311,-0.401031970978,-0.0376789867878,-0.139469921589,0.00597710674629,0.0536982268095,-0.00763133959845,0.998510181904
1505429689666495843,5519,1505429689666320044,-0.401130318642,-0.0375763736665,-0.139775365591,0.00626117037609,0.0532108694315,-0.00772943580523,0.998533725739
1505429689676729301,5520,1505429689676560535,-0.401052743196,-0.0376543998718,-0.139606922865,0.00676583172753,0.0536554045975,-0.00773405702785,0.99850666523
1505429689685968581,5521,1505429689685822285,-0.401052862406,-0.0376761965454,-0.139727786183,0.00676644500345,0.0535671599209,-0.00812284834683,0.99850833416
1505429689697726833,5522,1505429689697281654,-0.401226758957,-0.0377496182919,-0.139582380652,0.00690930336714,0.0530427135527,-0.00823421869427,0.99853438139
1505429689706756373,5523,1505429689706544334,-0.401109874249,-0.0377026796341,-0.139636680484,0.00688814558089,0.0536700561643,-0.0079016154632,0.998503744602
1505429689716052953,5524,1505429689715866447,-0.401124566793,-0.0377572774887,-0.139503717422,0.0066293575801,0.0535316728055,-0.0077063604258,0.998514413834
1505429689726236261,5525,1505429689726110034,-0.401219666004,-0.037755291909,-0.139668390155,0.0066952072084,0.0537228323519,-0.00774621544406,0.998503386974
1505429689736796157,5526,1505429689736320048,-0.401109844446,-0.0376590564847,-0.139498382807,0.00679176673293,0.0537949539721,-0.00785487238318,0.998498022556
1505429689746699186,5527,1505429689746590632,-0.401149630547,-0.0375821702182,-0.139786571264,0.0068182121031,0.053193628788,-0.00803335104138,0.998528599739
1505429689756048370,5528,1505429689755829300,-0.401191711426,-0.0376951172948,-0.139601737261,0.00688095251098,0.0533541850746,-0.00800783839077,0.998519837856
1505429689816080174,5529,1505429689815650148,-0.401083856821,-0.0375971868634,-0.139522790909,0.006768359337,0.0541551113129,-0.00775079196319,0.998479545116
1505429689825956413,5530,1505429689825827512,-0.401108056307,-0.037620909512,-0.139723807573,0.00717079313472,0.0535832382739,-0.00787651259452,0.998506605625
1505429689836848211,5531,1505429689836556906,-0.401221424341,-0.0377098843455,-0.139620140195,0.00733246328309,0.0535935275257,-0.00802258588374,0.998503744602
1505429689845928810,5532,1505429689845821291,-0.401085674763,-0.0376254618168,-0.139766797423,0.00737555231899,0.0533323287964,-0.00811105128378,0.99851667881
1505429689856999956,5533,1505429689856571293,-0.401294350624,-0.0376080945134,-0.139595657587,0.00726247066632,0.053334929049,-0.00815751589835,0.998516976833
1505429689866085563,5534,1505429689865859908,-0.401119023561,-0.0375644341111,-0.139599606395,0.00722434790805,0.0539057515562,-0.00765914050862,0.998490512371
1505429689876573471,5535,1505429689876189345,-0.401073247194,-0.0375562906265,-0.139634653926,0.00693027023226,0.0536794960499,-0.00757607165724,0.998505473137
1505429689886601801,5536,1505429689886478580,-0.401179283857,-0.0375804565847,-0.13963419199,0.00709613598883,0.053398180753,-0.00757056474686,0.998519361019
1505429689896899159,5537,1505429689896675898,-0.400999844074,-0.0375423468649,-0.139606848359,0.00672133360058,0.0534302182496,-0.0078796306625,0.998517870903
1505429689906090768,5538,1505429689905942288,-0.401212275028,-0.0375884100795,-0.139655590057,0.00660502444953,0.0531293712556,-0.00831641443074,0.998531162739
1505429689916431091,5539,1505429689916201991,-0.401079386473,-0.0375730842352,-0.139526456594,0.00663242582232,0.0533834397793,-0.00830565113574,0.99851757288
1505429689926489257,5540,1505429689926369417,-0.401128649712,-0.0375102609396,-0.139652401209,0.00648436509073,0.0533468313515,-0.00826966762543,0.998520791531
1505429689936799505,5541,1505429689936631970,-0.401096940041,-0.0375356897712,-0.139581903815,0.00694120628759,0.0534446276724,-0.00763858342543,0.998517453671
1505429689945987570,5542,1505429689945834740,-0.401129096746,-0.0374288111925,-0.139619335532,0.00640390487388,0.0537929907441,-0.0077474755235,0.99850153923
1505429689956320472,5543,1505429689956045580,-0.40119189024,-0.0375587306917,-0.13972979784,0.00710065010935,0.0538560599089,-0.00781451817602,0.998492896557
1505429689966437431,5544,1505429689966306496,-0.401266545057,-0.037517528981,-0.139537930489,0.00671424763277,0.0542983673513,-0.00821496360004,0.998468399048
1505429689976724990,5545,1505429689976538478,-0.401135742664,-0.0375259257853,-0.139666512609,0.00714850099757,0.0538572557271,-0.00798271317035,0.998491108418
1505429689985987514,5546,1505429689985758255,-0.401234447956,-0.0374951064587,-0.13950574398,0.006887818221,0.0539764836431,-0.00830898992717,0.998483896255
1505429689996981996,5547,1505429689995939663,-0.401084303856,-0.0374615490437,-0.13952934742,0.00720835803077,0.0539796836674,-0.00805998966098,0.998483479023
1505429690005999313,5548,1505429690005837692,-0.401116669178,-0.037435464561,-0.139531940222,0.00730735436082,0.0538923069835,-0.00805778615177,0.998487472534
1505429690066033349,5549,1505429690065940352,-0.400812953711,-0.0372687801719,-0.139166325331,0.00569454673678,0.0549561344087,-0.00799839664251,0.998440444469
1505429690076410155,5550,1505429690076156159,-0.400821685791,-0.0371902920306,-0.13931645453,0.00509836059064,0.054920360446,-0.00831422023475,0.998443126678
1505429690086533201,5551,1505429690086414130,-0.400828450918,-0.0372470989823,-0.139193832874,0.00532500445843,0.0552341528237,-0.00836801342666,0.998424112797
1505429690096965611,5552,1505429690096627972,-0.400856494904,-0.0370319597423,-0.13910086453,0.00485703442246,0.0553984306753,-0.00932699907571,0.998408913612
1505429690105979220,5553,1505429690105818510,-0.40081268549,-0.0369081646204,-0.139242991805,0.00512324273586,0.0554204396904,-0.0091045955196,0.99840849638
1505429690116815191,5554,1505429690116575170,-0.400624036789,-0.036913651973,-0.139008030295,0.0046991975978,0.0552460625768,-0.00871935486794,0.99842363596
1505429690125908281,5555,1505429690125760156,-0.400496274233,-0.0368086434901,-0.139270022511,0.00473702605814,0.0552283227444,-0.00802220124751,0.998430252075
1505429690136853566,5556,1505429690136564012,-0.400398224592,-0.0366941429675,-0.138922974467,0.00374741153792,0.0550500415266,-0.00789724290371,0.99844533205
1505429690146009573,5557,1505429690145826756,-0.400418162346,-0.0363728180528,-0.139058455825,0.00290618394502,0.0552268736064,-0.00841560028493,0.998434126377
1505429690156323887,5558,1505429690156022986,-0.400436073542,-0.0361409857869,-0.138942211866,0.00211644219235,0.0556818693876,-0.0089162979275,0.998406469822
1505429690166428250,5559,1505429690166292044,-0.400501281023,-0.0357904657722,-0.138797387481,0.000742411415558,0.0558729059994,-0.00963101442903,0.998391211033
1505429690176722947,5560,1505429690176576612,-0.400328963995,-0.0356060825288,-0.138878852129,2.65763810603e-05,0.0562235228717,-0.00888789631426,0.998378634453
1505429690186060814,5561,1505429690185812673,-0.40023368597,-0.035363227129,-0.138667106628,-0.00150657573249,0.0561926141381,-0.0082357628271,0.998384833336
1505429690196946517,5562,1505429690196030128,-0.400150567293,-0.0351490080357,-0.138845965266,-0.00219609960914,0.0562062524259,-0.00734640285373,0.998389780521
1505429690206328750,5563,1505429690206212763,-0.400071710348,-0.0348965860903,-0.138865187764,-0.00357127306052,0.0563526563346,-0.00705756619573,0.998379588127
1505429690216640852,5564,1505429690216447370,-0.400095492601,-0.0344297774136,-0.138812154531,-0.00427704211324,0.0565037354827,-0.00721347657964,0.998367190361
1505429690225853939,5565,1505429690225670515,-0.400134444237,-0.0339362919331,-0.138900101185,-0.00591392070055,0.0566890761256,-0.00775956828147,0.998344182968
1505429690236135446,5566,1505429690235865030,-0.400186598301,-0.0335880890489,-0.138908311725,-0.00702327443287,0.0564225167036,-0.00805380102247,0.998349785805
1505429690246410651,5567,1505429690246148505,-0.400170505047,-0.0330541990697,-0.139073565602,-0.00853671692312,0.0561855845153,-0.00779847567901,0.998353362083
1505429690256627047,5568,1505429690256413319,-0.400076240301,-0.0326389372349,-0.139139443636,-0.0105485366657,0.0566149055958,-0.00705307815224,0.998315572739
1505429690265841272,5569,1505429690265630908,-0.399975299835,-0.0319916009903,-0.139219790697,-0.0127504998818,0.0563459172845,-0.00689703878015,0.9983060956
1505429690276780962,5570,1505429690275877314,-0.399949640036,-0.0314223729074,-0.13932967186,-0.0153744183481,0.0561076588929,-0.00739110307768,0.998279035091
1505429690286340455,5571,1505429690286143075,-0.399869531393,-0.0308065097779,-0.139328584075,-0.0178470034152,0.0557017177343,-0.00759396608919,0.998259067535
1505429690296710490,5572,1505429690296356526,-0.399823844433,-0.0301119498909,-0.139606356621,-0.020508158952,0.0552437789738,-0.00726790400222,0.998235821724
1505429690306866902,5573,1505429690306630561,-0.399683892727,-0.0294352509081,-0.139745905995,-0.0229635890573,0.0550127364695,-0.00695974566042,0.998197257519
1505429690316439309,5574,1505429690315840612,-0.399592578411,-0.0286877322942,-0.140032142401,-0.0252134408802,0.0550914779305,-0.00665121059865,0.998140752316
1505429690326298210,5575,1505429690326075029,-0.399614334106,-0.0280126929283,-0.140204936266,-0.0279350560158,0.0549862273037,-0.00712801981717,0.998070776463
1505429690336833844,5576,1505429690336285874,-0.399503827095,-0.0272075664252,-0.140339419246,-0.0305917020887,0.0547644756734,-0.0074243620038,0.998002886772
1505429690346795945,5577,1505429690346590755,-0.399423807859,-0.0264286510646,-0.140714451671,-0.0334274172783,0.0542701669037,-0.00727903144434,0.997940063477
1505429690356174845,5578,1505429690355914367,-0.399373710155,-0.0255527496338,-0.140857592225,-0.0363085567951,0.0542106032372,-0.00670543778688,0.997846662998
1505429690366363471,5579,1505429690366156529,-0.399243056774,-0.0248131714761,-0.141666889191,-0.0389190800488,0.0538605451584,-0.005559919402,0.99777418375
1505429690376688879,5580,1505429690376375693,-0.399330765009,-0.0240070540458,-0.141709551215,-0.0430053323507,0.0535601302981,-0.00552689516917,0.997622847557
1505429690386760177,5581,1505429690386629706,-0.399304896593,-0.0231817699969,-0.142510965466,-0.0458378009498,0.0530632026494,-0.00487979548052,0.997526586056
1505429690396784258,5582,1505429690395866202,-0.399272799492,-0.0222476851195,-0.142736718059,-0.0502956397831,0.0527869798243,-0.00516561185941,0.997325003147
1505429690406281397,5583,1505429690406138444,-0.399218916893,-0.0214132014662,-0.143411844969,-0.0533874556422,0.0523288920522,-0.00501898070797,0.997189223766
1505429690416869557,5584,1505429690416562517,-0.3992421031,-0.0203813500702,-0.144138529897,-0.0570568665862,0.0516828484833,-0.00554797798395,0.997016847134
1505429690425880530,5585,1505429690425772220,-0.399265915155,-0.0194384641945,-0.144856795669,-0.0603196844459,0.0509284771979,-0.00607165321708,0.996860563755
1505429690436852195,5586,1505429690436642552,-0.399329334497,-0.0185175035149,-0.146049171686,-0.0633770078421,0.0500171147287,-0.00636340910569,0.996715247631
1505429690446104908,5587,1505429690445913580,-0.399491488934,-0.0175269003958,-0.146755874157,-0.0668086186051,0.0499976836145,-0.00719827134162,0.996486365795
1505429690456362206,5588,1505429690456107145,-0.399451911449,-0.0165814440697,-0.148249849677,-0.0685087442398,0.0496785864234,-0.00683998130262,0.996389389038
1505429690466550563,5589,1505429690466358669,-0.399533301592,-0.0154553633183,-0.149290278554,-0.0712712928653,0.0490985512733,-0.00751161808148,0.9962195158
1505429690476813156,5590,1505429690476612286,-0.399587720633,-0.0145688969642,-0.150891527534,-0.0722103044391,0.0488550253212,-0.00777020212263,0.996161878109
1505429690486094057,5591,1505429690485892479,-0.39973667264,-0.0132125299424,-0.152498930693,-0.0744411572814,0.0489299185574,-0.00944618880749,0.995979487896
1505429690496306724,5592,1505429690496095873,-0.399724185467,-0.0121833719313,-0.154028862715,-0.0749207064509,0.0487573593855,-0.00913759507239,0.995954871178
1505429690506487307,5593,1505429690506297838,-0.399946212769,-0.0112585872412,-0.156333014369,-0.0753400102258,0.0487591810524,-0.00884076952934,0.995925784111
1505429690516742901,5594,1505429690516579524,-0.399929195642,-0.0102303959429,-0.158053979278,-0.0757100433111,0.0493765994906,-0.00886458251625,0.995867133141
1505429690525949872,5595,1505429690525794677,-0.400040179491,-0.00932908337563,-0.160639002919,-0.0746870562434,0.0494683943689,-0.00807271432132,0.995946526527
1505429690536229231,5596,1505429690536042103,-0.400179237127,-0.00814577937126,-0.162963673472,-0.0742966011167,0.0495078004897,-0.00799310114235,0.995974421501
1505429690546455271,5597,1505429690546306088,-0.400092124939,-0.00714623276144,-0.165371105075,-0.072632946074,0.0499026626348,-0.00697117764503,0.996085166931
1505429690556792775,5598,1505429690556564153,-0.400286972523,-0.00608912808821,-0.1682228297,-0.0720968991518,0.0509987995028,-0.00640879431739,0.996072351933
1505429690565892763,5599,1505429690565757999,-0.400384187698,-0.00474937120453,-0.170852661133,-0.0714453682303,0.052020970732,-0.00529421446845,0.996073007584
1505429690576568688,5600,1505429690575977160,-0.400586009026,-0.00304401549511,-0.173893153667,-0.0706183612347,0.0518842302263,-0.00455929525197,0.996142745018
1505429690586405414,5601,1505429690586242405,-0.400857627392,-0.00111743423622,-0.177129477262,-0.0701795071363,0.0522910840809,-0.00412860186771,0.996154308319
1505429690596634623,5602,1505429690596461243,-0.401028305292,0.000924634514377,-0.180437341332,-0.0694258362055,0.0533230602741,-0.00281321140938,0.996157050133
1505429690606808135,5603,1505429690606659467,-0.401196986437,0.00307097053155,-0.183640301228,-0.0685500353575,0.0538087412715,-0.00134813541081,0.996194601059
1505429690616309422,5604,1505429690616056452,-0.40165168047,0.00515846628696,-0.187665119767,-0.0668737739325,0.0544657371938,0.000164977362147,0.996273696423
1505429690626435740,5605,1505429690626275216,-0.402040332556,0.00749083189294,-0.191243588924,-0.0657176449895,0.0556201152503,0.000670889334287,0.99628663063
1505429690636888747,5606,1505429690636495472,-0.402261137962,0.00989555288106,-0.194662094116,-0.0648472607136,0.0569698810577,0.001402690541,0.996266722679
1505429690645892398,5607,1505429690645755138,-0.402912825346,0.0123831313103,-0.199104189873,-0.0647390410304,0.0574997104704,0.0015749115264,0.996243000031
1505429690656401439,5608,1505429690656131818,-0.403382688761,0.0150628574193,-0.202765166759,-0.065293289721,0.057671379298,0.00171347241849,0.996196687222
1505429690666413577,5609,1505429690666306977,-0.403914839029,0.0178475603461,-0.206822767854,-0.0666437968612,0.0581371560693,0.00227613700554,0.996079087257
1505429690676740833,5610,1505429690676602597,-0.404615908861,0.0206207260489,-0.211294710636,-0.0673427134752,0.0580090805888,0.00251272926107,0.996038913727
1505429690685960222,5611,1505429690685832634,-0.405537694693,0.0236332062632,-0.215403616428,-0.0690832585096,0.0578468590975,0.00123655609787,0.995931565762
1505429690696225684,5612,1505429690695997208,-0.406231045723,0.0267050042748,-0.219895482063,-0.0687728747725,0.0576362982392,0.00116414285731,0.995965361595
