%time,field.header.seq,field.header.stamp,field.header.frame_id,field.batteryPercent,field.state,field.magX,field.magY,field.magZ,field.pressure,field.temp,field.wind_speed,field.wind_angle,field.wind_comp_angle,field.rotX,field.rotY,field.rotZ,field.altd,field.vx,field.vy,field.vz,field.ax,field.ay,field.az,field.motor1,field.motor2,field.motor3,field.motor4,field.tags_count,field.tags_type0,field.tags_xc0,field.tags_yc0,field.tags_width0,field.tags_height0,field.tags_orientation0,field.tags_distance0,field.tm
1505403906767583262,8724,1505403906767324492,45.0,3,86,4,-18,98903,505,0.413708716631,-89.4261169434,0.0,-1.27900004387,-0.977999985218,-174.695007324,907,50.1836013794,-52.754119873,-0.0,-0.0396205596626,-0.415932297707,0.895139038563,161,165,169,186,1,131072,221,258,50,66,90.6733398438,263.0,1189129856.0
1505403906775648130,8725,1505403906775402252,45.0,3,86,4,-18,98903,505,0.418197125196,-89.4751052856,0.0,-1.4129999876,-0.948000013828,-174.636993408,907,46.0352134705,-69.1805343628,-0.0,-0.0423644296825,-0.432395011187,0.901633799076,162,168,159,193,1,131072,215,262,50,66,90.9560394287,263.0,1189134848.0
1505403906777964969,8726,1505403906777686349,45.0,3,88,4,-20,98916,505,0.423268228769,-89.5462265015,0.0,-1.54600000381,-0.939999997616,-174.621002197,907,42.8578147888,-85.3349990845,-0.0,-0.022063229233,-0.497375041246,0.915332198143,163,164,163,191,1,131072,215,262,50,66,90.9560394287,263.0,1189139840.0
1505403906783151050,8727,1505403906782993494,45.0,3,88,4,-20,98916,505,0.428718030453,-89.6300735474,0.0,-1.73599994183,-0.907000005245,-174.613998413,907,40.248550415,-100.701622009,-0.0,-0.0134948529303,-0.540615975857,0.942907512188,172,159,163,188,1,131072,215,262,50,66,90.9560394287,263.0,1189144704.0
1505403906786287471,8728,1505403906786141319,45.0,3,91,3,-23,98900,505,0.433768630028,-89.7196121216,0.0,-1.90299999714,-0.879999995232,-174.679992676,907,44.1536598206,-106.319488525,-0.0,-0.00999588426203,-0.534629762173,0.953601539135,182,149,174,177,1,131072,215,262,50,66,90.9560394287,263.0,1189149696.0
1505403906791450941,8729,1505403906791303380,45.0,3,91,3,-23,98900,505,0.438968867064,-89.8419799805,0.0,-2.00999999046,-0.871999979019,-174.694000244,907,47.9494514465,-111.695381165,-0.0,0.00502384128049,-0.553129196167,0.967700481415,182,147,182,172,1,131072,215,262,50,66,90.9560394287,263.0,1189154688.0
1505403906799567717,8730,1505403906799352391,45.0,3,90,8,-18,98875,505,0.443624228239,-89.9244232178,0.0,-2.10400009155,-0.850000023842,-174.74899292,907,51.0434951782,-114.785926819,-0.0,-0.0116713466123,-0.489577174187,0.961883842945,187,144,185,167,1,131072,215,262,50,66,90.9560394287,263.0,1189159808.0
1505403906801468876,8731,1505403906801265118,45.0,3,90,8,-18,98875,505,0.447746664286,-90.0044937134,0.0,-2.11100006104,-0.861000001431,-174.777999878,907,52.9044570923,-100.511283875,-0.0,-0.0116155594587,-0.517364144325,0.973147749901,182,145,193,163,1,131072,215,262,50,66,90.9560394287,263.0,1189164928.0
1505403906808157116,8732,1505403906807996060,45.0,3,85,7,-19,98903,505,0.452014803886,-90.0686035156,0.0,-2.15300011635,-0.856000006199,-174.753997803,908,53.7307929993,-87.6981658936,-0.0,-0.0393604263663,-0.52530503273,0.960961937904,179,149,185,169,1,131072,215,262,50,66,90.9560394287,263.0,1189170048.0
1505403906819170802,8733,1505403906818936726,45.0,3,85,7,-19,98903,505,0.456669330597,-90.1248474121,0.0,-2.18300008774,-0.866999983788,-174.729003906,908,54.2907371521,-77.0899429321,-0.0,-0.049181856215,-0.559054434299,0.959717929363,172,154,181,174,1,131072,215,262,50,66,90.9560394287,263.0,1189175040.0
1505403906821484575,8734,1505403906820994378,45.0,3,88,4,-20,98894,505,0.461716890335,-90.2010192871,0.0,-2.20799994469,-0.888000011444,-174.619003296,907,54.6050262451,-68.5208511353,-0.0,-0.0518838390708,-0.598303079605,0.94653737545,159,166,171,186,1,131072,209,262,46,62,91.2757873535,280.0,1189179904.0
1505403906822036128,8735,1505403906821842544,45.0,3,88,4,-20,98891,505,0.467997580767,-90.2337036133,0.0,-2.30599999428,-0.896000027657,-174.54699707,907,47.6949768066,-90.8475265503,-0.0,-0.0622750148177,-0.573153376579,0.930635452271,157,169,160,196,1,131072,209,262,46,62,91.2757873535,280.0,1189184896.0
1505403906826212880,8736,1505403906825985174,45.0,3,87,1,-21,98897,505,0.474388480186,-90.2902145386,0.0,-2.39100003242,-0.916999995708,-174.48399353,907,41.9835357666,-111.260147095,-0.0,-0.0413749702275,-0.593799054623,0.934869945049,155,171,160,198,1,131072,209,262,46,62,91.2757873535,280.0,1189189888.0
1505403906831392262,8737,1505403906831228810,45.0,3,87,1,-21,98897,505,0.479881733656,-90.3151168823,0.0,-2.55800008774,-0.915000021458,-174.434005737,907,35.8395042419,-121.759902954,-0.0,-0.0558065101504,-0.530678033829,0.924009740353,162,166,155,201,1,131072,209,262,46,62,91.2757873535,280.0,1189195008.0
1505403906843185595,8738,1505403906842975478,45.0,3,94,0,-22,98891,505,0.484965533018,-90.3357696533,0.0,-2.68400001526,-0.90499997139,-174.457000732,907,30.8596401215,-129.942657471,-0.0,-0.0400306321681,-0.488354891539,0.956958591938,169,160,164,190,1,131072,209,262,46,62,91.2757873535,280.0,1189200128.0
1505403906846411488,8739,1505403906846215548,45.0,3,94,0,-22,98894,505,0.489099830389,-90.3536300659,0.0,-2.76200008392,-0.883000016212,-174.457992554,907,26.3753051758,-134.803009033,-0.0,-0.0392467416823,-0.391150087118,0.966705858707,174,156,170,183,1,131072,209,262,46,62,91.2757873535,280.0,1189204992.0
1505403906847211532,8740,1505403906847052836,45.0,3,87,3,-21,98907,505,0.492070823908,-90.3648681641,0.0,-2.81299996376,-0.84500002861,-174.514007568,904,23.1052131653,-137.028564453,-0.0,-0.0263583641499,-0.26872703433,1.00358521938,184,151,178,176,1,131072,209,262,46,62,91.2757873535,280.0,1189210496.0
1505403906851787231,8741,1505403906851405370,45.0,3,87,3,-21,98907,505,0.493068277836,-90.371383667,0.0,-2.76399993896,-0.806999981403,-174.565002441,903,18.258184433,-110.090164185,-0.0,-0.005989308469,-0.187485486269,1.00952756405,186,150,189,165,1,131072,200,262,50,66,91.8558959961,263.0,1189215360.0
1505403906856256243,8742,1505403906856125502,45.0,3,94,10,-22,98897,505,0.493261367083,-90.358291626,0.0,-2.75099992752,-0.760999977589,-174.583999634,903,13.3905773163,-83.6570281982,-0.0,-0.0243114065379,-0.094408929348,1.00451433659,189,147,186,167,1,131072,200,262,50,66,91.8558959961,263.0,1189220096.0
1505403906865770789,8743,1505403906865535566,45.0,3,94,10,-22,98897,505,0.493904054165,-90.3868789673,0.0,-2.70199990273,-0.722999989986,-174.613998413,903,14.8519048691,-74.9688262939,-0.0,-0.0121612083167,-0.0614771284163,0.991202950478,187,149,188,165,1,131072,200,262,50,66,91.8558959961,263.0,1189225344.0
1505403906866637230,8744,1505403906866468884,45.0,3,84,0,-20,98875,505,0.494067490101,-90.3883361816,0.0,-2.65899991989,-0.691999971867,-174.585006714,903,15.5589952469,-65.9630661011,-0.0,-0.0345947556198,-0.0103076957166,0.969305157661,181,153,182,172,1,131072,200,262,50,66,91.8558959961,263.0,1189230336.0
1505403906874972474,8745,1505403906874743611,45.0,3,84,0,-20,98875,505,0.493902564049,-90.3902816772,0.0,-2.61899995804,-0.677999973297,-174.572006226,903,16.3528461456,-57.0853881836,-0.0,-0.0298590734601,0.0235507134348,0.970894575119,177,156,179,177,1,131072,200,262,50,66,91.8558959961,263.0,1189235328.0
1505403906876549920,8746,1505403906876379040,45.0,3,91,3,-17,98907,505,0.49363604188,-90.3993911743,0.0,-2.54800009727,-0.666000008583,-174.542999268,903,17.2827548981,-48.9620819092,-0.0,-0.0208543688059,0.032468304038,0.969765722752,172,161,177,179,1,131072,200,262,50,66,91.8558959961,263.0,1189240320.0
1505403906883144091,8747,1505403906882957892,45.0,3,91,3,-17,98907,505,0.493048518896,-90.3935699463,0.0,-2.49699997902,-0.669000029564,-174.503005981,902,17.8581905365,-40.9046859741,-0.0,-0.0314729735255,0.0665278658271,0.964094102383,169,163,173,184,1,131072,200,262,50,66,91.3581237793,263.0,1189245312.0
1505403906891852600,8748,1505403906891709481,45.0,3,86,0,-16,98894,505,0.492735564709,-90.4086914062,0.0,-2.4319999218,-0.65600001812,-174.475006104,901,18.819524765,-34.7762413025,-0.0,-0.0135600334033,0.0351848304272,0.95736259222,168,167,173,184,1,131072,200,262,50,66,91.3581237793,263.0,1189250432.0
1505403906894231507,8749,1505403906893310211,45.0,3,86,0,-16,98894,505,0.492294251919,-90.3973007202,0.0,-2.40300011635,-0.644999980927,-174.42199707,901,19.0243263245,-28.7890777588,-0.0,-0.038184992969,0.0497406795621,0.933178365231,167,167,168,189,1,131072,200,262,50,66,91.3581237793,263.0,1189255424.0
1505403906897299825,8750,1505403906897087618,45.0,3,84,6,-20,98894,505,0.491984575987,-90.3909912109,0.0,-2.38400006294,-0.633000016212,-174.382995605,901,16.5377082825,-25.1899852753,-0.0,-0.0204203985631,0.0419198200107,0.948389589787,166,168,166,190,1,131072,200,262,50,66,91.3581237793,263.0,1189260416.0
1505403906907383734,8751,1505403906907039233,45.0,3,84,6,-20,98894,505,0.491605728865,-90.3846893311,0.0,-2.35299992561,-0.617999970913,-174.35899353,901,14.3112764359,-21.8300151825,-0.0,-0.0207536071539,0.0482038743794,0.961108863354,167,168,168,188,1,131072,200,262,50,66,91.3581237793,263.0,1189265408.0
1505403906907390089,8752,1505403906907075125,45.0,3,84,6,-20,98916,505,0.491202533245,-90.370223999,0.0,-2.32500004768,-0.616999983788,-174.345993042,901,12.109046936,-18.8043022156,-0.0,-0.0296421144158,0.0503007359803,0.978543102741,169,165,171,187,1,131072,200,262,50,66,91.3581237793,263.0,1189270400.0
1505403906911762625,8753,1505403906911541127,45.0,3,84,6,-20,98916,505,0.490695565939,-90.3765182495,0.0,-2.27800011635,-0.601000010967,-174.367004395,900,10.6594705582,-15.9035797119,-0.0,-0.0084743630141,0.0591481588781,0.988019883633,174,161,177,180,1,131072,200,262,50,66,91.3581237793,263.0,1189275392.0
1505403906919402026,8754,1505403906919200368,45.0,3,93,5,-19,98919,505,0.489660620689,-90.3715667725,0.0,-2.23300004005,-0.59399998188,-174.395996094,900,13.5046510696,-4.19657325745,-0.0,-0.0372794643044,0.0722977072001,0.949631929398,179,155,182,175,1,131072,196,262,50,66,92.2060852051,263.0,1189280512.0
1505403906923833554,8755,1505403906923591027,45.0,3,93,5,-19,98919,505,0.488675773144,-90.393081665,0.0,-2.1819999218,-0.591000020504,-174.412994385,900,16.7194423676,6.1600894928,-0.0,-0.0101160584018,0.06821937114,0.958150207996,181,154,185,172,1,131072,196,262,50,66,92.2060852051,263.0,1189285504.0
1505403906931581172,8756,1505403906931368545,45.0,3,89,5,-23,98894,505,0.487807124853,-90.3947753906,0.0,-2.12599992752,-0.582000017166,-174.447006226,906,18.7055892944,16.6659221649,-0.0,-0.0304296836257,0.0601841360331,0.935788273811,181,149,186,166,1,131072,196,262,50,66,92.2060852051,263.0,1189290752.0
1505403906934268550,8757,1505403906934102999,45.0,3,89,5,-23,98897,505,0.487234145403,-90.410118103,0.0,-2.05399990082,-0.598999977112,-174.427993774,906,21.1515827179,23.8761577606,-0.0,-0.0182827543467,0.0291762016714,0.966067612171,175,152,185,169,1,131072,196,262,50,66,92.2060852051,263.0,1189296000.0
1505403906940634918,8758,1505403906940414222,45.0,3,88,6,-22,98894,505,0.487209677696,-90.4062271118,0.0,-1.99199998379,-0.597000002861,-174.412002563,906,19.8551063538,25.7668857574,-0.0,-0.027720971033,-0.00905171316117,0.965672016144,172,157,181,172,1,131072,196,262,50,66,92.2060852051,263.0,1189300864.0
1505403906942150443,8759,1505403906941913913,45.0,3,88,6,-22,98891,505,0.487585306168,-90.392791748,0.0,-1.9470000267,-0.603999972343,-174.365005493,906,18.3221092224,26.3952484131,-0.0,-0.0431192442775,-0.0505752451718,0.961709260941,167,161,176,179,1,131072,196,262,50,66,92.2060852051,263.0,1189305600.0
1505403906947113490,8760,1505403906946886276,45.0,3,85,1,-17,98878,505,0.488218963146,-90.3897628784,0.0,-1.94400000572,-0.605000019073,-174.283004761,906,17.0931243896,26.2621212006,-0.0,-0.037716679275,-0.0785857960582,0.967559635639,161,167,166,188,1,131072,200,262,50,66,90.7760696411,263.0,1189310592.0
1505403906951703974,8761,1505403906951571365,45.0,3,85,1,-17,98878,505,0.489418566227,-90.3729476929,0.0,-1.96800005436,-0.588999986649,-174.223007202,906,14.8873291016,19.9228401184,-0.0,-0.0556243397295,-0.110249891877,0.940601170063,160,171,160,192,1,131072,200,262,50,66,90.7760696411,263.0,1189315584.0
1505403906957475596,8762,1505403906957269563,45.0,3,87,5,-15,98881,505,0.490776330233,-90.3746414185,0.0,-2.007999897,-0.591000020504,-174.130004883,906,13.2356853485,13.7652254105,-0.0,-0.0424956418574,-0.130479156971,0.950915455818,155,174,156,198,1,131072,200,262,50,66,90.7760696411,263.0,1189320704.0
1505403906962575975,8763,1505403906962375399,45.0,3,87,5,-15,98881,505,0.491772949696,-90.3836212158,0.0,-2.0569999218,-0.566999971867,-174.082992554,906,15.1004219055,16.5961494446,-0.0,-0.0431271865964,-0.134429812431,0.925517082214,157,174,155,197,1,131072,200,262,50,66,90.7760696411,263.0,1189325696.0
1505403906967912606,8764,1505403906967695266,45.0,3,86,8,-16,98900,505,0.492671370506,-90.4013900757,0.0,-2.07500004768,-0.574000000954,-174.076004028,897,17.606300354,17.5612678528,-0.0,-0.0301700644195,-0.122496113181,0.937176346779,164,171,167,194,1,131072,200,262,50,66,90.7760696411,263.0,1189330816.0
1505403906980825723,8765,1505403906980607199,45.0,3,86,8,-16,98900,505,0.493473112583,-90.4309463501,0.0,-2.09500002861,-0.563000023365,-174.07800293,897,19.7035579681,20.4743881226,-0.0,-0.0163573250175,-0.110851481557,0.946594655514,172,166,172,187,1,131072,200,262,50,66,90.7760696411,263.0,1189335808.0
1505403906983093474,8766,1505403906982898388,45.0,3,86,8,-18,98919,505,0.493996441364,-90.472038269,0.0,-2.08699989319,-0.558000028133,-174.14100647,897,21.9752006531,23.9274291992,-0.0,0.000196916575078,-0.0784346237779,0.960832774639,181,157,183,176,1,131072,200,262,50,66,90.975692749,263.0,1189340800.0
1505403906990166271,8767,1505403906989903665,45.0,3,86,8,-18,98919,505,0.494200199842,-90.5187301636,0.0,-2.08100008965,-0.554000020027,-174.151992798,896,23.7118740082,32.3464241028,-0.0,0.0109435785562,-0.0700607225299,0.973243951797,184,154,186,173,1,131072,200,262,50,66,90.975692749,263.0,1189345792.0
1505403907008756905,8768,1505403907008534612,45.0,3,90,8,-22,98891,505,0.494178056717,-90.5669403076,0.0,-2.0720000267,-0.537000000477,-174.164001465,896,25.3547172546,40.5788116455,-0.0,0.0147443730384,-0.0428214333951,0.957549095154,185,155,185,173,1,131072,200,262,50,66,90.975692749,263.0,1189350784.0
1505403907014176882,8769,1505403907013995504,45.0,3,90,8,-22,98891,505,0.494605302811,-90.5908889771,0.0,-2.04399991035,-0.546000003815,-174.17199707,896,24.3845996857,39.0480308533,-0.0,-0.00496334256604,-0.0429562665522,0.959364652634,182,155,187,173,1,131072,200,262,50,66,90.975692749,263.0,1189355904.0
1505403907015711700,8770,1505403907015533256,45.0,3,89,5,-19,98888,505,0.494953513145,-90.6083221436,0.0,-2.03399991989,-0.538999974728,-174.128005981,896,23.3956604004,37.7870483398,-0.0,-0.0108308810741,-0.0365221574903,0.971888184547,178,160,180,179,1,131072,200,262,50,66,90.975692749,263.0,1189361024.0
1505403907016481229,8771,1505403907016331437,45.0,3,89,5,-19,98888,505,0.495430111885,-90.5974578857,0.0,-2.02800011635,-0.541000008583,-174.119995117,895,21.7341747284,36.3725204468,-0.0,-0.0415959581733,-0.0482804812491,0.991843700409,175,161,179,182,1,131072,200,262,50,66,90.975692749,263.0,1189366016.0
1505403907018120025,8772,1505403907017972293,45.0,3,87,5,-17,98888,505,0.495874524117,-90.5933609009,0.0,-2.04600000381,-0.528999984264,-174.06199646,907,19.8124771118,37.5245704651,-0.0,-0.034933205694,-0.046966213733,1.01238524914,168,161,168,182,1,131072,200,262,50,66,90.975692749,263.0,1189371136.0
1505403907021661935,8773,1505403907021437483,45.0,3,87,5,-17,98888,505,0.496204346418,-90.5777282715,0.0,-2.06900000572,-0.512000024319,-174.01600647,907,20.3649406433,35.4864845276,-0.0,-0.0551239475608,-0.0279123652726,0.987486243248,165,164,164,186,1,131072,200,262,50,66,91.1231079102,263.0,1189376128.0
1505403907024449922,8774,1505403907024172276,45.0,3,90,4,-20,98881,505,0.496235221624,-90.5598983765,0.0,-2.0680000782,-0.507000029087,-173.998001099,907,20.8948249817,34.3990364075,-0.0,-0.0532021559775,0.00262950127944,0.964171171188,165,163,167,185,1,131072,200,262,50,66,91.1231079102,263.0,1189380992.0
1505403907024458072,8775,1505403907024193615,45.0,3,90,4,-20,98881,505,0.49577498436,-90.5435256958,0.0,-2.0490000248,-0.503000020981,-173.962005615,907,21.6016235352,34.6121635437,-0.0,-0.0444416031241,0.0529703386128,0.94662964344,165,164,167,184,1,131072,200,262,50,66,91.1231079102,263.0,1189385984.0
1505403907027643256,8776,1505403907027422686,45.0,3,91,3,-15,98907,505,0.494881570339,-90.5277862549,0.0,-2.00699996948,-0.513999998569,-173.979995728,907,22.7782001495,42.9980773926,-0.0,-0.0424522683024,0.0595339648426,0.944298744202,168,160,174,179,1,131072,200,262,50,66,91.1231079102,263.0,1189391104.0
1505403907038131826,8777,1505403907037869361,45.0,3,91,3,-15,98907,505,0.493811517954,-90.5364303589,0.0,-1.97300004959,-0.522000014782,-173.962997437,907,24.5514602661,50.9166297913,-0.0,-0.0137908793986,0.0779242366552,0.97347176075,170,158,175,177,1,131072,200,262,50,66,91.1231079102,263.0,1189396096.0
1505403907048151633,8778,1505403907047118521,45.0,3,93,3,-21,98935,505,0.492844343185,-90.5400619507,0.0,-1.95200002193,-0.51700001955,-173.962997437,907,25.9718894958,57.7895927429,-0.0,-0.0205644927919,0.0696794018149,0.955111145973,172,157,175,176,1,131072,200,262,50,66,91.1231079102,263.0,1189401088.0
1505403907048155319,8779,1505403907047721293,45.0,3,93,3,-21,98935,505,0.491838663816,-90.5553665161,0.0,-1.94000005722,-0.523000001907,-173.977005005,907,27.5076732635,64.0707015991,-0.0,-0.00896495487541,0.0750514268875,0.954262316227,175,153,178,174,1,131072,196,262,50,66,92.9153289795,263.0,1189406080.0
1505403907048159469,8780,1505403907047760778,45.0,3,89,3,-23,98919,505,0.491292268038,-90.5511474609,0.0,-1.94900000095,-0.495999991894,-173.973999023,901,26.6150798798,58.0044898987,-0.0,-0.0211389921606,0.0793883576989,0.923783361912,181,156,178,176,1,131072,196,262,50,66,92.9153289795,263.0,1189411328.0
1505403907052580058,8781,1505403907052408200,45.0,3,89,3,-23,98919,505,0.490807026625,-90.5520553589,0.0,-1.9620000124,-0.493000000715,-173.996994019,901,25.5500526428,53.5075798035,-0.0,-0.0183933936059,0.0703286603093,0.930458366871,182,153,181,175,1,131072,196,262,50,66,92.9153289795,263.0,1189416320.0
1505403907057387483,8782,1505403907057178445,45.0,3,93,5,-15,98885,505,0.490015208721,-90.5718994141,0.0,-1.98399996758,-0.476999998093,-173.990005493,901,29.1730957031,55.6902275085,-0.0,-0.0162051599473,0.0679120495915,0.945940554142,182,154,180,176,1,131072,196,262,50,66,92.9153289795,263.0,1189421184.0
1505403907063034507,8783,1505403907062626398,45.0,3,93,5,-15,98885,505,0.489355176687,-90.5805969238,0.0,-2.00500011444,-0.472000002861,-173.973999023,901,32.1754760742,57.3290290833,-0.0,-0.0271840691566,0.054837051779,0.954159975052,179,156,178,179,1,131072,196,262,50,66,92.9153289795,263.0,1189426304.0
1505403907067710758,8784,1505403907067307679,45.0,3,89,7,-17,98878,505,0.488644987345,-90.5863418579,0.0,-2.01900005341,-0.490999996662,-173.947998047,900,34.8586883545,58.9316673279,-0.0,-0.027881110087,0.0603151842952,0.950157523155,175,157,177,182,1,131072,196,262,50,66,92.9153289795,263.0,1189431296.0
1505403907075279940,8785,1505403907075104863,45.0,3,89,7,-17,98878,505,0.487800985575,-90.5843734741,0.0,-2.0150001049,-0.497999995947,-173.906997681,900,37.1749610901,60.7038116455,-0.0,-0.0319189317524,0.0747013688087,0.928875625134,171,162,173,185,1,131072,196,262,50,66,92.9153289795,263.0,1189436416.0
1505403907078682368,8786,1505403907078509094,45.0,3,89,3,-15,98888,505,0.487015247345,-90.5756912231,0.0,-1.9960000515,-0.541999995708,-173.87399292,900,39.0608024597,62.1435127258,-0.0,-0.0387218520045,0.0694234967232,0.914732098579,167,163,174,187,1,131072,196,262,50,66,92.9510650635,263.0,1189441280.0
1505403907082921091,8787,1505403907082496873,45.0,3,89,3,-15,98885,505,0.486001074314,-90.5695495605,0.0,-1.97800004482,-0.56099998951,-173.833999634,900,40.8528594971,68.263420105,-0.0,-0.0319748185575,0.0696179121733,0.916473329067,166,166,172,188,1,131072,196,262,50,66,92.9510650635,263.0,1189446528.0
1505403907087958206,8788,1505403907087793911,45.0,3,92,2,-20,98894,505,0.485051929951,-90.5565338135,0.0,-1.96000003815,-0.592000007629,-173.800994873,900,42.2653198242,73.6329345703,-0.0,-0.0389803685248,0.0656360015273,0.923134088516,165,165,172,189,1,131072,196,262,50,66,92.9510650635,263.0,1189451520.0
1505403907094330890,8789,1505403907094084013,45.0,3,92,2,-20,98897,505,0.484678298235,-90.5307693481,0.0,-1.9509999752,-0.624000012875,-173.776992798,900,38.4794387817,69.1122894287,-0.0,-0.0349291525781,0.051553633064,0.926345586777,166,164,173,188,1,131072,196,262,50,66,92.9510650635,263.0,1189456512.0
1505403907099566372,8790,1505403907099022927,45.0,3,91,3,-19,98900,505,0.484235197306,-90.4976196289,0.0,-1.9470000267,-0.632000029087,-173.757003784,900,34.8650665283,65.1868667603,-0.0,-0.042846750468,0.0576849542558,0.929004967213,169,164,173,186,1,131072,196,262,50,66,92.9510650635,263.0,1189462016.0
1505403907107931016,8791,1505403907107610444,45.0,3,91,3,-19,98900,505,0.48380613327,-90.4730911255,0.0,-1.93799996376,-0.663999974728,-173.757003784,900,31.7296104431,61.5717582703,-0.0,-0.0366325452924,0.0543261505663,0.924925923347,171,160,177,184,1,131072,196,262,50,66,92.9510650635,263.0,1189466368.0
1505403907107962725,8792,1505403907107643726,45.0,3,88,2,-18,98910,505,0.483301430941,-90.4577789307,0.0,-1.93700003624,-0.663999974728,-173.763000488,899,29.1130466461,58.4483528137,-0.0,-0.0278563853353,0.0601557567716,0.943727016449,176,158,178,180,1,131072,190,262,53,70,93.2140045166,249.0,1189471488.0
1505403907112769606,8793,1505403907112615758,45.0,3,88,2,-18,98907,505,0.482679307461,-90.430229187,0.0,-1.93700003624,-0.665000021458,-173.776992798,899,25.5751438141,57.2578620911,-0.0,-0.0349367149174,0.0647542253137,0.951758146286,179,155,181,177,1,131072,190,262,53,70,93.2140045166,249.0,1189476480.0
1505403907118848421,8794,1505403907118571017,45.0,3,87,1,-13,98903,505,0.482127249241,-90.4306106567,0.0,-1.94799995422,-0.65600001812,-173.776992798,899,23.0396881104,55.9217796326,-0.0,-0.00936912000179,0.0543796047568,0.976848244667,180,155,181,176,1,131072,190,262,53,70,93.2140045166,249.0,1189481472.0
1505403907126103840,8795,1505403907125919876,45.0,3,87,1,-13,98907,505,0.481547564268,-90.4241409302,0.0,-1.97300004959,-0.625999987125,-173.770004272,899,21.1284809113,54.9524650574,-0.0,-0.0194314569235,0.0562513880432,0.979448199272,181,156,178,177,1,131072,190,262,53,70,93.2140045166,249.0,1189486592.0
1505403907129586372,8796,1505403907129223457,45.0,3,92,2,-16,98894,505,0.48119944334,-90.4393310547,0.0,-1.99899995327,-0.610000014305,-173.73500061,893,20.2430210114,52.2557792664,-0.0,-0.00173188757617,0.0291125755757,0.991696119308,179,162,177,184,1,131072,190,262,53,70,93.2140045166,249.0,1189491840.0
1505403907133080142,8797,1505403907132795946,45.0,3,92,2,-16,98894,505,0.480994254351,-90.4557189941,0.0,-2.06200003624,-0.566999971867,-173.688995361,892,19.0853023529,50.5286445618,-0.0,-0.00339858769439,0.0136225502938,0.993432044983,178,166,169,189,1,131072,190,262,53,70,93.2140045166,249.0,1189496704.0
1505403907140435124,8798,1505403907140196863,45.0,3,91,5,-19,98891,505,0.481017351151,-90.4762802124,0.0,-2.10899996758,-0.551999986172,-173.634994507,892,18.0789604187,48.4282836914,-0.0,-0.00352392951027,-0.010841993615,0.989000380039,172,169,168,193,1,131072,190,262,53,70,93.2140045166,249.0,1189501696.0
1505403907144077866,8799,1505403907143921039,45.0,3,91,5,-19,98891,505,0.481232404709,-90.5433578491,0.0,-2.1779999733,-0.535000026226,-173.56199646,892,24.9790859222,47.9610786438,-0.0,0.00205285637639,-0.0467063896358,0.993942677975,168,173,162,198,1,131072,187,266,53,70,90.8628234863,249.0,1189506688.0
1505403907147980034,8800,1505403907147686206,45.0,3,94,8,-20,98891,505,0.481622725725,-90.5790328979,0.0,-2.23200011253,-0.541999995708,-173.527999878,892,30.4331531525,47.2831420898,-0.0,-0.0274518802762,-0.0603611804545,0.962987542152,167,172,165,198,1,131072,187,266,53,70,90.8628234863,249.0,1189511808.0
1505403907152935553,8801,1505403907152731390,45.0,3,94,8,-20,98891,505,0.481898277998,-90.6392822266,0.0,-2.26200008392,-0.574000000954,-173.511001587,891,40.1116104126,54.8716278076,-0.0,-0.0204791165888,-0.0925557389855,0.960728764534,168,168,171,194,1,131072,187,266,53,70,90.8628234863,249.0,1189516672.0
1505403907158311280,8802,1505403907158139001,45.0,3,90,6,-22,98894,505,0.482296645641,-90.6619796753,0.0,-2.30100011826,-0.597999989986,-173.537994385,891,47.915802002,61.6697006226,-0.0,-0.0540517494082,-0.0961886495352,0.920650720596,176,160,178,187,1,131072,187,266,53,70,90.8628234863,249.0,1189521792.0
1505403907165454306,8803,1505403907165205604,45.0,3,90,6,-22,98894,505,0.482931822538,-90.6909103394,0.0,-2.28999996185,-0.64200001955,-173.604003906,891,55.0158348083,67.4040222168,-0.0,-0.0475572794676,-0.114625573158,0.91250628233,183,152,192,175,1,131072,187,266,53,70,90.8628234863,249.0,1189526656.0
1505403907168291984,8804,1505403907168097103,45.0,3,88,8,-16,98916,505,0.483804315329,-90.7297668457,0.0,-2.29299998283,-0.65600001812,-173.634994507,883,62.0759429932,70.2724838257,-0.0,-0.0396871156991,-0.137406170368,0.897041797638,191,152,197,173,1,131072,187,266,53,70,90.8628234863,249.0,1189532032.0
1505403907174690572,8805,1505403907174499384,45.0,3,88,8,-16,98916,505,0.484919905663,-90.7763748169,0.0,-2.28099989891,-0.67199999094,-173.682998657,882,68.1287231445,73.9580764771,-0.0,-0.0320844501257,-0.158140957355,0.891160786152,193,150,200,170,1,131072,184,270,50,66,91.9479141235,263.0,1189536896.0
1505403907178039551,8806,1505403907177889953,45.0,3,95,7,-19,98925,505,0.48688942194,-90.7576141357,0.0,-2.27099990845,-0.666000008583,-173.675994873,882,53.648311615,66.5011520386,-0.0,-0.00656812591478,-0.198148131371,0.917047739029,190,155,196,171,1,131072,184,270,50,66,91.9479141235,263.0,1189541888.0
1505403907184521363,8807,1505403907184309145,45.0,3,95,7,-19,98925,505,0.489082485437,-90.7336959839,0.0,-2.29399991035,-0.632000029087,-173.649993896,881,40.268497467,59.1865959167,-0.0,-0.0221687424928,-0.222792282701,0.925055921078,187,161,187,178,1,131072,184,270,50,66,91.9479141235,263.0,1189546880.0
1505403907188273993,8808,1505403907188123094,45.0,3,91,-1,-17,98888,505,0.492164164782,-90.762840271,0.0,-2.32399988174,-0.60799998045,-173.615005493,881,33.9909896851,42.0934028625,-0.0,-0.0126143321395,-0.273978769779,0.98603862524,181,166,182,184,1,131072,184,270,50,66,91.9479141235,263.0,1189552000.0
1505403907193583896,8809,1505403907193268589,45.0,3,91,-1,-17,98888,505,0.495513617992,-90.7969741821,0.0,-2.39800000191,-0.545000016689,-173.503997803,881,28.1653270721,25.9137554169,-0.0,-0.0224043615162,-0.308241575956,1.00918793678,174,177,167,195,1,131072,184,270,50,66,91.9479141235,263.0,1189556992.0
1505403907197983192,8810,1505403907197768183,45.0,3,88,4,-14,98907,505,0.498914122581,-90.8403396606,0.0,-2.51200008392,-0.518000006676,-173.445007324,880,23.2106590271,11.2686395645,-0.0,-0.0114691220224,-0.317150980234,1.04557967186,170,178,162,203,1,131072,184,270,50,66,91.9479141235,263.0,1189561984.0
1505403907207613855,8811,1505403907207128817,45.0,3,88,4,-14,98907,505,0.501973748207,-90.8885803223,0.0,-2.61299991608,-0.483999997377,-173.367004395,880,18.9033336639,-0.984637260437,-0.0,-0.00593639072031,-0.285835653543,1.03361952305,168,180,159,205,1,131072,184,270,50,66,91.9479141235,263.0,1189566976.0
1505403907208644083,8812,1505403907208455599,45.0,3,87,7,-13,98922,505,0.503863275051,-90.9692230225,0.0,-2.73000001907,-0.449999988079,-173.339996338,874,28.9548339844,-4.85678768158,-0.0,-0.0196467395872,-0.199711725116,1.01503705978,174,178,162,206,1,131072,178,270,50,66,92.5188903809,263.0,1189572224.0
1505403907213419260,8813,1505403907213218504,45.0,3,87,7,-13,98922,505,0.505214035511,-91.0288314819,0.0,-2.78999996185,-0.446999996901,-173.369003296,874,37.6461524963,-5.44811058044,-0.0,-0.02624755539,-0.140094846487,1.00364482403,180,169,175,195,1,131072,178,270,50,66,92.5188903809,263.0,1189577216.0
1505403907218443969,8814,1505403907218165035,45.0,3,85,1,-19,98888,505,0.505958378315,-91.0676879883,0.0,-2.84200000763,-0.404000014067,-173.36000061,873,45.146270752,-4.36206150055,-0.0,-0.0375351347029,-0.0765241906047,1.00461828709,186,167,177,189,1,131072,178,270,50,66,92.5188903809,263.0,1189582080.0
1505403907223745816,8815,1505403907223559696,45.0,3,85,1,-19,98888,505,0.505394458771,-91.0753097534,0.0,-2.88400006294,-0.400999993086,-173.399993896,873,48.0451850891,19.481842041,-0.0,-0.0310619547963,-0.0450626797974,1.01799285412,190,159,184,185,1,131072,178,270,50,66,92.5188903809,263.0,1189587200.0
1505403907233334888,8816,1505403907233017247,45.0,3,90,2,-18,98875,505,0.504385650158,-91.0908050537,0.0,-2.8710000515,-0.379000008106,-173.391998291,872,50.9775276184,42.2341156006,-0.0,-0.0169759765267,0.0079368557781,1.00587487221,189,162,186,181,1,131072,178,270,50,66,92.5188903809,263.0,1189592192.0
1505403907241553488,8817,1505403907240875040,45.0,3,90,2,-18,98875,505,0.503297865391,-91.0707397461,0.0,-2.8710000515,-0.368000000715,-173.395004272,872,46.1624794006,57.053894043,-0.0,-0.0161582026631,0.0608981475234,0.989145934582,189,161,185,183,1,131072,178,270,50,66,92.5188903809,263.0,1189597184.0
1505403907241651302,8818,1505403907240925853,45.0,3,91,5,-17,98900,505,0.502078294754,-91.0464248657,0.0,-2.82999992371,-0.386000007391,-173.401000977,872,41.7150688171,70.7987365723,-0.0,-0.0216331128031,0.0785303488374,0.977611839771,186,160,189,182,1,131072,178,270,50,66,92.5188903809,263.0,1189602176.0
1505403907243762566,8819,1505403907243538230,45.0,3,91,5,-17,98900,505,0.500766396523,-91.0139846802,0.0,-2.79299998283,-0.379000008106,-173.367996216,871,37.6200447083,83.3636398315,-0.0,-0.0263997539878,0.0905124917626,0.992478132248,184,165,184,185,1,131072,171,270,50,66,92.5312805176,263.0,1189607552.0
1505403907248884462,8820,1505403907248651942,45.0,3,89,3,-17,98910,505,0.500449597836,-90.9920425415,0.0,-2.77600002289,-0.409999996424,-173.363998413,867,34.4797821045,83.1419906616,-0.0,-0.0351685024798,0.0342230536044,1.01242017746,184,164,186,189,1,131072,171,270,50,66,92.5312805176,263.0,1189612416.0
1505403907253942931,8821,1505403907253745626,45.0,3,89,3,-17,98910,505,0.499958395958,-90.9677124023,0.0,-2.74399995804,-0.418999999762,-173.311004639,866,31.6165466309,84.3429260254,-0.0,-0.0324332937598,0.0501222386956,1.02411973476,180,170,182,191,1,131072,171,270,50,66,92.5312805176,263.0,1189617536.0
1505403907258521602,8822,1505403907258322343,45.0,3,92,2,-20,98897,505,0.499506831169,-90.9371948242,0.0,-2.72499990463,-0.425000011921,-173.277999878,866,28.7655410767,85.3007202148,-0.0,-0.0421240851283,0.0459193214774,1.00209343433,178,172,179,194,1,131072,171,270,50,66,92.5312805176,263.0,1189622400.0
1505403907263582166,8823,1505403907263378679,45.0,3,92,2,-20,98897,505,0.498903423548,-90.9088897705,0.0,-2.69000005722,-0.444999992847,-173.242004395,865,26.2941665649,86.5125198364,-0.0,-0.038722846657,0.06051184237,0.989819526672,176,173,179,195,1,131072,171,270,50,66,92.5312805176,263.0,1189627264.0
1505403907273912057,8824,1505403907273722632,45.0,3,83,1,-21,98900,505,0.498296380043,-90.8732299805,0.0,-2.66000008583,-0.435000002384,-173.20300293,865,23.8572502136,87.5691833496,-0.0,-0.0464821793139,0.0605664439499,0.980731487274,176,175,176,195,1,131072,171,270,50,66,92.5312805176,263.0,1189632384.0
1505403907275148480,8825,1505403907274968634,45.0,3,83,1,-21,98897,505,0.497764259577,-90.838470459,0.0,-2.64700007439,-0.448000013828,-173.192001343,865,19.0292987823,90.9448242188,-0.0,-0.0361045561731,0.0370633043349,0.993982791901,178,171,179,194,1,131072,171,266,53,70,92.3680267334,249.0,1189637376.0
1505403907278909704,8826,1505403907278640651,45.0,3,89,5,-17,98919,505,0.497124940157,-90.8067932129,0.0,-2.63000011444,-0.451000005007,-173.17300415,864,14.7703466415,94.2347412109,-0.0,-0.032854154706,0.0484854206443,0.999105930328,179,170,180,192,1,131072,171,266,53,70,92.3680267334,249.0,1189642368.0
1505403907283751549,8827,1505403907283537230,45.0,3,89,5,-17,98922,505,0.49675193429,-90.7972183228,0.0,-2.63899993896,-0.444999992847,-173.177993774,864,13.1382074356,92.6485137939,-0.0,-0.0281417425722,0.0413701310754,0.99016046524,184,166,181,189,1,131072,171,266,53,70,92.3680267334,249.0,1189647488.0
1505403907290518629,8828,1505403907290297755,45.0,3,91,7,-17,98900,505,0.496003746986,-90.7910995483,0.0,-2.64899992943,-0.451999992132,-173.184997559,864,11.8508634567,92.199546814,-0.0,-0.020640194416,0.0787806659937,0.999544382095,187,162,184,187,1,131072,171,266,53,70,92.3680267334,249.0,1189652736.0
1505403907295657037,8829,1505403907295382268,45.0,3,91,7,-17,98900,505,0.495287925005,-90.7912063599,0.0,-2.65199995041,-0.423999994993,-173.190002441,863,10.8277368546,91.6314620972,-0.0,-0.0149926058948,0.0734762698412,0.995726644993,189,163,184,183,1,131072,171,266,53,70,92.3680267334,249.0,1189657600.0
1505403907299392975,8830,1505403907299124266,45.0,3,86,6,-18,98907,505,0.494490534067,-90.8033065796,0.0,-2.66300010681,-0.405999988317,-173.195999146,863,10.2253160477,91.2737960815,-0.0,-0.00276296818629,0.0798904672265,1.02563989162,190,161,185,183,1,131072,171,266,53,70,92.3680267334,249.0,1189662592.0
1505403907304027197,8831,1505403907303718412,45.0,3,86,6,-18,98900,505,0.493699401617,-90.8213348389,0.0,-2.64899992943,-0.377999991179,-173.180999756,863,9.90033149719,90.8943099976,-0.0,0.0042440732941,0.0772701054811,1.03182327747,188,165,184,183,1,131072,171,266,53,70,92.3680267334,249.0,1189667456.0
1505403907309017982,8832,1505403907308807906,45.0,3,97,1,-15,98903,505,0.492665588856,-90.8442306519,0.0,-2.63000011444,-0.351000010967,-173.175003052,862,10.2473325729,97.9890823364,-0.0,0.00772580318153,0.0624463222921,1.03465259075,187,166,183,183,1,131072,171,270,50,66,93.030456543,263.0,1189672576.0
1505403907314189282,8833,1505403907313962544,45.0,3,97,1,-15,98910,505,0.491611927748,-90.9013366699,0.0,-2.60400009155,-0.356000006199,-173.158996582,862,19.5572338104,106.541824341,-0.0,-0.00216925959103,0.052896823734,1.03347873688,183,166,184,185,1,131072,171,270,50,66,93.030456543,263.0,1189677696.0
1505403907320584516,8834,1505403907320354950,45.0,3,86,0,-16,98891,505,0.491007983685,-90.9525680542,0.0,-2.5680000782,-0.342000007629,-173.136001587,862,27.7434864044,113.14540863,-0.0,-0.00961900595576,0.00972163211554,1.0270447731,182,169,182,185,1,131072,171,270,50,66,93.030456543,263.0,1189682816.0
1505403907324585310,8835,1505403907324413733,45.0,3,86,0,-16,98891,505,0.490751773119,-90.9926834106,0.0,-2.55399990082,-0.354000002146,-173.119995117,862,34.7856254578,118.275680542,-0.0,-0.0220826361328,-0.022162579,1.03350937366,180,168,182,188,1,131072,171,270,50,66,93.030456543,263.0,1189687680.0
1505403907329104597,8836,1505403907328840199,45.0,3,92,2,-14,98885,505,0.491099208593,-91.0373764038,0.0,-2.55900001526,-0.347999989986,-173.083999634,863,41.1033325195,121.803367615,-0.0,-0.0214034859091,-0.0830071642995,1.03331387043,179,169,178,189,1,131072,171,270,50,66,93.030456543,263.0,1189692800.0
1505403907334144014,8837,1505403907333838349,45.0,3,92,2,-14,98885,505,0.49173784256,-91.0815124512,0.0,-2.58500003815,-0.340000003576,-173.072998047,863,46.7216453552,123.976020813,-0.0,-0.0238875802606,-0.109619282186,1.02450037003,180,168,178,189,1,131072,171,270,50,66,93.030456543,263.0,1189697792.0
1505403907344493081,8838,1505403907344271370,45.0,3,88,2,-18,98894,505,0.493017494678,-91.1103363037,0.0,-2.60500001907,-0.358999997377,-173.067001343,863,46.714050293,119.552680969,-0.0,-0.0202016886324,-0.144913956523,1.01499259472,181,165,181,187,1,131072,171,270,50,66,92.4570617676,263.0,1189702784.0
1505403907344498769,8839,1505403907344307748,45.0,3,88,2,-18,98891,505,0.494673252106,-91.1383514404,0.0,-2.62400007248,-0.363000005484,-173.07699585,863,46.5216751099,114.693572998,-0.0,-0.0258934367448,-0.183366850019,1.00155937672,184,163,184,183,1,131072,171,270,50,66,92.4570617676,263.0,1189707776.0
1505403907348921679,8840,1505403907348731257,45.0,3,87,5,-15,98881,505,0.495998203754,-91.1867675781,0.0,-2.62800002098,-0.404000014067,-173.100997925,863,50.8910293579,120.796607971,-0.0,-0.0244852174073,-0.203626215458,0.995932400227,185,158,190,180,1,131072,171,270,50,66,92.4570617676,263.0,1189712768.0
1505403907354693600,8841,1505403907354528741,45.0,3,87,5,-15,98885,505,0.498028337955,-91.2363052368,0.0,-2.61999988556,-0.432999998331,-173.113006592,863,54.6659622192,124.610961914,-0.0,-0.03014260903,-0.272465348244,0.990321576595,186,158,192,177,1,131072,171,270,50,66,92.4570617676,263.0,1189717888.0
1505403907359033805,8842,1505403907358831885,45.0,3,93,7,-17,98885,505,0.500239729881,-91.2897109985,0.0,-2.61599993706,-0.470999985933,-173.136001587,862,58.0784645081,127.739616394,-0.0,-0.026845946908,-0.28633326292,0.97542399168,187,156,194,176,1,131072,171,270,50,66,92.4570617676,263.0,1189722880.0
1505403907364122552,8843,1505403907363930402,45.0,3,93,7,-17,98885,505,0.503047525883,-91.3322982788,0.0,-2.58800005913,-0.522000014782,-173.143005371,862,60.731678009,129.138473511,-0.0,-0.0433061160147,-0.344211429358,0.968392550945,184,157,197,175,1,131072,171,270,50,66,92.4570617676,263.0,1189727872.0
1505403907374765457,8844,1505403907374534807,45.0,3,91,5,-15,98881,505,0.506623089314,-91.3418197632,0.0,-2.57299995422,-0.559000015259,-173.11000061,862,56.0252380371,119.679405212,-0.0,-0.0505448132753,-0.370362460613,0.947264492512,180,161,191,180,1,131072,171,270,50,66,92.4570617676,263.0,1189732992.0
1505403907374771588,8845,1505403907374567201,45.0,3,91,5,-15,98878,505,0.510784506798,-91.3570404053,0.0,-2.57399988174,-0.610000014305,-173.055999756,862,51.6728401184,109.682495117,-0.0,-0.05551770702,-0.433053046465,0.950669527054,173,166,185,187,1,131072,171,270,53,70,92.4681243896,249.0,1189737984.0
1505403907379261023,8846,1505403907379054950,45.0,3,90,2,-20,98891,505,0.515578687191,-91.3842086792,0.0,-2.60800004005,-0.643000006676,-172.947006226,862,47.7562904358,99.059928894,-0.0,-0.0586191043258,-0.501651108265,0.953779637814,165,176,173,198,1,131072,171,270,53,70,92.4681243896,249.0,1189742976.0
1505403907385930193,8847,1505403907385667671,45.0,3,90,2,-20,98891,505,0.521293640137,-91.4155349731,0.0,-2.72699999809,-0.653999984264,-172.843994141,862,38.1620368958,76.4427871704,-0.0,-0.0372616164386,-0.536978960037,0.967560350895,162,181,160,208,1,131072,171,270,53,70,92.4681243896,249.0,1189748096.0
1505403907389350233,8848,1505403907389210493,45.0,3,87,5,-19,98913,505,0.527310729027,-91.4499588013,0.0,-2.83899998665,-0.671000003815,-172.764007568,862,29.3778152466,55.4335899353,-0.0,-0.0409084483981,-0.572920143604,0.98306196928,160,183,159,210,1,131072,171,270,53,70,92.4681243896,249.0,1189753088.0
1505403907398533662,8849,1505403907398246073,45.0,3,87,5,-19,98910,505,0.533005595207,-91.4964447021,0.0,-3.00600004196,-0.657999992371,-172.682998657,862,21.8020610809,37.4632720947,-0.0,-0.0274471864104,-0.545455098152,0.996878862381,164,182,153,212,1,131072,171,270,53,70,92.4681243896,249.0,1189758080.0
1505403907399743305,8850,1505403907399491731,45.0,3,91,5,-25,98903,505,0.538292467594,-91.5268478394,0.0,-3.125,-0.662000000477,-172.686004639,862,14.8494577408,22.5549373627,-0.0,-0.0302104465663,-0.503706991673,1.0121999979,170,174,164,203,1,131072,171,270,53,70,92.4681243896,249.0,1189763072.0
1505403907407728726,8851,1505403907407539707,45.0,3,91,5,-25,98903,505,0.543038249016,-91.5587539673,0.0,-3.20900011063,-0.669000029564,-172.690002441,862,8.73645782471,10.5548324585,-0.0,-0.0246856622398,-0.452495664358,1.02248561382,177,167,173,194,1,131072,178,279,53,70,92.3067474365,249.0,1189768064.0
1505403907409638452,8852,1505403907409452609,45.0,3,87,5,-17,98907,505,0.546527922153,-91.6098861694,0.0,-3.29800009727,-0.65600001812,-172.76600647,864,10.0125265121,12.571855545,-0.0,-0.0158727131784,-0.377403199673,1.02605307102,190,155,182,181,1,131072,178,279,53,70,92.3067474365,249.0,1189773312.0
1505403907414441434,8853,1505403907414244984,45.0,3,87,5,-17,98913,505,0.548429369926,-91.658706665,0.0,-3.29699993134,-0.671000003815,-172.85899353,864,14.1062049866,35.5517272949,-0.0,-0.0166415628046,-0.311031728983,1.03206193447,197,145,199,167,1,131072,178,279,53,70,92.3067474365,249.0,1189778304.0
1505403907420252513,8854,1505403907419659225,45.0,3,87,7,-19,98891,505,0.549775660038,-91.7091217041,0.0,-3.33699989319,-0.634999990463,-172.899002075,865,17.8987922668,57.8858680725,-0.0,-0.0131290191785,-0.244943082333,1.02628588676,204,143,195,165,1,131072,178,279,53,70,92.3067474365,249.0,1189783296.0
1505403907426208314,8855,1505403907425830724,45.0,3,87,7,-19,98891,505,0.550516843796,-91.7507781982,0.0,-3.3220000267,-0.616999983788,-172.949005127,865,21.1795520782,79.6991424561,-0.0,-0.0173066686839,-0.1731120646,1.02430427074,201,144,198,163,1,131072,178,279,53,70,92.3067474365,249.0,1189788160.0
1505403907431122214,8856,1505403907430891960,45.0,3,85,9,-17,98888,505,0.550909042358,-91.7853012085,0.0,-3.30200004578,-0.59399998188,-172.904998779,865,24.3409976959,100.268959045,-0.0,-0.0135897863656,-0.131306529045,1.0329400301,192,153,189,172,1,131072,178,279,53,70,92.3067474365,249.0,1189793152.0
1505403907434633227,8857,1505403907434416671,45.0,3,85,9,-17,98888,505,0.551324665546,-91.795211792,0.0,-3.29200005531,-0.564999997616,-172.87600708,865,23.4275054932,110.667320251,-0.0,-0.0206345878541,-0.0801630616188,1.03048598766,186,160,180,180,1,131072,178,279,53,70,92.3067474365,249.0,1189798272.0
1505403907440612209,8858,1505403907440314664,45.0,3,88,2,-14,98907,505,0.551621615887,-91.8097457886,0.0,-3.24099993706,-0.586000025272,-172.832000732,865,22.7848930359,120.239730835,-0.0,-0.0128438845277,-0.0674813613296,1.05434918404,176,165,179,186,1,131072,181,283,56,75,92.4101638794,236.0,1189803264.0
1505403907444595361,8859,1505403907444376873,45.0,3,88,2,-14,98903,505,0.551484763622,-91.8473358154,0.0,-3.21000003815,-0.572000026703,-172.761993408,865,30.5935173035,130.835357666,-0.0,-0.0181252248585,-0.028849830851,1.04278790951,173,171,170,192,1,131072,181,283,56,75,92.4101638794,236.0,1189808256.0
1505403907450922858,8860,1505403907450747615,45.0,3,86,0,-18,98888,505,0.551255762577,-91.8877716064,0.0,-3.16199994087,-0.587999999523,-172.729003906,863,37.6882476807,139.908447266,-0.0,-0.0155941126868,-0.0181410051882,1.03621840477,170,172,172,194,1,131072,181,283,56,75,92.4101638794,236.0,1189813632.0
1505403907455109994,8861,1505403907454947254,45.0,3,86,0,-18,98888,505,0.550607442856,-91.9113082886,0.0,-3.11500000954,-0.592999994755,-172.660995483,863,43.9423446655,149.690673828,-0.0,-0.0194241851568,0.0260484404862,1.01466441154,168,175,169,196,1,131072,181,283,56,75,92.4101638794,236.0,1189818752.0
1505403907459864892,8862,1505403907459503227,45.0,3,89,3,-19,98897,505,0.549717366695,-91.9307937622,0.0,-3.0759999752,-0.588999986649,-172.632003784,863,49.3464546204,159.125808716,-0.0,-0.0244560353458,0.0532473437488,0.99603420496,170,174,168,195,1,131072,181,283,56,75,92.4101638794,236.0,1189823488.0
1505403907464675109,8863,1505403907464423732,45.0,3,89,3,-19,98900,505,0.548779428005,-91.9434890747,0.0,-3.00999999046,-0.626999974251,-172.608001709,863,54.0025978088,167.668930054,-0.0,-0.0299786087126,0.0595388412476,1.0019159317,169,171,175,193,1,131072,181,283,56,75,92.4101638794,236.0,1189828352.0
1505403907475162078,8864,1505403907474918171,45.0,3,90,0,-18,98888,505,0.547856271267,-91.9201278687,0.0,-2.96499991417,-0.630999982357,-172.580001831,863,52.5521125793,176.117370605,-0.0,-0.0405474118888,0.0569707378745,0.992062151432,173,170,174,191,1,131072,187,283,53,70,92.0905914307,249.0,1189833472.0
1505403907475171401,8865,1505403907474955885,45.0,3,90,0,-18,98881,505,0.547121822834,-91.9058380127,0.0,-2.92300009727,-0.670000016689,-172.57699585,864,51.1824188232,183.227401733,-0.0,-0.0380455218256,0.0385132804513,0.988972604275,174,165,179,189,1,131072,187,283,53,70,92.0905914307,249.0,1189838464.0
1505403907479706331,8866,1505403907479467935,45.0,3,90,0,-12,98872,505,0.546304821968,-91.8773040771,0.0,-2.87700009346,-0.694000005722,-172.548995972,864,49.750213623,189.317306519,-0.0,-0.0481829345226,0.0505721084774,0.958172857761,175,165,179,188,1,131072,187,283,53,70,92.0905914307,249.0,1189843456.0
1505403907489143658,8867,1505403907488943037,45.0,3,90,0,-12,98872,505,0.545484662056,-91.8587341309,0.0,-2.84100008011,-0.712999999523,-172.54699707,864,48.5083465576,194.789276123,-0.0,-0.0422808565199,0.0514156930149,0.942248523235,178,163,179,186,1,131072,187,283,53,70,92.0905914307,249.0,1189848704.0
1505403907492089313,8868,1505403907491878507,45.0,3,82,6,-14,98888,505,0.544486045837,-91.8352203369,0.0,-2.78800010681,-0.753000020981,-172.541000366,865,47.236038208,200.268737793,-0.0,-0.0451913997531,0.0705054700375,0.942936420441,177,160,183,184,1,131072,187,283,53,70,92.0905914307,249.0,1189854080.0
1505403907495181197,8869,1505403907494953922,45.0,3,82,6,-14,98891,505,0.543482661247,-91.8246078491,0.0,-2.73699998856,-0.763000011444,-172.531997681,865,46.509513855,204.938186646,-0.0,-0.0307048391551,0.0700735971332,0.960484266281,179,161,182,182,1,131072,187,283,53,70,92.0905914307,249.0,1189858944.0
1505403907499993494,8870,1505403907499722651,45.0,3,92,6,-16,98928,505,0.542463183403,-91.8135452271,0.0,-2.68899989128,-0.792999982834,-172.526992798,865,44.2178764343,210.264968872,-0.0,-0.0240231435746,0.0656382665038,0.974164068699,179,160,183,183,1,131072,187,283,53,70,92.0905914307,249.0,1189863680.0
1505403907507808116,8871,1505403907507652610,45.0,3,92,6,-16,98928,505,0.541352927685,-91.8053131104,0.0,-2.63499999046,-0.808000028133,-172.49899292,865,42.4183158875,215.175094604,-0.0,-0.0164501722902,0.0745418965816,0.980528771877,177,163,181,183,1,131072,190,287,50,66,92.7152938843,263.0,1189868672.0
1505403907510000639,8872,1505403907509783324,45.0,3,91,1,-19,98916,505,0.540137648582,-91.7998657227,0.0,-2.57399988174,-0.810000002384,-172.486999512,865,40.1015396118,220.030899048,-0.0,-0.0123310023919,0.0851259157062,0.963267982006,177,164,180,183,1,131072,190,287,50,66,92.7152938843,263.0,1189873792.0
1505403907515228544,8873,1505403907515102078,45.0,3,91,1,-19,98916,505,0.538963973522,-91.782951355,0.0,-2.4960000515,-0.832000017166,-172.466003418,866,37.7178268433,224.204101562,-0.0,-0.0245002303272,0.082083389163,0.968755662441,174,164,182,183,1,131072,190,287,50,66,92.7152938843,263.0,1189878784.0
1505403907523769327,8874,1505403907523541885,45.0,3,90,4,-16,98888,505,0.537829041481,-91.774269104,0.0,-2.41700005531,-0.825999975204,-172.466995239,866,35.5842170715,227.796936035,-0.0,-0.0214903373271,0.0786734297872,0.962184607983,177,164,182,180,1,131072,190,287,50,66,92.7152938843,263.0,1189883776.0
1505403907524952317,8875,1505403907524800365,45.0,3,90,4,-16,98885,505,0.536883950233,-91.7603149414,0.0,-2.33599996567,-0.847999989986,-172.462005615,866,33.4566612244,230.460449219,-0.0,-0.0292674563825,0.059747941792,0.972524285316,176,162,185,180,1,131072,190,287,50,66,92.7152938843,263.0,1189888768.0
1505403907531231774,8876,1505403907531020009,45.0,3,89,9,-13,98856,505,0.536041617393,-91.7454147339,0.0,-2.26399993896,-0.865000009537,-172.447006226,867,31.4481925964,232.739654541,-0.0,-0.0306522678584,0.0494385994971,0.964174032211,176,162,184,180,1,131072,190,287,50,66,92.7152938843,263.0,1189893888.0
1505403907541787579,8877,1505403907541302369,45.0,3,89,9,-13,98860,505,0.535215616226,-91.7469329834,0.0,-2.20199990273,-0.864000022411,-172.43800354,868,34.1254920959,235.745101929,-0.0,-0.0366068296134,0.0400045663118,0.948977768421,176,163,182,179,1,131072,206,295,50,66,92.071182251,263.0,1189898880.0
1505403907541793470,8878,1505403907541383246,45.0,3,89,7,-17,98891,505,0.534448742867,-91.7375106812,0.0,-2.15100002289,-0.889999985695,-172.406005859,868,36.4022979736,238.254226685,-0.0,-0.0436188131571,0.0353082641959,0.947920024395,173,163,181,183,1,131072,206,295,50,66,92.071182251,263.0,1189903872.0
1505403907544984165,8879,1505403907544787504,45.0,3,89,7,-17,98891,505,0.533780992031,-91.7240066528,0.0,-2.11899995804,-0.876999974251,-172.378997803,868,37.7346725464,239.138885498,-0.0,-0.0449925735593,0.0326589010656,0.93607288599,174,166,176,184,1,131072,206,295,50,66,92.071182251,263.0,1189908864.0
1505403907550974873,8880,1505403907550821003,45.0,3,93,7,-17,98913,505,0.533125936985,-91.7126846313,0.0,-2.09299993515,-0.899999976158,-172.356002808,868,38.9137535095,239.868179321,-0.0,-0.0429468527436,0.0315012261271,0.948357760906,172,164,178,186,1,131072,206,295,50,66,92.071182251,263.0,1189913984.0
1505403907555108890,8881,1505403907554961612,45.0,3,93,7,-17,98916,505,0.532409667969,-91.7042312622,0.0,-2.06999993324,-0.919000029564,-172.322006226,869,40.1626815796,240.628417969,-0.0,-0.0364446863532,0.037425223738,0.936875104904,172,165,176,187,1,131072,206,295,50,66,92.071182251,263.0,1189918848.0
1505403907560441753,8882,1505403907560087164,45.0,3,89,5,-11,98910,505,0.531461417675,-91.6885604858,0.0,-2.04099988937,-0.931999981403,-172.305999756,869,39.0876350403,245.621444702,-0.0,-0.0334153659642,0.0417981222272,0.935076415539,172,165,177,186,1,131072,206,295,50,66,92.071182251,263.0,1189923968.0
1505403907565271548,8883,1505403907565074279,45.0,3,89,5,-11,98910,505,0.53044128418,-91.6776733398,0.0,-2.00900006294,-0.962000012398,-172.296005249,869,38.1639785767,250.285736084,-0.0,-0.0289665777236,0.0509551279247,0.929594993591,173,163,179,185,1,131072,215,300,50,66,92.9248657227,263.0,1189928960.0
1505403907573911238,8884,1505403907573713313,45.0,3,90,4,-20,98900,505,0.529352009296,-91.6650924683,0.0,-1.97599995136,-0.957000017166,-172.285003662,876,36.7256584167,255.925384521,-0.0,-0.0300700534135,0.0603111162782,0.934653580189,173,161,176,179,1,131072,215,300,50,66,92.9248657227,263.0,1189934208.0
1505403907577096879,8885,1505403907576861438,45.0,3,90,4,-20,98900,505,0.528427064419,-91.6541976929,0.0,-1.94299995899,-0.967999994755,-172.304992676,876,33.3223762512,254.978408813,-0.0,-0.02480590716,0.0701274573803,0.945875525475,176,156,181,176,1,131072,215,300,50,66,92.9248657227,263.0,1189939200.0
1505403907581410728,8886,1505403907581132531,45.0,3,85,7,-13,98919,505,0.52745193243,-91.6436309814,0.0,-1.9129999876,-0.967999994755,-172.29699707,877,30.5474510193,254.142242432,-0.0,-0.0191361438483,0.0733380541205,0.954763948917,177,156,180,175,1,131072,215,300,50,66,92.9248657227,263.0,1189944448.0
1505403907585686200,8887,1505403907585477667,45.0,3,85,7,-13,98913,505,0.52641493082,-91.6422805786,0.0,-1.88499999046,-0.958000004292,-172.31300354,877,28.0694885254,253.494216919,-0.0,-0.0151649070904,0.078998439014,0.954456746578,180,155,181,173,1,131072,215,300,50,66,92.9248657227,263.0,1189949184.0
1505403907590577480,8888,1505403907590413444,45.0,3,89,5,-15,98894,505,0.525470852852,-91.6426773071,0.0,-1.85699999332,-0.961000025272,-172.304000854,878,26.0281124115,252.581283569,-0.0,-0.0107701066881,0.0677296072245,0.957271933556,178,155,182,174,1,131072,215,300,50,66,92.9248657227,263.0,1189954176.0
1505403907595886031,8889,1505403907595167585,45.0,3,89,5,-15,98894,505,0.524623394012,-91.6265869141,0.0,-1.8409999609,-0.945999979973,-172.270004272,878,24.0157222748,251.494476318,-0.0,-0.0245885066688,0.0579807572067,0.955210745335,176,159,176,178,1,131072,215,300,50,66,92.9248657227,263.0,1189959168.0
1505403907607669754,8890,1505403907607444739,45.0,3,84,0,-16,98881,505,0.523873806,-91.6316452026,0.0,-1.81500005722,-0.944999992847,-172.255996704,879,25.6348514557,248.71395874,-0.0,-0.0259983241558,0.0545812807977,0.959334850311,173,160,176,179,1,131072,225,304,53,70,92.2696228027,249.0,1189964416.0
1505403907607673877,8891,1505403907607476862,45.0,3,84,0,-16,98888,505,0.52326208353,-91.6172409058,0.0,-1.79499995708,-0.944999992847,-172.197998047,879,26.9755134583,245.809631348,-0.0,-0.0385940782726,0.0401338562369,0.962456345558,169,164,172,184,1,131072,225,304,53,70,92.2696228027,249.0,1189969152.0
1505403907610852936,8892,1505403907610679226,45.0,3,91,3,-19,98894,505,0.522315680981,-91.607711792,0.0,-1.77199995518,-0.941999971867,-172.17199707,872,31.1012325287,247.676925659,-0.0,-0.0463943108916,0.0453018993139,0.94443500042,171,169,174,188,1,131072,225,304,53,70,92.2696228027,249.0,1189974400.0
1505403907615933379,8893,1505403907615732680,45.0,3,91,3,-19,98891,505,0.521438837051,-91.5985488892,0.0,-1.74300003052,-0.954999983311,-172.141998291,872,34.169216156,250.437820435,-0.0,-0.0446574091911,0.0395747572184,0.942666709423,170,168,175,188,1,131072,225,304,53,70,92.2696228027,249.0,1189979520.0
1505403907621908638,8894,1505403907621696785,45.0,3,87,7,-19,98903,505,0.520471155643,-91.5704650879,0.0,-1.71800005436,-0.958000004292,-172.104003906,872,36.6130104065,253.177627563,-0.0,-0.0591495521367,0.051905117929,0.915514647961,169,169,174,188,1,131072,225,304,53,70,92.2696228027,249.0,1189984256.0
1505403907626179016,8895,1505403907625957042,45.0,3,87,7,-19,98900,505,0.519440293312,-91.5577697754,0.0,-1.67900002003,-0.978999972343,-172.106994629,873,38.8380737305,255.780609131,-0.0,-0.0494257435203,0.0592145398259,0.919204950333,171,165,178,185,1,131072,225,304,53,70,92.2696228027,249.0,1189989888.0
1505403907630647985,8896,1505403907630376972,45.0,3,91,1,-19,98907,505,0.518359899521,-91.5304870605,0.0,-1.64100003242,-0.990999996662,-172.098007202,873,38.1948890686,258.255340576,-0.0,-0.0469052903354,0.0662574544549,0.920014977455,174,163,180,182,1,131072,225,304,53,70,92.2696228027,249.0,1189994368.0
1505403907641322338,8897,1505403907641044385,45.0,3,91,1,-19,98910,505,0.517178475857,-91.5234451294,0.0,-1.60300004482,-1.00800001621,-172.119003296,873,37.832901001,260.708557129,-0.0,-0.0317560210824,0.0770626217127,0.92827039957,178,159,184,178,1,131072,234,308,53,70,92.100402832,249.0,1189999360.0
1505403907641326661,8898,1505403907641081256,45.0,3,90,10,-20,98897,505,0.516247093678,-91.5174331665,0.0,-1.56799995899,-1.01499998569,-172.141998291,873,34.5754356384,259.807678223,-0.0,-0.0194966923445,0.0657384991646,0.949757993221,182,156,188,174,1,131072,234,308,53,70,92.100402832,249.0,1190004352.0
1505403907647153598,8899,1505403907646923917,45.0,3,90,10,-20,98900,505,0.515142321587,-91.5126495361,0.0,-1.53699994087,-1.01499998569,-172.145004272,874,31.9048366547,259.34173584,-0.0,-0.0130953993648,0.0820658281446,0.947019577026,183,155,187,173,1,131072,234,308,53,70,92.100402832,249.0,1190009472.0
1505403907655108858,8900,1505403907654954527,45.0,3,86,0,-18,98903,505,0.514212369919,-91.5151977539,0.0,-1.50499999523,-1.01999998093,-172.156997681,870,29.8809299469,257.854705811,-0.0,-0.0112054692581,0.0632273256779,0.964237987995,184,157,189,175,1,131072,240,312,50,66,94.6629867554,263.0,1190015104.0
1505403907656347633,8901,1505403907656207669,45.0,3,86,0,-18,98903,505,0.513218641281,-91.5091552734,0.0,-1.47800004482,-1.00899994373,-172.134002686,870,27.8468818665,257.133392334,-0.0,-0.01283929497,0.0689239278436,0.96570622921,182,160,185,177,1,131072,240,312,50,66,94.6629867554,263.0,1190019712.0
1505403907660948110,8902,1505403907660720021,45.0,3,91,3,-15,98907,505,0.512333452702,-91.5014724731,0.0,-1.45500004292,-1.02100002766,-172.113998413,871,25.8434753418,256.180786133,-0.0,-0.0181000586599,0.0578036271036,0.980921089649,178,162,183,181,1,131072,240,312,50,66,94.6629867554,263.0,1190024576.0
1505403907666567962,8903,1505403907666387078,45.0,3,91,3,-15,98907,505,0.511620104313,-91.4994659424,0.0,-1.42599999905,-1.02100002766,-172.085006714,871,26.0141487122,254.08656311,-0.0,-0.0234391372651,0.0435826741159,0.985926687717,175,165,181,183,1,131072,240,312,50,66,94.6629867554,263.0,1190029568.0
1505403907674675991,8904,1505403907674442925,45.0,3,91,9,-11,98897,505,0.510885953903,-91.4829483032,0.0,-1.41100001335,-1.0340000391,-172.039001465,871,25.955532074,252.246841431,-0.0,-0.0341668464243,0.0462208390236,0.982562065125,172,167,177,188,1,131072,240,312,50,66,94.6629867554,263.0,1190034560.0
1505403907676716650,8905,1505403907676482316,45.0,3,91,9,-11,98894,505,0.510167777538,-91.4708251953,0.0,-1.39499998093,-1.05599999428,-172.0,871,28.6138210297,251.345199585,-0.0,-0.0459958091378,0.0393656753004,0.968947172165,169,169,176,190,1,131072,240,312,50,66,94.6629867554,263.0,1190039552.0
1505403907684127626,8906,1505403907683940305,45.0,3,88,10,-20,98894,505,0.50922614336,-91.4535293579,0.0,-1.37300002575,-1.07000005245,-171.957992554,871,31.032907486,251.06237793,-0.0,-0.0452264398336,0.0625200048089,0.958617866039,168,170,174,190,1,131072,240,312,50,66,94.6629867554,263.0,1190044672.0
1505403907688461694,8907,1505403907688187646,45.0,3,88,10,-20,98891,505,0.508351504803,-91.4310836792,0.0,-1.35599994659,-1.10599994659,-171.92199707,872,32.9660339355,250.628875732,-0.0,-0.0516123250127,0.0560989938676,0.951603889465,167,169,175,192,1,131072,240,312,50,66,94.6629867554,263.0,1190049664.0
1505403907692963914,8908,1505403907692764527,45.0,3,90,2,-18,98888,505,0.507344603539,-91.418296814,0.0,-1.33299994469,-1.125,-171.901000977,868,35.2537689209,250.081512451,-0.0,-0.0416146218777,0.0688483566046,0.947284519672,170,170,177,190,1,131072,240,312,50,66,94.6629867554,263.0,1190054784.0
1505403907696039381,8909,1505403907695890997,45.0,3,90,2,-18,98891,505,0.506444633007,-91.3956298828,0.0,-1.30400002003,-1.15799999237,-171.895996094,869,33.8577270508,248.490188599,-0.0,-0.0410725362599,0.0662453100085,0.947016596794,172,166,181,187,1,131072,246,316,50,66,92.8253631592,263.0,1190059776.0
1505403907701456984,8910,1505403907701260521,45.0,3,86,6,-18,98900,505,0.505699217319,-91.3758010864,0.0,-1.27199995518,-1.19200003147,-171.902999878,869,32.46616745,246.619064331,-0.0,-0.0432799234986,0.0497969612479,0.937412142754,175,162,185,183,1,131072,246,316,50,66,92.8253631592,263.0,1190065024.0
1505403907707618263,8911,1505403907707298864,45.0,3,86,6,-18,98900,505,0.504686951637,-91.3344116211,0.0,-1.21899998188,-1.21300005913,-171.921005249,869,26.8632011414,249.785583496,-0.0,-0.0430379807949,0.0548091642559,0.939769983292,179,160,190,178,1,131072,246,316,50,66,92.8253631592,263.0,1190069760.0
1505403907713858746,8912,1505403907713638717,45.0,3,87,3,-17,98913,505,0.503848791122,-91.2987518311,0.0,-1.15999996662,-1.24399995804,-171.930999756,869,21.8846035004,252.130966187,-0.0,-0.0407610349357,0.0377059057355,0.940692126751,179,158,192,176,1,131072,246,316,50,66,92.8253631592,263.0,1190074880.0
1505403907717398760,8913,1505403907717115151,45.0,3,87,3,-17,98910,505,0.503051221371,-91.2699661255,0.0,-1.10399997234,-1.2539999485,-171.921005249,869,17.6977958679,254.073944092,-0.0,-0.0326415784657,0.0339182913303,0.957264602184,179,160,190,176,1,131072,246,316,50,66,92.8253631592,263.0,1190080256.0
1505403907721615548,8914,1505403907721438743,45.0,3,86,6,-16,98907,505,0.502516686916,-91.2486038208,0.0,-1.06700003147,-1.25199997425,-171.901000977,869,14.0680379868,255.132125854,-0.0,-0.0291877742857,0.00740180071443,0.974205493927,178,163,186,179,1,131072,246,316,50,66,92.8253631592,263.0,1190084864.0
1505403907726564316,8915,1505403907726401392,45.0,3,86,6,-16,98907,505,0.502307593822,-91.2382354736,0.0,-1.04999995232,-1.25199997425,-171.854995728,869,11.1300001144,255.250106812,-0.0,-0.020458035171,-0.0260290503502,0.990513145924,174,167,181,184,1,131072,246,316,50,66,92.8253631592,263.0,1190090112.0
1505403907731790964,8916,1505403907731552336,45.0,3,86,2,-16,98900,505,0.502729356289,-91.2281265259,0.0,-1.05099999905,-1.23399996758,-171.824005127,867,6.48713922501,248.244033813,-0.0,-0.0230794586241,-0.0591017045081,1.0004837513,174,169,179,186,1,131072,256,320,50,66,92.3905639648,263.0,1190095104.0
