%time,field.header.seq,field.header.stamp,field.header.frame_id,field.pose.position.x,field.pose.position.y,field.pose.position.z,field.pose.orientation.x,field.pose.orientation.y,field.pose.orientation.z,field.pose.orientation.w
1505403906767730177,4927,1505403906767420873,0.0269480273128,0.982871115208,0.0532565414906,0.012141126208,0.00455825682729,-0.0073847444728,0.999888598919
1505403906767742086,4928,1505403906767463027,0.0274027511477,0.982161462307,0.0547774843872,0.0109349610284,0.00423856638372,-0.00784828141332,0.999900400639
1505403906776833394,4929,1505403906776682835,0.0279483217746,0.981432378292,0.0554255880415,0.0107741588727,0.00440026307479,-0.0074675232172,0.999904334545
1505403906797271950,4930,1505403906797104214,0.0284092817456,0.980678677559,0.0566100627184,0.00987405143678,0.0044235647656,-0.00774471228942,0.999911427498
1505403906797278639,4931,1505403906797138106,0.0288861431181,0.979860246181,0.0577724277973,0.00921800080687,0.00442805094644,-0.00798789318651,0.999915838242
1505403906807638151,4932,1505403906807486876,0.0294426977634,0.979041695595,0.0582549870014,0.00903147645295,0.00350898271427,-0.00797624047846,0.999921262264
1505403906827060258,4933,1505403906826898881,0.029801633209,0.978340029716,0.0597442351282,0.00819464214146,0.00300351902843,-0.00873382762074,0.999923825264
1505403906827063260,4934,1505403906826931905,0.030305845663,0.977543830872,0.0605435296893,0.00855410378426,0.0038837029133,-0.0083819841966,0.999920725822
1505403906837311279,4935,1505403906837140005,0.0308102015406,0.976803779602,0.0614813454449,0.00838643498719,0.00424433127046,-0.00834823865443,0.999920964241
1505403906857763043,4936,1505403906857577883,0.0311926752329,0.976092398167,0.062669634819,0.00795435719192,0.00377662153915,-0.009008012712,0.999920725822
1505403906857766993,4937,1505403906857602796,0.0315942056477,0.975471735001,0.0632496699691,0.00857681501657,0.00323753501289,-0.00950563233346,0.999912798405
1505403906866925256,4938,1505403906866790540,0.0319733656943,0.974824905396,0.0643106102943,0.00809128861874,0.00244975835085,-0.0103065641597,0.999911189079
1505403906887335633,4939,1505403906887172945,0.0323817692697,0.974137187004,0.065387122333,0.0080033345148,0.00234629679471,-0.0106920078397,0.999908089638
1505403906887340528,4940,1505403906887207699,0.0328579172492,0.97346585989,0.0661881789565,0.00880056619644,0.00314022577368,-0.0107138976455,0.999898910522
1505403906897516194,4941,1505403906897388211,0.0331976152956,0.972830355167,0.0670545697212,0.0090923961252,0.0031331544742,-0.0113992560655,0.999888837337
1505403906916929422,4942,1505403906916770858,0.0336206480861,0.97209829092,0.0681958720088,0.00959456618875,0.00327627663501,-0.0114173348993,0.999883413315
1505403906916936900,4943,1505403906916798304,0.0340383797884,0.971425235271,0.0686752647161,0.0106560969725,0.00310690398328,-0.011398371309,0.999873399734
1505403906927150627,4944,1505403906927029937,0.0344256199896,0.970789432526,0.0696764439344,0.0109587600455,0.00254710065201,-0.0118271149695,0.999866783619
1505403906937400643,4945,1505403906937268363,0.034861035645,0.970090091228,0.0706324726343,0.0113776167855,0.00231940555386,-0.0118000460789,0.999862968922
1505403906947639977,4946,1505403906947509002,0.0353040471673,0.969305038452,0.0713012441993,0.0116769177839,0.00206622900441,-0.0118703451008,0.999859213829
1505403906956845975,4947,1505403906956684045,0.0356363318861,0.96863502264,0.0725381970406,0.0113914040849,0.00257718632929,-0.0121147623286,0.999858379364
1505403906967111216,4948,1505403906966959335,0.0361216291785,0.967929363251,0.0732604563236,0.0118376323953,0.00282763387077,-0.0117085399106,0.99985742569
1505403906977311664,4949,1505403906977166474,0.0365448631346,0.967257916927,0.0741737857461,0.0115789808333,0.00249281246215,-0.0119501892477,0.999858438969
1505403906987536539,4950,1505403906987356491,0.0368616804481,0.966582238674,0.0751959532499,0.0117039568722,0.00189154257532,-0.0122950486839,0.99985408783
1505403906997791364,4951,1505403906997612938,0.0372969247401,0.965879380703,0.0758476629853,0.0117210671306,0.000934257230256,-0.0125105241314,0.999852597713
1505403907007023981,4952,1505403907006835352,0.0376199781895,0.965158164501,0.0770137608051,0.011089399457,0.000699151365552,-0.0128844445571,0.999855279922
1505403907017210979,4953,1505403907017054241,0.0380476228893,0.964598476887,0.0778614133596,0.0109177110717,0.00109488540329,-0.0128278806806,0.999857485294
1505403907027512876,4954,1505403907027323311,0.0384923815727,0.963958799839,0.0787890180945,0.010648063384,0.00111640582327,-0.012718484737,0.999861836433
1505403907037826022,4955,1505403907037582087,0.0388453640044,0.963292717934,0.0798574388027,0.0100259901956,0.0011148522608,-0.0129970638081,0.999864697456
1505403907047038396,4956,1505403907046810350,0.0393524728715,0.962642371655,0.0807351619005,0.0102286133915,0.000770276761614,-0.0127520803362,0.999866127968
1505403907057410642,4957,1505403907057109454,0.0397813245654,0.961950957775,0.0815242379904,0.00976662430912,0.00029540565447,-0.0126466657966,0.999872326851
1505403907067799151,4958,1505403907067334612,0.0401706807315,0.961188673973,0.0825128927827,0.00927504524589,0.000109595930553,-0.0127092581242,0.999876201153
1505403907076976280,4959,1505403907076855169,0.0405892953277,0.960412502289,0.0835365280509,0.00889143161476,8.00510024419e-05,-0.0126964282244,0.999879896641
1505403907087370267,4960,1505403907087258635,0.0410203412175,0.959635555744,0.0842595100403,0.00829478725791,0.000377168238629,-0.0123256826773,0.999889552593
1505403907097689614,4961,1505403907097535017,0.0414869375527,0.958882749081,0.0855623632669,0.0074600270018,0.00042151575326,-0.0120155885816,0.999899923801
1505403907106993566,4962,1505403907106805355,0.0419570244849,0.958169281483,0.0862102434039,0.00724037736654,5.56212980882e-05,-0.011755601503,0.999904692173
1505403907117165354,4963,1505403907117030540,0.0423892699182,0.957363784313,0.0871288105845,0.00683625927195,-0.000221489259275,-0.0116965249181,0.999908208847
1505403907127459807,4964,1505403907127330053,0.042790196836,0.956666767597,0.0883300602436,0.00607560155913,-0.000468588114018,-0.0119527159259,0.999910056591
1505403907137821589,4965,1505403907137567481,0.0431958958507,0.955915987492,0.0886915549636,0.00603918544948,-0.00078797590686,-0.0119283404201,0.99991029501
1505403907147036686,4966,1505403907146837795,0.0435780733824,0.955211758614,0.0899937227368,0.0047664954327,-0.000737917493097,-0.0123580247164,0.999912083149
1505403907157234157,4967,1505403907157083787,0.0440581813455,0.954425513744,0.0908388346434,0.00418139249086,-0.000671725312714,-0.0120318597183,0.999918699265
1505403907167514947,4968,1505403907167356593,0.0444731079042,0.953738808632,0.0914642289281,0.00314181880094,-0.000883242464624,-0.012239526026,0.999919831753
1505403907177726936,4969,1505403907177552235,0.0448756106198,0.953081667423,0.0927454829216,0.00226375134662,-0.00163058540784,-0.0125143704936,0.999917805195
1505403907186947729,4970,1505403907186805777,0.0453322418034,0.952475488186,0.0931145846844,0.00198235898279,-0.00238828198053,-0.0124560501426,0.999917566776
1505403907197203480,4971,1505403907197020496,0.0456880144775,0.951907157898,0.0940559878945,0.00143894250505,-0.00199021608569,-0.0129237389192,0.999913454056
1505403907207536670,4972,1505403907207310241,0.0460180267692,0.951472520828,0.095140054822,0.00109039491508,-0.00130493671168,-0.0134646557271,0.999907851219
1505403907217806118,4973,1505403907217570103,0.0464828424156,0.951011538506,0.0955468937755,0.00076539121801,-0.0010948049603,-0.0135898562148,0.999906778336
1505403907226978809,4974,1505403907226827361,0.0468146391213,0.95067358017,0.0966690704226,-0.000188758043805,-0.00156350911129,-0.0144304549322,0.999894678593
1505403907237268324,4975,1505403907237108188,0.0472631119192,0.950425386429,0.0972528457642,-0.00109953992069,-0.00242409296334,-0.0148151153699,0.99988669157
1505403907247486953,4976,1505403907247323704,0.0477094240487,0.9501106143,0.0978224352002,-0.0016100400826,-0.00277202250436,-0.0146451164037,0.999887645245
1505403907257629269,4977,1505403907257507065,0.0480854809284,0.950060784817,0.0986962839961,-0.00253417319618,-0.00263338140212,-0.0152179095894,0.999877512455
1505403907267050890,4978,1505403907266708716,0.0485464446247,0.949857234955,0.0993103086948,-0.00229606591165,-0.00244220881723,-0.0150099443272,0.999881744385
1505403907277133777,4979,1505403907276975590,0.0489883199334,0.949723243713,0.0997667089105,-0.00227409857325,-0.00249281339347,-0.0150678232312,0.99988079071
1505403907287391917,4980,1505403907287192167,0.0494538061321,0.949700832367,0.100460417569,-0.00197792402469,-0.00257453718223,-0.0150854159147,0.999880969524
1505403907297670893,4981,1505403907297501804,0.0498808473349,0.94968110323,0.101006880403,-0.00180834752973,-0.00285352161154,-0.0152100240812,0.999878644943
1505403907306883855,4982,1505403907306765377,0.0502702891827,0.949731647968,0.101204626262,-0.00170858576894,-0.00342333852313,-0.0154997007921,0.999872565269
1505403907317187573,4983,1505403907316995994,0.0507006309927,0.949866056442,0.101956933737,-0.00193623895757,-0.00357062462717,-0.0156879425049,0.999868690968
1505403907327382778,4984,1505403907327235793,0.0511880964041,0.949972689152,0.102511033416,-0.00204723631032,-0.00313196261413,-0.0153570994735,0.99987500906
1505403907337696425,4985,1505403907337505875,0.0517122931778,0.950111985207,0.102710269392,-0.00212825182825,-0.00325048784725,-0.0149713158607,0.999880373478
1505403907346917111,4986,1505403907346776498,0.0521821603179,0.95026165247,0.103536650538,-0.00273839780129,-0.00344738317654,-0.0148773277178,0.999879658222
1505403907357183927,4987,1505403907357050499,0.0527029447258,0.950409591198,0.103641428053,-0.0023750429973,-0.00323932874016,-0.0141451060772,0.999891877174
1505403907377549013,4988,1505403907377374959,0.053190112114,0.950720787048,0.104145683348,-0.00253201578744,-0.00345458253287,-0.0139363352209,0.999893724918
1505403907377552555,4989,1505403907377397360,0.0536530278623,0.951019883156,0.104587748647,-0.00252111419104,-0.0035257008858,-0.0136267496273,0.999897778034
1505403907387737387,4990,1505403907387583599,0.0542222186923,0.951280832291,0.104548282921,-0.00189336983021,-0.00307464459911,-0.0128946928307,0.999910354614
1505403907396888908,4991,1505403907396760434,0.0546448491514,0.951697051525,0.105405598879,-0.00246836268343,-0.00254146661609,-0.0130708524957,0.999908268452
1505403907407165477,4992,1505403907406970660,0.055066537112,0.952075660229,0.105298124254,-0.00226784590632,-0.00247115618549,-0.0127677842975,0.999912858009
1505403907417391299,4993,1505403907417230987,0.0555395781994,0.952695846558,0.105576753616,-0.00303303566761,-0.00312756304629,-0.0130460131913,0.999905407429
1505403907427549756,4994,1505403907427424882,0.0559682510793,0.953295111656,0.105993919075,-0.00388888083398,-0.00438019819558,-0.0135937780142,0.999890446663
1505403907436747906,4995,1505403907436579092,0.056488852948,0.953819930553,0.106045722961,-0.00411193212494,-0.004693957977,-0.0134630752727,0.999889850616
1505403907446979985,4996,1505403907446807210,0.0569809228182,0.954540193081,0.106361657381,-0.0042778281495,-0.00404759403318,-0.0134499035776,0.999892175198
1505403907457240079,4997,1505403907457086081,0.0573934465647,0.955404639244,0.106483332813,-0.00433277152479,-0.00333415041678,-0.0134787615389,0.99989426136
1505403907467512187,4998,1505403907467343623,0.0579041913152,0.956149995327,0.10675316304,-0.00342975580133,-0.00289779435843,-0.0129718557,0.999905765057
1505403907486946205,4999,1505403907486754107,0.0583941824734,0.956891477108,0.106613896787,-0.00231879972853,-0.00315521215089,-0.0126697421074,0.999912023544
1505403907486951010,5000,1505403907486776451,0.0588444806635,0.957636773586,0.106389388442,-0.00112093624193,-0.003661878407,-0.0122837880626,0.999917149544
1505403907497139228,5001,1505403907496960071,0.0593111366034,0.958524227142,0.106618389487,-0.000471754203318,-0.00394203141332,-0.011994172819,0.999920189381
1505403907507357051,5002,1505403907507199568,0.0598019696772,0.959273099899,0.10628773272,0.000387967709685,-0.00435550883412,-0.011567694135,0.999923467636
1505403907517623250,5003,1505403907517482747,0.060282189399,0.960109770298,0.106479249895,0.0006107360241,-0.0042492649518,-0.0112635102123,0.999927341938
1505403907526875365,5004,1505403907526691865,0.0607798583806,0.96097689867,0.106523402035,0.000747031008359,-0.00431843008846,-0.010931818746,0.999930679798
1505403907537119868,5005,1505403907536961658,0.0612563826144,0.961780250072,0.106307014823,0.000668925291393,-0.00451053958386,-0.0109396763146,0.999929845333
1505403907547353615,5006,1505403907547192107,0.0616977289319,0.962573766708,0.10645840317,0.000960455858149,-0.00439661042765,-0.0105102295056,0.999934613705
1505403907557543277,5007,1505403907557425518,0.0621734559536,0.963410675526,0.10627759248,0.0014999085106,-0.00461048679426,-0.0102917607874,0.999935269356
1505403907566921761,5008,1505403907566776390,0.0625738203526,0.964219093323,0.106099672616,0.00193198374473,-0.00456582987681,-0.0102812442929,0.999934911728
1505403907577231308,5009,1505403907576995207,0.0629853010178,0.965111255646,0.106177054346,0.00255659990944,-0.00457414984703,-0.0100407609716,0.999935805798
1505403907587386956,5010,1505403907587258402,0.0634594038129,0.965874791145,0.105795875192,0.00283383275382,-0.00500448979437,-0.00972662866116,0.999936163425
1505403907597622408,5011,1505403907597485589,0.0638124272227,0.966650784016,0.105838760734,0.00272500189021,-0.00505781359971,-0.0097758192569,0.999935686588
1505403907606920487,5012,1505403907606776602,0.0642891451716,0.967531323433,0.105826884508,0.00257864780724,-0.00513336108997,-0.00960878655314,0.999937355518
1505403907617256917,5013,1505403907617070439,0.0647107884288,0.968277871609,0.105508446693,0.00250474084169,-0.00512530095875,-0.00926085934043,0.999940872192
1505403907627483604,5014,1505403907627286159,0.0650425106287,0.969063520432,0.10565469414,0.00201936927624,-0.00495924707502,-0.00949108507484,0.999940633774
1505403907637726770,5015,1505403907637550154,0.0655211061239,0.969717502594,0.105345413089,0.0025566641707,-0.00515622226521,-0.00898943096399,0.99994301796
1505403907646959541,5016,1505403907646801310,0.0658208653331,0.970500528812,0.105128675699,0.00249284435995,-0.00548899592832,-0.00905890669674,0.999940812588
1505403907657251733,5017,1505403907657123261,0.0661743804812,0.97132819891,0.105080030859,0.00283379340544,-0.00586380111054,-0.00898013170809,0.999938488007
1505403907667515995,5018,1505403907667349725,0.0666021108627,0.971979916096,0.104714728892,0.00340458936989,-0.00602204771712,-0.00856065936387,0.999939441681
1505403907677694773,5019,1505403907677565131,0.0669112876058,0.972730875015,0.104446560144,0.00340477214195,-0.00566978519782,-0.00846060086042,0.999942362309
1505403907686918727,5020,1505403907686765535,0.0673198103905,0.973469913006,0.104655854404,0.00349399354309,-0.00536766508594,-0.00809197314084,0.999946773052
1505403907697092883,5021,1505403907696974718,0.0676463544369,0.974247992039,0.104122914374,0.00350007577799,-0.00536391371861,-0.00781622435898,0.999948978424
1505403907707433075,5022,1505403907707256441,0.0680062100291,0.975021958351,0.104035153985,0.0034801280126,-0.00557786878198,-0.00740479817614,0.999950945377
1505403907717729388,5023,1505403907717557120,0.0683386847377,0.975788891315,0.104061849415,0.00324538885616,-0.00608854647726,-0.00731148570776,0.999949455261
1505403907726875748,5024,1505403907726755313,0.0686374753714,0.976638972759,0.103271380067,0.00383220030926,-0.00626897858456,-0.00697080278769,0.999948680401
1505403907737189005,5025,1505403907737031374,0.0688996016979,0.977540314198,0.103515453637,0.00369147723541,-0.006227937527,-0.00716977240518,0.999948143959
1505403907747453178,5026,1505403907747281194,0.069206289947,0.978374183178,0.103073492646,0.00411407323554,-0.00612375792116,-0.00697217229754,0.999948441982
1505403907757722993,5027,1505403907757561503,0.0694227293134,0.97926223278,0.102645911276,0.00396361900494,-0.00604262109846,-0.00733739417046,0.999946951866
1505403907766956372,5028,1505403907766778048,0.069607578218,0.980239212513,0.103003107011,0.00317493104376,-0.00633896607906,-0.00764458766207,0.999945640564
1505403907777265468,5029,1505403907777032160,0.0699559822679,0.981176197529,0.102068275213,0.00321774720214,-0.00673899520189,-0.00700729573146,0.999947607517
1505403907787421989,5030,1505403907787301668,0.0700560510159,0.982184827328,0.102325677872,0.00201595644467,-0.00676855724305,-0.00759314838797,0.99994623661
1505403907797674629,5031,1505403907797546508,0.0702861398458,0.983082771301,0.102020606399,0.00175954564475,-0.00696565909311,-0.00737872393802,0.999946951866
1505403907806945827,5032,1505403907806817126,0.0705229267478,0.984042048454,0.101230591536,0.00197754637338,-0.0077057457529,-0.00714447069913,0.999942839146
1505403907817237182,5033,1505403907817015695,0.0706321448088,0.985032558441,0.101578556001,0.00186713947915,-0.00789523776621,-0.0076489909552,0.999937832355
1505403907827465115,5034,1505403907827293013,0.0708714127541,0.986083388329,0.100860595703,0.00321841798723,-0.00719153461978,-0.00737452507019,0.999941766262
1505403907837799991,5035,1505403907837579744,0.0709815770388,0.987194597721,0.100501537323,0.00366394966841,-0.0061542824842,-0.00752049311996,0.999946057796
1505403907846977372,5036,1505403907846828175,0.0711134672165,0.988274633884,0.100689589977,0.00348828546703,-0.00571581441909,-0.00768493674695,0.99994802475
1505403907857252222,5037,1505403907857036023,0.071306630969,0.989388048649,0.0998852774501,0.0039383629337,-0.00587048986927,-0.00736928079277,0.999947845936
1505403907877708881,5038,1505403907877430783,0.0713794082403,0.990616977215,0.0995855107903,0.0036746955011,-0.0065981275402,-0.00762362871319,0.999942481518
1505403907877719664,5039,1505403907877467928,0.0714760497212,0.991856813431,0.0995262935758,0.00370885734446,-0.00690662069246,-0.00785529054701,0.999938368797
1505403907886819279,5040,1505403907886646196,0.0716289207339,0.993050634861,0.0987543091178,0.00535700190812,-0.00625598663464,-0.00747030135244,0.999938130379
1505403907897036906,5041,1505403907896876128,0.0715999081731,0.994332253933,0.0984695851803,0.00617312546819,-0.00554755982012,-0.00805002264678,0.999933183193
1505403907907270381,5042,1505403907907128201,0.0717333257198,0.995597302914,0.0982938706875,0.0078857652843,-0.00479755923152,-0.00794363301247,0.999925851822
1505403907917489611,5043,1505403907917353799,0.0718001052737,0.996881127357,0.0973966121674,0.00954965036362,-0.00429991772398,-0.00792961288244,0.999913692474
1505403907927721314,5044,1505403907927584008,0.071795143187,0.998120248318,0.0973881930113,0.0101194335148,-0.00428762612864,-0.00843228027225,0.999904096127
1505403907936965294,5045,1505403907936817663,0.071830406785,0.999414682388,0.0970040634274,0.0107189305127,-0.0042783212848,-0.00860851444304,0.999896347523
1505403907947147924,5046,1505403907947033380,0.0718073621392,1.00065541267,0.0960727632046,0.0115334540606,-0.00455012731254,-0.00878199934959,0.999884545803
1505403907957465548,5047,1505403907957332954,0.0718125402927,1.00192904472,0.0965213850141,0.0112852733582,-0.00443668616936,-0.00929756369442,0.999883294106
1505403907967633414,5048,1505403907967480959,0.0718645378947,1.00307440758,0.0954379662871,0.0128907598555,-0.00396374985576,-0.00873074214906,0.999870955944
1505403907976848369,5049,1505403907976682420,0.0718254074454,1.00421965122,0.0954589024186,0.0133979693055,-0.0035186316818,-0.00948454998434,0.999859035015
1505403907987040430,5050,1505403907986883366,0.0718228444457,1.00537741184,0.0952578783035,0.0144005557522,-0.00298118055798,-0.00965171866119,0.999845266342
1505403907997243894,5051,1505403907997095623,0.0718425810337,1.00652766228,0.0942444950342,0.0156495962292,-0.0030116958078,-0.00983232073486,0.999824643135
1505403908007556646,5052,1505403908007406015,0.0716932862997,1.00774562359,0.0947370827198,0.0152757428586,-0.00339534436353,-0.0112153543159,0.999814629555
1505403908016750042,5053,1505403908016549850,0.0716425031424,1.00892972946,0.0938621908426,0.0162716470659,-0.00386157725006,-0.0116765936837,0.99979197979
1505403908026910291,5054,1505403908026748225,0.0715663433075,1.01005721092,0.0936167240143,0.0165007039905,-0.0037687656004,-0.0122359395027,0.999781906605
1505403908037030220,5055,1505403908036930938,0.0715262442827,1.01122140884,0.0938867628574,0.0163233093917,-0.00249212048948,-0.012588005513,0.99978441
1505403908047397139,5056,1505403908047267119,0.0715789496899,1.01236975193,0.0931999608874,0.0179697182029,-0.00185085705016,-0.0124597633258,0.999759197235
1505403908057596692,5057,1505403908057447654,0.0714050456882,1.01347899437,0.0931990072131,0.0185531917959,-0.00157123454846,-0.013661628589,0.999733269215
1505403908066777532,5058,1505403908066608955,0.0713892579079,1.0145714283,0.0929533243179,0.019666723907,-0.00145238661207,-0.0140912346542,0.999706208706
1505403908076996329,5059,1505403908076853454,0.07130741328,1.01562774181,0.0925119668245,0.0205002501607,-0.0019865159411,-0.0146886389703,0.999679982662
1505403908087167994,5060,1505403908087051713,0.0711960718036,1.01660740376,0.0925757586956,0.0208563786,-0.00181089784019,-0.01563763991,0.99965852499
1505403908097464441,5061,1505403908097277905,0.0712779909372,1.01758229733,0.0922900438309,0.0220666304231,-0.00114929163828,-0.0154901165515,0.99963581562
1505403908107778651,5062,1505403908107577233,0.0711842998862,1.01848399639,0.092271015048,0.0225182753056,-0.00118216441479,-0.0159275457263,0.999618828297
1505403908117027307,5063,1505403908116830405,0.0711503848433,1.01933002472,0.0922158807516,0.0234283693135,-0.00107677176129,-0.0165140014142,0.999588489532
1505403908127160885,5064,1505403908127042231,0.0711684599519,1.02006840706,0.0920039340854,0.025130039081,-0.000913621508516,-0.0163990724832,0.999549269676
1505403908137428904,5065,1505403908137285826,0.0711106285453,1.02083110809,0.0919378176332,0.0257838387042,-0.000809505116194,-0.0167044941336,0.99952763319
1505403908147671079,5066,1505403908147541910,0.071218803525,1.02153539658,0.0919750705361,0.0269504338503,-0.000625980261248,-0.0161922294647,0.999505519867
1505403908156925605,5067,1505403908156807169,0.0712065845728,1.02219450474,0.0919649675488,0.0276860762388,-0.000800222391263,-0.0160999093205,0.999486684799
1505403908167188774,5068,1505403908167018642,0.0712546333671,1.02279996872,0.0920528098941,0.0280617643148,-0.000567357288674,-0.016121789813,0.999476075172
1505403908187671565,5069,1505403908187399467,0.0713463649154,1.02349841595,0.0923856422305,0.0283115971833,-0.000491987739224,-0.0159564763308,0.999471664429
1505403908187679112,5070,1505403908187421481,0.0713101550937,1.02411770821,0.0922189578414,0.0285041388124,-0.00046255873167,-0.0160459484905,0.99946475029
1505403908196999938,5071,1505403908196842486,0.0714440569282,1.02467930317,0.0927154794335,0.0287073347718,-0.000268301228061,-0.0157420355827,0.99946385622
1505403908217379532,5072,1505403908217213299,0.071510232985,1.02521574497,0.0929443538189,0.0290012378246,-0.000469554099254,-0.0154980784282,0.999459087849
1505403908217383209,5073,1505403908217255324,0.0715479403734,1.02578735352,0.0931411385536,0.0293629951775,-0.000275926693575,-0.0154731776565,0.999449014664
1505403908227650669,5074,1505403908227499665,0.0716019943357,1.02634775639,0.093753002584,0.0298631023616,-7.39410243114e-05,-0.0154555123299,0.99943447113
1505403908247308648,5075,1505403908247008646,0.0716711208224,1.02689933777,0.0937378630042,0.0304197948426,-8.47489573061e-05,-0.0153794437647,0.999418854713
1505403908247312412,5076,1505403908247036987,0.07173024863,1.02740180492,0.0943671092391,0.0304026529193,9.25700587686e-05,-0.0154659459367,0.999418079853
1505403908257510804,5077,1505403908257330696,0.0718259736896,1.02795433998,0.0949671640992,0.0305136963725,-0.000210386293475,-0.015330423601,0.999416768551
1505403908276945598,5078,1505403908276769479,0.0719004720449,1.02851748466,0.0951456725597,0.0303330924362,-0.000565808324609,-0.0153823178262,0.999421298504
1505403908276948975,5079,1505403908276795772,0.0719031170011,1.02906453609,0.0961974188685,0.0298541672528,-0.000385974009987,-0.0159258618951,0.999427318573
1505403908287123235,5080,1505403908287020188,0.0719573348761,1.02957129478,0.0964301973581,0.0302192606032,-0.000200660928385,-0.0160300470889,0.999414741993
1505403908307607270,5081,1505403908307415519,0.0720571279526,1.0301117897,0.0971898362041,0.0301693882793,7.67962774262e-05,-0.016060359776,0.999415755272
1505403908307621251,5082,1505403908307447356,0.0721608325839,1.03065133095,0.098123267293,0.0300836693496,3.30737821059e-05,-0.0159270614386,0.999420523643
1505403908316768699,5083,1505403908316592302,0.0723025947809,1.03113210201,0.0984074398875,0.0303245466202,-3.40051010426e-05,-0.0155414873734,0.999419271946
1505403908326938010,5084,1505403908326789463,0.0723358988762,1.03158307076,0.0995298996568,0.0297219175845,0.000153027125634,-0.0159740559757,0.999430537224
1505403908337165275,5085,1505403908337045819,0.0724333673716,1.03211116791,0.100374564528,0.0294432379305,-3.8488957216e-05,-0.0160582382232,0.999437451363
1505403908347430645,5086,1505403908347313875,0.0725365579128,1.03261888027,0.100864216685,0.0294719096273,2.01946859306e-05,-0.0157843772322,0.999440968037
1505403908357763801,5087,1505403908357559122,0.0726811364293,1.03303730488,0.102290518582,0.0284937210381,0.000362682505511,-0.0157413762063,0.999469935894
1505403908366938739,5088,1505403908366780286,0.0728938952088,1.03341150284,0.103062152863,0.0283974241465,0.000394433678593,-0.0151337943971,0.999482035637
1505403908377195176,5089,1505403908377029232,0.0729349181056,1.03390657902,0.103889279068,0.0279863104224,0.000239612243604,-0.0153802381828,0.999489963055
1505403908387422744,5090,1505403908387257515,0.0730611234903,1.03438520432,0.105293408036,0.0276074707508,0.0001174746576,-0.0156654454768,0.999496042728
1505403908397611951,5091,1505403908397468518,0.0732236504555,1.03487825394,0.10589351505,0.0281026978046,0.000251457531704,-0.0153206139803,0.999487638474
1505403908406873675,5092,1505403908406721352,0.0732802525163,1.03537809849,0.10712390393,0.0277621615678,0.000329301226884,-0.0156080825254,0.999492645264
1505403908417090544,5093,1505403908416937427,0.0734776556492,1.03579926491,0.10835903883,0.0278033558279,0.00046961728367,-0.0153560219333,0.999495327473
1505403908427304552,5094,1505403908427155327,0.0735985338688,1.03626179695,0.109114862978,0.0274519491941,0.000313425232889,-0.0152601180598,0.999506592751
1505403908437613339,5095,1505403908437456173,0.0737403705716,1.03665471077,0.110725291073,0.026628991589,0.000139929485158,-0.0155660128221,0.999524176121
1505403908446799043,5096,1505403908446638879,0.07395362854,1.03710269928,0.111853189766,0.0264897625893,7.4611416494e-05,-0.0151020120829,0.999535024166
1505403908457130533,5097,1505403908456843686,0.0740596354008,1.03753423691,0.112828284502,0.0260167755187,-0.000191740182345,-0.0151619110256,0.999546527863
1505403908467211327,5098,1505403908467072050,0.0742082074285,1.03792107105,0.114553414285,0.0253636520356,-0.000151314612594,-0.0155108282343,0.999557971954
1505403908477451701,5099,1505403908477278590,0.074373409152,1.03831410408,0.115347087383,0.0256084483117,-0.000214497733396,-0.0152246458456,0.99955612421
1505403908487622373,5100,1505403908487511435,0.0745012164116,1.0387288332,0.117000259459,0.0243613068014,-0.000392458430724,-0.0156110823154,0.99958127737
1505403908496898353,5101,1505403908496743035,0.0746881067753,1.03907215595,0.118416726589,0.0239849872887,-0.000486455362989,-0.0153019931167,0.999595105648
1505403908507173758,5102,1505403908506963638,0.0748756527901,1.03949356079,0.119386546314,0.0236652363092,-0.000505120726302,-0.0152712306008,0.99960321188
1505403908517274831,5103,1505403908517146038,0.0749868452549,1.03982269764,0.121500715613,0.0224193893373,0.000314452743623,-0.0158200971782,0.999623477459
1505403908527773088,5104,1505403908527483714,0.075183108449,1.04017317295,0.122553035617,0.0223684683442,0.000701251847204,-0.0155207086354,0.999629020691
1505403908536838397,5105,1505403908536686269,0.075303144753,1.04069006443,0.12397056818,0.0209399685264,-0.000177334455657,-0.0163534339517,0.999646902084
1505403908547131316,5106,1505403908546970825,0.0753903687,1.04116261005,0.125704869628,0.0199394356459,-0.00112217315473,-0.0169842280447,0.999656260014
1505403908557355517,5107,1505403908557195678,0.0755882263184,1.04164254665,0.126774013042,0.0192612707615,-0.0017884314293,-0.01714351587,0.999665856361
1505403908567742573,5108,1505403908567515343,0.0757787674665,1.04212629795,0.128628015518,0.0182010363787,-0.00159476778936,-0.0176164880395,0.9996778965
1505403908576880750,5109,1505403908576737954,0.0759619101882,1.04261374474,0.129996314645,0.0182162374258,-0.00070932978997,-0.0175351481885,0.999680042267
1505403908597383036,5110,1505403908597169989,0.0762049257755,1.04313290119,0.131465211511,0.0184430088848,-0.000413082685554,-0.0176928974688,0.999673187733
1505403908597396370,5111,1505403908597198662,0.0763259157538,1.04361915588,0.133089765906,0.0181729830801,-0.000514911138453,-0.0181488730013,0.999669969082
1505403908607660064,5112,1505403908607482334,0.0765694230795,1.04413974285,0.134408399463,0.0181883554906,-0.00114966346882,-0.018101092428,0.999670147896
1505403908627404861,5113,1505403908626980431,0.0767878443003,1.04453980923,0.135943636298,0.0176413673908,-0.00172143499367,-0.018114419654,0.999678730965
1505403908627413956,5114,1505403908627011681,0.0770416855812,1.04500341415,0.137482464314,0.0170753486454,-0.00172164163087,-0.0179034583271,0.999692440033
1505403908637531035,5115,1505403908637369137,0.0773660615087,1.0454750061,0.139189481735,0.0167827121913,-0.00162378314417,-0.01732593216,0.999707698822
1505403908657056071,5116,1505403908656893269,0.0776452720165,1.04578316212,0.140596017241,0.016444850713,-0.00136749318335,-0.016958469525,0.999719977379
1505403908657061032,5117,1505403908656926440,0.0779071003199,1.04609012604,0.142170801759,0.0165451020002,-0.00102632795461,-0.0166254788637,0.999724388123
1505403908667386443,5118,1505403908667225176,0.0781810507178,1.04638946056,0.143815696239,0.0165759921074,-0.00116818002425,-0.0161594171077,0.999731361866
1505403908686757109,5119,1505403908686647686,0.0784577131271,1.04670989513,0.145183235407,0.0163903310895,-0.00126371369697,-0.0157679729164,0.999740540981
1505403908686760433,5120,1505403908686715736,0.0788101479411,1.04705142975,0.14696650207,0.0162623859942,-0.00161022448447,-0.015327475965,0.999748945236
1505403908697236270,5121,1505403908697089971,0.0790709704161,1.04733598232,0.148351877928,0.0158241335303,-0.00181880942546,-0.0151290623471,0.999758720398
1505403908717668441,5122,1505403908717537144,0.0793588012457,1.04761767387,0.150029018521,0.0151074267924,-0.00180554552935,-0.0150929698721,0.999770283699
1505403908717674159,5123,1505403908717568741,0.0795978084207,1.04784989357,0.151845902205,0.0145557485521,-0.00180078693666,-0.014973865822,0.999780356884
1505403908727043353,5124,1505403908726825017,0.0799142792821,1.04808831215,0.153148949146,0.0142862414941,-0.00161699799355,-0.0147188520059,0.999788343906
1505403908747416597,5125,1505403908747295214,0.0802519470453,1.04837679863,0.155082449317,0.013544421643,-0.00147334788926,-0.0144614223391,0.999802649021
1505403908747432466,5126,1505403908747326305,0.0805238932371,1.04860579967,0.156614929438,0.0132768433541,-0.00164388061967,-0.0141993397847,0.999809682369
1505403908756899604,5127,1505403908756698566,0.0807954370975,1.04877567291,0.157988265157,0.0130004314706,-0.00162804313004,-0.0140938749537,0.999814808369
1505403908777352092,5128,1505403908777189954,0.0810317769647,1.04896044731,0.160039529204,0.0124332197011,-0.00155582663137,-0.0141053674743,0.999822020531
1505403908777398413,5129,1505403908777213562,0.0813469290733,1.04911792278,0.161244153976,0.0119076026604,-0.00139335799031,-0.0139953503385,0.999830186367
1505403908787566549,5130,1505403908787430988,0.0816207975149,1.04932069778,0.163204029202,0.0110780429095,-0.0010711007053,-0.0140570541844,0.999839186668
1505403908807254882,5131,1505403908806998999,0.0818851366639,1.04959487915,0.164787515998,0.0102782547474,-0.00172122649383,-0.0141282230616,0.999845921993
1505403908807258548,5132,1505403908807027395,0.0821975693107,1.04974746704,0.166068971157,0.00990541838109,-0.00248309364542,-0.0139499325305,0.999850511551
1505403908817409527,5133,1505403908817298651,0.0823685899377,1.05001866817,0.168069154024,0.00913114845753,-0.00242737308145,-0.0146412132308,0.99984818697
1505403908836867780,5134,1505403908836671536,0.0826782435179,1.05026423931,0.169422715902,0.00928541831672,-0.00167847238481,-0.0147042078897,0.9998472929
1505403908836871418,5135,1505403908836700825,0.0829704254866,1.05044448376,0.170963719487,0.00914685707539,-0.00111498590559,-0.0147782713175,0.999848365784
1505403908847165323,5136,1505403908846974179,0.0831991359591,1.05077302456,0.172800302505,0.00857478380203,-0.0015961243771,-0.0151839489117,0.999846696854
1505403908867638884,5137,1505403908867416269,0.0835194662213,1.05111384392,0.174050524831,0.00829369015992,-0.00214799540117,-0.0151261240244,0.999848902225
1505403908867646122,5138,1505403908867447471,0.0837547034025,1.05144333839,0.175639003515,0.00744871329516,-0.00257709040307,-0.0153505764902,0.999851047993
1505403908876798891,5139,1505403908876625897,0.0840817764401,1.05164730549,0.177345409989,0.00667598610744,-0.00252849329263,-0.0156245566905,0.999852478504
1505403908897214491,5140,1505403908897014087,0.0843562409282,1.05186772346,0.178681388497,0.00684377318248,-0.00222903070971,-0.0157357435673,0.999850273132
1505403908897219269,5141,1505403908897088889,0.0846064612269,1.05220222473,0.180287003517,0.00671823462471,-0.00228549912572,-0.0161743052304,0.999844014645
1505403908907504874,5142,1505403908907283324,0.0849025472999,1.0524314642,0.181702524424,0.00671782158315,-0.0021412668284,-0.0160727519542,0.999845981598
1505403908926866855,5143,1505403908926579255,0.0852472707629,1.05263853073,0.183095723391,0.00673032877967,-0.00226523657329,-0.0160294789821,0.999846339226
1505403908926869991,5144,1505403908926619862,0.0855549871922,1.05281221867,0.184572398663,0.00641230167821,-0.00253090867773,-0.0163511987776,0.999842584133
1505403908937126450,5145,1505403908936972297,0.0858722999692,1.05294787884,0.186083450913,0.00606674514711,-0.0026051979512,-0.0163026824594,0.999845385551
1505403908957615539,5146,1505403908957420919,0.0861935839057,1.05309069157,0.187391057611,0.00573385227472,-0.00280707911588,-0.0163627248257,0.999845743179
1505403908957622320,5147,1505403908957447664,0.0864726006985,1.05324149132,0.188895702362,0.0051822536625,-0.00240633543581,-0.0164285693318,0.999848723412
1505403908966872367,5148,1505403908966703675,0.0868383720517,1.05341124535,0.190300390124,0.00503941578791,-0.0020113941282,-0.01621773839,0.999853730202
1505403908987201305,5149,1505403908987058851,0.0871862024069,1.05358183384,0.191753789783,0.00443618092686,-0.00204374082386,-0.0164395142347,0.999852895737
1505403908987205565,5150,1505403908987096769,0.0874109938741,1.05375695229,0.192947894335,0.00428294623271,-0.00282055931166,-0.0166907869279,0.999847590923
1505403908997510890,5151,1505403908997342846,0.0877697467804,1.054002285,0.194280549884,0.00417300825939,-0.00369745027274,-0.0170730259269,0.999838709831
1505403909016947070,5152,1505403909016773794,0.0881045460701,1.05416452885,0.195482701063,0.00385927176103,-0.00423199124634,-0.0173242986202,0.999833524227
1505403909016951622,5153,1505403909016800940,0.0884000509977,1.0543602705,0.196796610951,0.00359517801553,-0.00457167858258,-0.0175839383155,0.999828517437
1505403909027423426,5154,1505403909027072106,0.0887917801738,1.05463647842,0.198204278946,0.00356356217526,-0.0040298034437,-0.0176472738385,0.999829769135
1505403909047731250,5155,1505403909047538191,0.0891488268971,1.05482232571,0.199280768633,0.00337387574837,-0.00330172805116,-0.017535392195,0.999835073948
1505403909047737854,5156,1505403909047565811,0.0895261764526,1.05504775047,0.200958430767,0.00298968073912,-0.0031446358189,-0.0176695492119,0.999834477901
1505403909056971135,5157,1505403909056832473,0.0899320468307,1.05523121357,0.201860412955,0.00315058417618,-0.00324743706733,-0.0173319783062,0.999839544296
1505403909077478544,5158,1505403909077267245,0.0902322307229,1.05542623997,0.203026473522,0.00237773754634,-0.00359275029041,-0.0177224166691,0.999833703041
1505403909077484470,5159,1505403909077296142,0.0906639620662,1.05565106869,0.204624906182,0.001553377253,-0.00368806254119,-0.0178128145635,0.999833345413
1505403909087736526,5160,1505403909087580027,0.091106981039,1.05574500561,0.205366939306,0.00181480834726,-0.00344699574634,-0.0172641985118,0.999843358994
1505403909107203354,5161,1505403909107016955,0.0915392786264,1.05586493015,0.206979855895,0.00106985028833,-0.00319180916995,-0.0171418301761,0.999847352505
1505403909107238192,5162,1505403909107046394,0.0920091643929,1.05595338345,0.208016514778,0.00125272024889,-0.00296818185598,-0.0164529234171,0.999859452248
1505403909117481190,5163,1505403909117327731,0.0923499464989,1.05605876446,0.208780527115,0.00125325203408,-0.00287588173524,-0.016490207985,0.999859154224
1505403909136977832,5164,1505403909136771839,0.0928258821368,1.05622506142,0.210455924273,0.000691580586135,-0.00290890736505,-0.016528904438,0.999858915806
1505403909136983400,5165,1505403909136801803,0.0933036655188,1.05630767345,0.211089283228,0.00078632531222,-0.0028344837483,-0.0159658547491,0.99986821413
1505403909147263450,5166,1505403909147117581,0.093730174005,1.05632030964,0.212424680591,0.000187972531421,-0.00244837487116,-0.0159138925374,0.999870419502
1505403909157595693,5167,1505403909157413074,0.0941976755857,1.05644381046,0.213735893369,-0.00014604612079,-0.00204964610748,-0.0156750231981,0.999875068665
1505403909166688434,5168,1505403909166550650,0.0946677997708,1.05644369125,0.214123666286,-4.70069971925e-05,-0.00193841103464,-0.0152435153723,0.999881923199
1505403909187420931,5169,1505403909187212423,0.0950689613819,1.05648303032,0.216037631035,-0.00138677109499,-0.0018920522416,-0.0156907830387,0.999874174595
1505403909187428081,5170,1505403909187236436,0.0955442413688,1.05662870407,0.216385826468,-0.00111751526129,-0.00229797023349,-0.0154846031219,0.999876797199
1505403909197579391,5171,1505403909197424271,0.0959678515792,1.05668628216,0.217493891716,-0.00160562875681,-0.00287428009324,-0.0158857367933,0.999868452549
1505403909217027174,5172,1505403909216842671,0.0964092314243,1.05684733391,0.218787640333,-0.00198910059407,-0.00233255396597,-0.0161854997277,0.999864339828
1505403909217031656,5173,1505403909216864082,0.0969741940498,1.05692732334,0.219031944871,-0.00078846066026,-0.000880965089891,-0.015518781729,0.999878883362
1505403909227220712,5174,1505403909227049434,0.0973281264305,1.05717206001,0.22076946497,-0.00132065161597,0.000174126456841,-0.0162444952875,0.999867141247
1505403909237458582,5175,1505403909237302237,0.0977940931916,1.05745208263,0.221206456423,-0.000352651986759,-0.000279683328699,-0.0161279216409,0.999869823456
1505403909247685639,5176,1505403909247519300,0.0982375219464,1.05774366856,0.221736237407,-0.000150250620209,-0.00143385177944,-0.0165866035968,0.999861419201
1505403909256871007,5177,1505403909256724411,0.0986166596413,1.05805706978,0.222958624363,-0.000538549560588,-0.00217442819849,-0.0173275005072,0.999847412109
1505403909277356347,5178,1505403909277107518,0.0991303026676,1.05843651295,0.223500937223,0.000314875738695,-0.00176751753315,-0.0172632355243,0.999849379063
1505403909277382648,5179,1505403909277167381,0.0995898842812,1.05887675285,0.224344268441,0.000786332995631,-0.000442746619228,-0.0176108703017,0.999844491482
1505403909287603580,5180,1505403909287370891,0.100013278425,1.05934977531,0.225424945354,0.00123214069754,0.00074760481948,-0.0176988784224,0.999842405319
1505403909297785697,5181,1505403909297604669,0.100623205304,1.05972909927,0.226024776697,0.00281322887167,0.00119113118853,-0.0171794295311,0.999847769737
1505403909306977428,5182,1505403909306823642,0.101123578846,1.06022047997,0.2264970541,0.00424923049286,0.000804147101007,-0.0173812806606,0.999839603901
1505403909317242266,5183,1505403909317079869,0.101646155119,1.06071698666,0.22738738358,0.00549822486937,0.000683259102516,-0.0172220766544,0.999836325645
1505403909327412157,5184,1505403909327293691,0.102167777717,1.06111001968,0.227771505713,0.00721987895668,0.00054678710876,-0.0168089754879,0.999832451344
1505403909337696007,5185,1505403909337535419,0.102628983557,1.06152486801,0.228516116738,0.00790094956756,0.000466150348075,-0.0172706432641,0.999819517136
1505403909346917449,5186,1505403909346745714,0.103242017329,1.06189835072,0.22924503684,0.00873828865588,0.00131506484468,-0.0167524218559,0.999820649624
1505403909357083795,5187,1505403909356952194,0.103842034936,1.06228792667,0.229977637529,0.00895961001515,0.00174679118209,-0.0162820126861,0.999825716019
1505403909367434024,5188,1505403909367305536,0.104372441769,1.06266140938,0.230952262878,0.00878011528403,0.00219013378955,-0.0163229797035,0.999825835228
1505403909377746538,5189,1505403909377517433,0.104906864464,1.06301486492,0.231583550572,0.00928856246173,0.0023111726623,-0.0160167422146,0.999825894833
1505403909386918726,5190,1505403909386751892,0.105515927076,1.06333947182,0.232202425599,0.00943968817592,0.00187333219219,-0.0157701540738,0.999829351902
1505403909397207529,5191,1505403909397039365,0.106069885194,1.06369507313,0.233102664351,0.00987410265952,0.00197408697568,-0.0155085101724,0.999828994274
1505403909407358749,5192,1505403909407235852,0.1066589728,1.06402206421,0.233594104648,0.0109452949837,0.00220461259596,-0.0151269780472,0.999823153019
1505403909417621625,5193,1505403909417468075,0.10728674382,1.06427550316,0.234369382262,0.0115690957755,0.00290510314517,-0.014835995622,0.999818742275
1505403909426879097,5194,1505403909426730849,0.107880011201,1.06457984447,0.235178023577,0.0121113890782,0.0033901357092,-0.0143751483411,0.999817609787
1505403909437117248,5195,1505403909436962993,0.108471609652,1.06484556198,0.23576168716,0.0124949496239,0.00343173346482,-0.0142373591661,0.999814689159
1505403909447357171,5196,1505403909447164941,0.108995169401,1.06513762474,0.236665889621,0.0125984363258,0.0035002308432,-0.0140079939738,0.999816358089
1505403909457569916,5197,1505403909457382113,0.10959995538,1.06542313099,0.237378209829,0.0127370972186,0.00356534100138,-0.0137524660677,0.999817967415
1505403909467761298,5198,1505403909467601776,0.110225215554,1.06552863121,0.238198980689,0.013016609475,0.00394238717854,-0.0133174788207,0.99981880188
1505403909476986502,5199,1505403909476819303,0.110776163638,1.06574547291,0.238961666822,0.0132750459015,0.00426897872239,-0.013204892166,0.999815523624
1505403909487236119,5200,1505403909487053543,0.111412726343,1.06586992741,0.239752754569,0.0136370640248,0.00434564705938,-0.0127095710486,0.999816834927
1505403909497427849,5201,1505403909497252968,0.111971855164,1.06599771976,0.240513935685,0.0136810615659,0.00441099936143,-0.0124098723754,0.99981969595
1505403909507631711,5202,1505403909507486075,0.112561717629,1.06610035896,0.24136313796,0.0137441530824,0.00460894498974,-0.0121070584282,0.999821603298
1505403909516937688,5203,1505403909516754351,0.113139428198,1.06613481045,0.242289558053,0.0136208189651,0.00513177411631,-0.0118632968515,0.999823749065
1505403909527167652,5204,1505403909526991708,0.113714940846,1.06621336937,0.243046969175,0.0133095318452,0.0055866278708,-0.0116742895916,0.999827623367
1505403909537007098,5205,1505403909536797893,0.114290937781,1.06620573997,0.244091451168,0.0130883548409,0.00590446498245,-0.0113617777824,0.999832391739
1505403909547165909,5206,1505403909547005980,0.11478831619,1.06616842747,0.244748726487,0.0131201045588,0.00627418095246,-0.0111841997132,0.999831676483
1505403909557418327,5207,1505403909557238031,0.115358397365,1.06617486477,0.24569684267,0.0132995145395,0.00656527141109,-0.0112245324999,0.999827027321
1505403909567592422,5208,1505403909567455505,0.115855835378,1.06612420082,0.246719941497,0.0133825931698,0.00701135955751,-0.0113066108897,0.999821960926
1505403909576904991,5209,1505403909576723142,0.116354063153,1.06599378586,0.247163847089,0.0137046994641,0.007299721241,-0.0113448938355,0.999815046787
1505403909587080296,5210,1505403909586949278,0.11688503623,1.06582534313,0.248463183641,0.0133933471516,0.00720840273425,-0.0112960450351,0.99982047081
1505403909597392382,5211,1505403909597222198,0.117379054427,1.06565129757,0.249142378569,0.0133661208674,0.0076539828442,-0.0111094387248,0.999819636345
1505403909607639563,5212,1505403909607458832,0.117881052196,1.0654323101,0.2501937747,0.0132666565478,0.00784003082663,-0.0113288220018,0.99981713295
1505403909616752462,5213,1505403909616640461,0.118284061551,1.06521296501,0.2512139678,0.0128608597443,0.00815437082201,-0.0116893723607,0.999815642834
1505403909627148684,5214,1505403909626893499,0.118824966252,1.06485593319,0.251741290092,0.0132341226563,0.00801301002502,-0.0114589212462,0.999814629555
1505403909637341419,5215,1505403909637152921,0.11924328655,1.06458032131,0.253173112869,0.0125422878191,0.00810002442449,-0.0120881572366,0.99981546402
1505403909647520605,5216,1505403909647387523,0.119699373841,1.06422781944,0.253624498844,0.0131880501285,0.00863065570593,-0.0116854012012,0.999807476997
1505403909657183234,5217,1505403909656567297,0.120194353163,1.06388545036,0.254864364862,0.0125284045935,0.00898997951299,-0.0121686272323,0.99980711937
1505403909667689129,5218,1505403909667476266,0.120575904846,1.06350672245,0.255756676197,0.0120677882805,0.00921205990016,-0.0122375097126,0.999809920788
1505403909676870145,5219,1505403909676711107,0.121022760868,1.06322836876,0.256590008736,0.0115170367062,0.00867384113371,-0.0128952180967,0.99981290102
1505403909687075897,5220,1505403909686935220,0.121445246041,1.06287717819,0.257748097181,0.0105212954804,0.00820494163781,-0.0134971253574,0.999819815159
1505403909697323781,5221,1505403909697113425,0.121888205409,1.06255042553,0.25858053565,0.0100509049371,0.00892005022615,-0.013500444591,0.999818503857
1505403909707599317,5222,1505403909707377726,0.122402951121,1.0621471405,0.259723454714,0.00974979717284,0.00955310277641,-0.0136416191235,0.999813735485
1505403909717775673,5223,1505403909717601671,0.122704513371,1.06176447868,0.260442525148,0.00980866141617,0.00958817172796,-0.0139792691916,0.999808192253
1505403909727112620,5224,1505403909726828310,0.123191960156,1.06133627892,0.261526703835,0.0102928699926,0.00950575154275,-0.0139123639092,0.999805092812
1505403909737309537,5225,1505403909737167528,0.123677164316,1.06092071533,0.262371391058,0.0103785982355,0.00910671800375,-0.0138606848195,0.99980866909
1505403909747608986,5226,1505403909747425567,0.124081008136,1.06044197083,0.263033360243,0.0109565118328,0.0086894761771,-0.0136536322534,0.999809026718
1505403909756787544,5227,1505403909756562966,0.124582774937,1.0599770546,0.26430746913,0.0113690728322,0.00871638208628,-0.0135909346864,0.999805033207
1505403909766930866,5228,1505403909766767435,0.124983295798,1.0595241785,0.26484438777,0.0118005415425,0.00918329507113,-0.0132768647745,0.999799966812
1505403909777165213,5229,1505403909777007370,0.125472173095,1.05903542042,0.26607170701,0.0118445279077,0.0096606137231,-0.0129510583356,0.999799251556
1505403909787360868,5230,1505403909787232551,0.125997945666,1.05853116512,0.267094552517,0.0123686036095,0.00981887150556,-0.0124937947839,0.999797165394
1505403909797638034,5231,1505403909797422621,0.126423716545,1.05803501606,0.267537325621,0.0131430411711,0.00965869985521,-0.0120065696537,0.999794900417
1505403909806764554,5232,1505403909806599524,0.126917093992,1.05762124062,0.269081801176,0.012987902388,0.00958133954555,-0.0120500782505,0.999797105789
1505403909816957994,5233,1505403909816814572,0.127364486456,1.05705177784,0.269489318132,0.0139000248164,0.0096945790574,-0.0115428976715,0.999789714813
1505403909827218173,5234,1505403909827065388,0.127738460898,1.05655372143,0.270609766245,0.0136550525203,0.0100121721625,-0.0116813741624,0.999788403511
1505403909837497724,5235,1505403909837339623,0.128242433071,1.05607938766,0.27200114727,0.0132203344256,0.0102375298738,-0.0112702380866,0.999796688557
1505403909847751477,5236,1505403909847596915,0.128726527095,1.05558168888,0.272302895784,0.0133528513834,0.0101721975952,-0.0106209488586,0.999802708626
1505403909857047382,5237,1505403909856868232,0.12906242907,1.05517292023,0.274228960276,0.0120777003467,0.00970994215459,-0.0114117711782,0.999814748764
1505403909867369265,5238,1505403909867189787,0.129416555166,1.05470061302,0.274613112211,0.0124563472345,0.00935725215822,-0.0113542331383,0.999814093113
1505403909877614060,5239,1505403909877432109,0.129806801677,1.05428516865,0.275658369064,0.0123508321121,0.0100470660254,-0.0113422488794,0.999808847904
1505403909886720294,5240,1505403909886599398,0.13028652966,1.05396795273,0.277255445719,0.0121460184455,0.0113334888592,-0.0110777541995,0.999800682068
1505403909896946565,5241,1505403909896812679,0.130727216601,1.05354595184,0.277615219355,0.0133145228028,0.011691221036,-0.0104766059667,0.999788105488
1505403909907222959,5242,1505403909907051392,0.131027787924,1.05332648754,0.279100954533,0.0129465144128,0.0114075047895,-0.011215172708,0.999788224697
1505403909917464069,5243,1505403909917282203,0.131360337138,1.05305576324,0.279896229506,0.013194475323,0.0106224901974,-0.0113350814208,0.999792337418
1505403909927682876,5244,1505403909927523762,0.131695643067,1.05283594131,0.280754297972,0.0129916053265,0.00993817299604,-0.011738108471,0.999797284603
1505403909936933730,5245,1505403909936739242,0.132092177868,1.05267477036,0.28219717741,0.0126442611217,0.0105053018779,-0.0118597149849,0.999794542789
1505403909947070212,5246,1505403909946952077,0.132540389895,1.05246782303,0.283136308193,0.0133575294167,0.0117082856596,-0.0111551089212,0.999779999256
1505403909957282638,5247,1505403909957141338,0.132882118225,1.05225777626,0.284171640873,0.014312883839,0.0118248965591,-0.0109630320221,0.999767541885
1505403909967506780,5248,1505403909967350523,0.13315525651,1.05211448669,0.285169988871,0.0156384985894,0.0116333551705,-0.0116150341928,0.999742567539
1505403909976752046,5249,1505403909976615687,0.133556187153,1.05191421509,0.28597715497,0.0177378039807,0.0114926332608,-0.0112854549661,0.999712884426
1505403909987003192,5250,1505403909986875820,0.133889943361,1.05166661739,0.287137955427,0.0183340758085,0.0115662263706,-0.0112253604457,0.999701976776
1505403909997306478,5251,1505403909997148336,0.13422241807,1.05146479607,0.288243889809,0.0189620312303,0.0120000317693,-0.0111204106361,0.999686300755
1505403910007482519,5252,1505403910007346617,0.134485259652,1.05131840706,0.289362877607,0.0196571908891,0.0125315636396,-0.0112328026444,0.999665141106
1505403910016835992,5253,1505403910016676493,0.134864225984,1.05113744736,0.290670603514,0.0194789655507,0.0129076875746,-0.0112871835008,0.999663293362
1505403910027085773,5254,1505403910026912082,0.135220482945,1.05084717274,0.291853666306,0.0199972838163,0.0132283773273,-0.0108215454966,0.999653935432
1505403910037294575,5255,1505403910037158696,0.135488152504,1.05064463615,0.292998045683,0.0206792969257,0.0131702590734,-0.0110455835238,0.99963837862
1505403910047568947,5256,1505403910047415777,0.135774314404,1.05045521259,0.294152885675,0.0214185155928,0.0132702784613,-0.0111845666543,0.999619960785
1505403910056711448,5257,1505403910056594004,0.136042639613,1.05022716522,0.29547649622,0.0221622809768,0.0135438973084,-0.0111826471984,0.999600112438
1505403910067039460,5258,1505403910066893103,0.136373102665,1.04995286465,0.296585649252,0.0229624640197,0.013880867511,-0.0112205548212,0.999576985836
1505403910077340094,5259,1505403910077115776,0.136628463864,1.0497494936,0.297971516848,0.0233530122787,0.0139669356868,-0.0112678166479,0.999566197395
1505403910087523358,5260,1505403910087364397,0.136955469847,1.04956483841,0.299318552017,0.0232794992626,0.0137722892687,-0.0112985381857,0.999570250511
1505403910097673119,5261,1505403910097541949,0.137227550149,1.04934966564,0.300636589527,0.0232151057571,0.013815891929,-0.0113364309072,0.999570727348
1505403910106966070,5262,1505403910106765133,0.13738450408,1.04913234711,0.30210646987,0.0228901356459,0.0141300335526,-0.0116003714502,0.999570846558
1505403910117173494,5263,1505403910117003896,0.13776448369,1.04889667034,0.303650528193,0.0227219797671,0.0146125787869,-0.0114651080221,0.999569237232
1505403910127330621,5264,1505403910127209757,0.138031244278,1.0486702919,0.305082798004,0.0227425675839,0.0150465611368,-0.0115002924576,0.999561905861
1505403910137654339,5265,1505403910137447237,0.138259783387,1.048427701,0.306616306305,0.0227003283799,0.0151094160974,-0.0116718085483,0.999559998512
1505403910146751989,5266,1505403910146591493,0.13854829967,1.04815411568,0.308116853237,0.0226017981768,0.0153351575136,-0.0115556158125,0.999560058117
1505403910156882083,5267,1505403910156770282,0.13873013854,1.04790639877,0.30964666605,0.0222870986909,0.0155080975965,-0.0117908651009,0.999561727047
1505403910167174537,5268,1505403910167002498,0.13903068006,1.04764389992,0.311316043139,0.0217995271087,0.0156693253666,-0.0117017878219,0.999571025372
1505403910187568763,5269,1505403910187422176,0.13928219676,1.04740273952,0.312835395336,0.0214466154575,0.0157200153917,-0.0115657243878,0.999579489231
1505403910187576366,5270,1505403910187479299,0.139529615641,1.047098279,0.314585804939,0.0208888836205,0.015683170408,-0.0117443902418,0.999589800835
1505403910196987009,5271,1505403910196795157,0.139765739441,1.04686415195,0.316273897886,0.0206865947694,0.0158595535904,-0.0119374589995,0.99958896637
1505403910207270570,5272,1505403910207053584,0.139979660511,1.04668486118,0.317762881517,0.0205470845103,0.0156416371465,-0.0122381765395,0.999591648579
1505403910217396812,5273,1505403910217278914,0.140152156353,1.04644286633,0.319512814283,0.0202367324382,0.0154676716775,-0.0124287120998,0.999598264694
1505403910227764377,5274,1505403910227578454,0.140417799354,1.04618966579,0.321243822575,0.0201288405806,0.0157837122679,-0.01262871176,0.999593019485
1505403910247137143,5275,1505403910246978713,0.14063616097,1.04592525959,0.322876751423,0.0197741892189,0.0156770255417,-0.0128048760816,0.999599516392
1505403910257433948,5276,1505403910257230460,0.140829861164,1.04574859142,0.324974000454,0.0188057646155,0.0156250782311,-0.0130866048858,0.999615371227
1505403910257437686,5277,1505403910257250235,0.141093552113,1.04549610615,0.326457083225,0.0184285230935,0.0155189447105,-0.0130133591592,0.999624967575
1505403910267673819,5278,1505403910267464123,0.141219139099,1.04525077343,0.328361541033,0.0171302556992,0.015544321388,-0.0135520054027,0.999640583992
1505403910287092394,5279,1505403910286888786,0.141512602568,1.04500389099,0.330466330051,0.0162427332252,0.0158192757517,-0.0133803123608,0.999653339386
1505403910287128407,5280,1505403910286912413,0.141756042838,1.04476845264,0.331984519958,0.0154853910208,0.015224095434,-0.0135428057984,0.999672412872
1505403910297308082,5281,1505403910297149043,0.14187335968,1.04460000992,0.334046185017,0.0145295895636,0.0149835310876,-0.0140201607719,0.999683856964
1505403910316821940,5282,1505403910316647765,0.142136588693,1.04443383217,0.335849136114,0.0139655666426,0.014686034061,-0.0142319304869,0.999693334103
1505403910316827466,5283,1505403910316677443,0.142309874296,1.04431080818,0.337552011013,0.0133114214987,0.0146375922486,-0.0148005858064,0.999694705009
1505403910327057102,5284,1505403910326906353,0.142416521907,1.04423666,0.339631319046,0.0128981778398,0.015196823515,-0.0153305726126,0.999683797359
1505403910347641280,5285,1505403910347472555,0.142750412226,1.04406917095,0.341528892517,0.0128255421296,0.0152176106349,-0.0155866388232,0.999680399895
1505403910356908302,5286,1505403910356721619,0.14289496839,1.04400527477,0.343263119459,0.0124156149104,0.0150814773515,-0.0161608885974,0.999678552151
1505403910356913925,5287,1505403910356747206,0.143013581634,1.0440018177,0.345228284597,0.0119563816115,0.014959609136,-0.0170515198261,0.999671161175
1505403910367173996,5288,1505403910367025385,0.143326848745,1.04385137558,0.347037255764,0.0115160057321,0.0147646749392,-0.0172926150262,0.999675154686
1505403910387740512,5289,1505403910387506703,0.143496617675,1.04378855228,0.348930805922,0.0105983680114,0.0148992026225,-0.0176936592907,0.99967622757
1505403910387744781,5290,1505403910387530675,0.143793329597,1.04374182224,0.35111746192,0.0101011684164,0.0149420155212,-0.0181075558066,0.999673366547
1505403910396867108,5291,1505403910396725938,0.143966913223,1.04365992546,0.352658092976,0.00982151180506,0.0149839557707,-0.0181775987148,0.999674201012
1505403910407260650,5292,1505403910407042473,0.144215166569,1.04360473156,0.354765623808,0.00878031458706,0.0149964662269,-0.0186763294041,0.999674499035
1505403910417477926,5293,1505403910417252822,0.144556552172,1.04356336594,0.356771945953,0.00847018603235,0.0148688172922,-0.0186413843185,0.999679744244
1505403910436776795,5294,1505403910436602625,0.144774764776,1.04356992245,0.358319580555,0.00810577720404,0.0148120205849,-0.018879648298,0.999679148197
1505403910436781868,5295,1505403910436631365,0.145089417696,1.04361200333,0.360566139221,0.00746072968468,0.0147559735924,-0.0190872903913,0.999681055546
1505403910447169027,5296,1505403910447002614,0.145334661007,1.04364848137,0.36222794652,0.00736622791737,0.0147546548396,-0.0190717633814,0.999682068825
1505403910467600681,5297,1505403910467404721,0.145574703813,1.04370355606,0.363986253738,0.00688514346257,0.0149237578735,-0.0195812638849,0.999673128128
1505403910467616366,5298,1505403910467460120,0.145954251289,1.04375851154,0.366205632687,0.00643499055877,0.0150220040232,-0.0197048299015,0.999672293663
1505403910476879042,5299,1505403910476713862,0.146252974868,1.04384422302,0.367640137672,0.00619792658836,0.0149744013324,-0.0196654703468,0.999675214291
1505403910487015862,5300,1505403910486889998,0.146572798491,1.04394388199,0.369693279266,0.00581877212971,0.0149077158421,-0.0201659332961,0.99966853857
1505403910497290774,5301,1505403910497092643,0.146875634789,1.04410588741,0.37170752883,0.00541814509779,0.0150309428573,-0.0203741677105,0.999664723873
1505403910507687661,5302,1505403910507353008,0.147237196565,1.04422831535,0.373044401407,0.00540944049135,0.0153293618932,-0.0202169977129,0.999663472176
1505403910527115445,5303,1505403910526907086,0.147634282708,1.04439640045,0.375606119633,0.00466229533777,0.0157764144242,-0.0206354279071,0.999651670456
1505403910527121356,5304,1505403910526935658,0.147944018245,1.04457366467,0.376835793257,0.00494809774682,0.0162593182176,-0.020755354315,0.99964004755
1505403910537297327,5305,1505403910537129168,0.14830763638,1.0448564291,0.378850996494,0.00404777005315,0.0161410402507,-0.0215020738542,0.999630391598
1505403910557830102,5306,1505403910557614004,0.148712724447,1.04523825645,0.380965679884,0.00341642391868,0.0154505819082,-0.0221182703972,0.999630093575
1505403910557834892,5307,1505403910557658119,0.149023875594,1.04561054707,0.382021844387,0.00360066373833,0.0145940221846,-0.0228647403419,0.999625563622
1505403910567097575,5308,1505403910566983228,0.149440154433,1.0460922718,0.384345173836,0.00288350298069,0.0147071136162,-0.0237090438604,0.99960654974
1505403910587804351,5309,1505403910587472555,0.14986500144,1.04653775692,0.386014789343,0.00294281309471,0.0158172156662,-0.0235603861511,0.999593019485
