%time,field.header.seq,field.header.stamp,field.header.frame_id,field.orientation.x,field.orientation.y,field.orientation.z,field.orientation.w,field.orientation_covariance0,field.orientation_covariance1,field.orientation_covariance2,field.orientation_covariance3,field.orientation_covariance4,field.orientation_covariance5,field.orientation_covariance6,field.orientation_covariance7,field.orientation_covariance8,field.angular_velocity.x,field.angular_velocity.y,field.angular_velocity.z,field.angular_velocity_covariance0,field.angular_velocity_covariance1,field.angular_velocity_covariance2,field.angular_velocity_covariance3,field.angular_velocity_covariance4,field.angular_velocity_covariance5,field.angular_velocity_covariance6,field.angular_velocity_covariance7,field.angular_velocity_covariance8,field.linear_acceleration.x,field.linear_acceleration.y,field.linear_acceleration.z,field.linear_acceleration_covariance0,field.linear_acceleration_covariance1,field.linear_acceleration_covariance2,field.linear_acceleration_covariance3,field.linear_acceleration_covariance4,field.linear_acceleration_covariance5,field.linear_acceleration_covariance6,field.linear_acceleration_covariance7,field.linear_acceleration_covariance8
1505403906767567440,8724,1505403906767324492,-0.00904137316063,0.0107538712831,-0.998834470884,0.0461769162808,1.0,0.0,0.0,0.0,1.0,0.0,0.0,0.0,100000.0,-0.000817757099867,-0.0426881983876,0.232094675303,1.0,0.0,0.0,0.0,1.0,0.0,0.0,0.0,1.0,-0.388281484693,-4.07613651752,8.77236257792,0.1,0.0,0.0,0.0,0.1,0.0,0.0,0.0,0.1
1505403906775639134,8725,1505403906775402252,-0.00883991702986,0.0119295391947,-0.998799758684,0.0466753041052,1.0,0.0,0.0,0.0,1.0,0.0,0.0,0.0,100000.0,-0.25795969367,0.0837471112609,0.130961820483,1.0,0.0,0.0,0.0,1.0,0.0,0.0,0.0,1.0,-0.415171410888,-4.23747110963,8.83601123095,0.1,0.0,0.0,0.0,0.1,0.0,0.0,0.0,0.1
1505403906777925518,8726,1505403906777686349,-0.00882618357315,0.0130908249876,-0.998779248401,0.0468053602424,1.0,0.0,0.0,0.0,1.0,0.0,0.0,0.0,100000.0,-0.222389861941,0.0194164700806,-0.0156883001328,1.0,0.0,0.0,0.0,1.0,0.0,0.0,0.0,1.0,-0.216219646484,-4.87427540421,8.9702555418,0.1,0.0,0.0,0.0,0.1,0.0,0.0,0.0,0.1
1505403906783137594,8727,1505403906782993494,-0.00861706144598,0.0147598651566,-0.998755421416,0.0468561716749,1.0,0.0,0.0,0.0,1.0,0.0,0.0,0.0,100000.0,-0.398738026619,0.116312198341,-0.0471988916397,1.0,0.0,0.0,0.0,1.0,0.0,0.0,0.0,1.0,-0.132249558717,-5.2980365634,9.24049361944,0.1,0.0,0.0,0.0,0.1,0.0,0.0,0.0,0.1
1505403906786277290,8728,1505403906786141319,-0.00844067327067,0.0162313495817,-0.998761315868,0.0462723702863,1.0,0.0,0.0,0.0,1.0,0.0,0.0,0.0,100000.0,-0.332587063313,0.103719107807,-0.302675664425,1.0,0.0,0.0,0.0,1.0,0.0,0.0,0.0,1.0,-0.0979596657678,-5.23937166929,9.34529508352,0.1,0.0,0.0,0.0,0.1,0.0,0.0,0.0,0.1
1505403906791426252,8729,1505403906791303380,-0.00841205297205,0.0171682148675,-0.998751848635,0.0461436302253,1.0,0.0,0.0,0.0,1.0,0.0,0.0,0.0,100000.0,-0.110680766404,0.0433432608843,-0.118778526783,1.0,0.0,0.0,0.0,1.0,0.0,0.0,0.0,1.0,0.0492336445488,-5.42066612244,9.48346471786,0.1,0.0,0.0,0.0,0.1,0.0,0.0,0.0,0.1
1505403906799558576,8730,1505403906799352391,-0.00824952328817,0.0180003635341,-0.998760734798,0.0456609998157,1.0,0.0,0.0,0.0,1.0,0.0,0.0,0.0,100000.0,-0.104686640203,0.0848907008767,-0.264053761959,1.0,0.0,0.0,0.0,1.0,0.0,0.0,0.0,1.0,-0.1143791968,-4.79785630703,9.42646166086,0.1,0.0,0.0,0.0,0.1,0.0,0.0,0.0,0.1
1505403906801452188,8731,1505403906801265118,-0.00834361415027,0.0180590773725,-0.998770524341,0.0454058755492,1.0,0.0,0.0,0.0,1.0,0.0,0.0,0.0,100000.0,0.210232079029,-0.0303263664246,-0.173786461353,1.0,0.0,0.0,0.0,1.0,0.0,0.0,0.0,1.0,-0.113832482696,-5.07016861439,9.53684794903,0.1,0.0,0.0,0.0,0.1,0.0,0.0,0.0,0.1
1505403906808141804,8732,1505403906807996060,-0.00832053653278,0.0184253965024,-0.998754595334,0.0456128461486,1.0,0.0,0.0,0.0,1.0,0.0,0.0,0.0,100000.0,0.0958240628242,-0.00152203626931,0.00810742378235,1.0,0.0,0.0,0.0,1.0,0.0,0.0,0.0,1.0,-0.38573217839,-5.14798932076,9.41742699146,0.1,0.0,0.0,0.0,0.1,0.0,0.0,0.0,0.1
1505403906819180843,8733,1505403906818936726,-0.00843242406437,0.018680624779,-0.998739128608,0.0458266458391,1.0,0.0,0.0,0.0,1.0,0.0,0.0,0.0,100000.0,0.155381411314,-0.0574916303158,0.0133692026138,1.0,0.0,0.0,0.0,1.0,0.0,0.0,0.0,1.0,-0.481982190907,-5.47873345613,9.40523570776,0.1,0.0,0.0,0.0,0.1,0.0,0.0,0.0,0.1
1505403906821443052,8734,1505403906820994378,-0.00864357653189,0.0188817742589,-0.998689344498,0.0467799141896,1.0,0.0,0.0,0.0,1.0,0.0,0.0,0.0,100000.0,0.20051689446,-0.107971154153,0.303996920586,1.0,0.0,0.0,0.0,1.0,0.0,0.0,0.0,1.0,-0.508461622894,-5.86337018013,9.27606627941,0.1,0.0,0.0,0.0,0.1,0.0,0.0,0.0,0.1
1505403906821964988,8735,1505403906821842544,-0.00876569752723,0.0197270676572,-0.998642767697,0.0473986062645,1.0,0.0,0.0,0.0,1.0,0.0,0.0,0.0,100000.0,-0.0743661448359,-0.0641530379653,0.176133289933,1.0,0.0,0.0,0.0,1.0,0.0,0.0,0.0,1.0,-0.610295145214,-5.61690309048,9.12022743225,0.1,0.0,0.0,0.0,0.1,0.0,0.0,0.0,0.1
1505403906826192014,8736,1505403906825985174,-0.00899510607721,0.0204541338408,-0.998600388765,0.0479372510121,1.0,0.0,0.0,0.0,1.0,0.0,0.0,0.0,100000.0,-0.0224480554461,-0.0964049175382,0.142852365971,1.0,0.0,0.0,0.0,1.0,0.0,0.0,0.0,1.0,-0.405474708229,-5.8192307353,9.16172546148,0.1,0.0,0.0,0.0,0.1,0.0,0.0,0.0,0.1
1505403906831379614,8737,1505403906831228810,-0.00905708709776,0.0219063176318,-0.998548639095,0.0483600846085,1.0,0.0,0.0,0.0,1.0,0.0,0.0,0.0,100000.0,-0.341952592134,-0.0218365006149,0.0981794670224,1.0,0.0,0.0,0.0,1.0,0.0,0.0,0.0,1.0,-0.546903799474,-5.20064473152,9.05529545546,0.1,0.0,0.0,0.0,0.1,0.0,0.0,0.0,0.1
1505403906843170384,8738,1505403906842975478,-0.00901850240925,0.0230103283609,-0.998534223662,0.0481517972624,1.0,0.0,0.0,0.0,1.0,0.0,0.0,0.0,100000.0,-0.234220594168,0.0238867476583,-0.153275251389,1.0,0.0,0.0,0.0,1.0,0.0,0.0,0.0,1.0,-0.392300195247,-4.78587793708,9.37819420099,0.1,0.0,0.0,0.0,0.1,0.0,0.0,0.0,0.1
1505403906846390880,8739,1505403906846215548,-0.00885937294231,0.0236993975207,-0.998520018281,0.0481416987672,1.0,0.0,0.0,0.0,1.0,0.0,0.0,0.0,100000.0,-0.121072404087,0.0660902634263,-0.0715194642544,1.0,0.0,0.0,0.0,1.0,0.0,0.0,0.0,1.0,-0.384618068486,-3.83327085376,9.47371741533,0.1,0.0,0.0,0.0,0.1,0.0,0.0,0.0,0.1
1505403906847204102,8740,1505403906847052836,-0.00853787407649,0.0241640583287,-0.998534890509,0.0476578999426,1.0,0.0,0.0,0.0,1.0,0.0,0.0,0.0,100000.0,-0.104260466993,0.135834753513,-0.259914964437,1.0,0.0,0.0,0.0,1.0,0.0,0.0,0.0,1.0,-0.258311968669,-2.63352493644,9.83513514996,0.1,0.0,0.0,0.0,0.1,0.0,0.0,0.0,0.1
1505403906851751036,8741,1505403906851405370,-0.00817579754597,0.0237566387018,-0.998568250905,0.0472252764616,1.0,0.0,0.0,0.0,1.0,0.0,0.0,0.0,100000.0,0.200347959995,0.146253213286,-0.241936564445,1.0,0.0,0.0,0.0,1.0,0.0,0.0,0.0,1.0,-0.0586952229962,-1.83735776544,9.89337012768,0.1,0.0,0.0,0.0,0.1,0.0,0.0,0.0,0.1
1505403906856247873,8742,1505403906856125502,-0.00776567029249,0.0236637335862,-0.998581042436,0.0470704128382,1.0,0.0,0.0,0.0,1.0,0.0,0.0,0.0,100000.0,0.0235050991178,0.160432115197,-0.130018353462,1.0,0.0,0.0,0.0,1.0,0.0,0.0,0.0,1.0,-0.238251784071,-0.92520750761,9.84424049854,0.1,0.0,0.0,0.0,0.1,0.0,0.0,0.0,0.1
1505403906865761179,8743,1505403906865535566,-0.00740831339033,0.0232543847662,-0.998605136013,0.0468202179742,1.0,0.0,0.0,0.0,1.0,0.0,0.0,0.0,100000.0,0.130405202508,0.14214040339,-0.167568281293,1.0,0.0,0.0,0.0,1.0,0.0,0.0,0.0,1.0,-0.119179841504,-0.60247585848,9.71378891468,0.1,0.0,0.0,0.0,0.1,0.0,0.0,0.0,0.1
1505403906866630429,8744,1505403906866468884,-0.00712638731141,0.0228906034082,-0.998603285071,0.0470819915072,1.0,0.0,0.0,0.0,1.0,0.0,0.0,0.0,100000.0,0.0855064541101,0.0948643237352,0.0393664240837,1.0,0.0,0.0,0.0,1.0,0.0,0.0,0.0,1.0,-0.339028605074,-0.101015418023,9.49919054508,0.1,0.0,0.0,0.0,0.1,0.0,0.0,0.0,0.1
1505403906874961123,8745,1505403906874743611,-0.00699050822914,0.0225470167181,-0.998606463475,0.0472005925662,1.0,0.0,0.0,0.0,1.0,0.0,0.0,0.0,100000.0,0.056220036,0.0402339100838,-0.0225705504417,1.0,0.0,0.0,0.0,1.0,0.0,0.0,0.0,1.0,-0.292618919909,0.230796991661,9.51476683617,0.1,0.0,0.0,0.0,0.1,0.0,0.0,0.0,0.1
1505403906876540313,8746,1505403906876379040,-0.0068622398338,0.0219315188401,-0.998608763008,0.0474600525647,1.0,0.0,0.0,0.0,1.0,0.0,0.0,0.0,100000.0,0.158733800054,0.038528740406,0.0347618758678,1.0,0.0,0.0,0.0,1.0,0.0,0.0,0.0,1.0,-0.204372814298,0.318189379573,9.50370408297,0.1,0.0,0.0,0.0,0.1,0.0,0.0,0.0,0.1
1505403906883132665,8747,1505403906882957892,-0.00687475852266,0.0214834281457,-0.998601674218,0.0478110474533,1.0,0.0,0.0,0.0,1.0,0.0,0.0,0.0,100000.0,0.0712132826447,-0.0226331651211,0.0680632218719,1.0,0.0,0.0,0.0,1.0,0.0,0.0,0.0,1.0,-0.30843514055,0.651973085105,9.44812220335,0.1,0.0,0.0,0.0,0.1,0.0,0.0,0.0,0.1
1505403906891849755,8748,1505403906891709481,-0.00673946145997,0.0209207910422,-0.998602525453,0.0480613807638,1.0,0.0,0.0,0.0,1.0,0.0,0.0,0.0,100000.0,0.142083764076,0.0443558730185,0.0315076038241,1.0,0.0,0.0,0.0,1.0,0.0,0.0,0.0,1.0,-0.132888327353,0.344811338186,9.38215340376,0.1,0.0,0.0,0.0,0.1,0.0,0.0,0.0,0.1
1505403906894222613,8749,1505403906893310211,-0.00664100178635,0.0206696395317,-0.998585893724,0.048527064122,1.0,0.0,0.0,0.0,1.0,0.0,0.0,0.0,100000.0,0.00737313181162,0.0216781459749,0.116904959083,1.0,0.0,0.0,0.0,1.0,0.0,0.0,0.0,1.0,-0.374212931097,0.487458659708,9.14514797926,0.1,0.0,0.0,0.0,0.1,0.0,0.0,0.0,0.1
1505403906897279206,8750,1505403906897087618,-0.00653536486441,0.0205069498866,-0.998573209039,0.0488702383987,1.0,0.0,0.0,0.0,1.0,0.0,0.0,0.0,100000.0,-0.0233550257981,0.0369766615331,0.0657453238964,1.0,0.0,0.0,0.0,1.0,0.0,0.0,0.0,1.0,-0.200119905919,0.410814236104,9.29421797991,0.1,0.0,0.0,0.0,0.1,0.0,0.0,0.0,0.1
1505403906907251686,8751,1505403906907039233,-0.00639567106156,0.0202418952665,-0.998569042919,0.0490838832255,1.0,0.0,0.0,0.0,1.0,0.0,0.0,0.0,100000.0,0.0154136158526,0.0498511493206,0.0169208645821,1.0,0.0,0.0,0.0,1.0,0.0,0.0,0.0,1.0,-0.203385350108,0.472397968918,9.41886686087,0.1,0.0,0.0,0.0,0.1,0.0,0.0,0.0,0.1
1505403906907344474,8752,1505403906907075125,-0.00637723223507,0.0199976059015,-0.998568422138,0.0491989123396,1.0,0.0,0.0,0.0,1.0,0.0,0.0,0.0,100000.0,0.00363614037633,-0.00292960461229,-0.023141503334,1.0,0.0,0.0,0.0,1.0,0.0,0.0,0.0,1.0,-0.290492721274,0.492947212607,9.58972240686,0.1,0.0,0.0,0.0,0.1,0.0,0.0,0.0,0.1
1505403906911751931,8753,1505403906911541127,-0.00621403356007,0.0195960783965,-0.998586149584,0.0490212337332,1.0,0.0,0.0,0.0,1.0,0.0,0.0,0.0,100000.0,0.0604740418494,0.064268887043,-0.138156577945,1.0,0.0,0.0,0.0,1.0,0.0,0.0,0.0,1.0,-0.0830487575382,0.579651957005,9.6825948596,0.1,0.0,0.0,0.0,0.1,0.0,0.0,0.0,0.1
1505403906919383237,8754,1505403906919200368,-0.00612892253348,0.0192084903207,-0.998606398917,0.0487722282723,1.0,0.0,0.0,0.0,1.0,0.0,0.0,0.0,100000.0,0.0532399900258,0.0206664539874,-0.169788181782,1.0,0.0,0.0,0.0,1.0,0.0,0.0,0.0,1.0,-0.365338750184,0.70851753056,9.3063929081,0.1,0.0,0.0,0.0,0.1,0.0,0.0,0.0,0.1
1505403906923772894,8755,1505403906923591027,-0.00607828853745,0.0187662321188,-0.998622184042,0.0486273223546,1.0,0.0,0.0,0.0,1.0,0.0,0.0,0.0,100000.0,0.0728916525841,0.0174199603498,-0.128386676311,1.0,0.0,0.0,0.0,1.0,0.0,0.0,0.0,1.0,-0.0991373723373,0.668549837172,9.38987203836,0.1,0.0,0.0,0.0,0.1,0.0,0.0,0.0,0.1
1505403906931568025,8756,1505403906931368545,-0.00597066573445,0.0182838178955,-0.998645956527,0.0483353562639,1.0,0.0,0.0,0.0,1.0,0.0,0.0,0.0,100000.0,0.100006267428,0.0295197889209,-0.188935577869,1.0,0.0,0.0,0.0,1.0,0.0,0.0,0.0,1.0,-0.298210899532,0.589804533124,9.17072508335,0.1,0.0,0.0,0.0,0.1,0.0,0.0,0.0,0.1
1505403906934256275,8757,1505403906934102999,-0.00609137491027,0.0176481368457,-0.998648579339,0.0485020968842,1.0,0.0,0.0,0.0,1.0,0.0,0.0,0.0,100000.0,0.171895012259,-0.058533526957,-0.0060042142868,1.0,0.0,0.0,0.0,1.0,0.0,0.0,0.0,1.0,-0.179170992598,0.285926776379,9.46746259928,0.1,0.0,0.0,0.0,0.1,0.0,0.0,0.0,0.1
1505403906940628394,8758,1505403906940414222,-0.00605008980796,0.0171078191691,-0.998651279255,0.0486450550281,1.0,0.0,0.0,0.0,1.0,0.0,0.0,0.0,100000.0,0.16198939085,0.00190818402916,-0.011933863163,1.0,0.0,0.0,0.0,1.0,0.0,0.0,0.0,1.0,-0.271665516123,-0.0887067889795,9.46358575821,0.1,0.0,0.0,0.0,0.1,0.0,0.0,0.0,0.1
1505403906942139364,8759,1505403906941913913,-0.0060988440799,0.0167101659546,-0.998637616188,0.0490559475417,1.0,0.0,0.0,0.0,1.0,0.0,0.0,0.0,100000.0,0.126032814384,-0.0440167076886,0.0916284024715,1.0,0.0,0.0,0.0,1.0,0.0,0.0,0.0,1.0,-0.422568593919,-0.495637402683,9.42475075722,0.1,0.0,0.0,0.0,0.1,0.0,0.0,0.0,0.1
1505403906947098719,8760,1505403906946886276,-0.0061182119692,0.0166792179178,-0.99860265488,0.0497705619678,1.0,0.0,0.0,0.0,1.0,0.0,0.0,0.0,100000.0,-0.00318317115307,-0.0239516850561,0.214438319206,1.0,0.0,0.0,0.0,1.0,0.0,0.0,0.0,1.0,-0.369623456895,-0.77014080137,9.48208442926,0.1,0.0,0.0,0.0,0.1,0.0,0.0,0.0,0.1
1505403906951697932,8761,1505403906951571365,-0.00599805102548,0.0168922011628,-0.998573550272,0.0502945486115,1.0,0.0,0.0,0.0,1.0,0.0,0.0,0.0,100000.0,-0.0760631710291,0.0314367488027,0.139137417078,1.0,0.0,0.0,0.0,1.0,0.0,0.0,0.0,1.0,-0.54511852935,-1.0804489404,9.21789146662,0.1,0.0,0.0,0.0,0.1,0.0,0.0,0.0,0.1
1505403906957463456,8762,1505403906957269563,-0.00604702505468,0.017234984041,-0.998526372705,0.051102561831,1.0,0.0,0.0,0.0,1.0,0.0,0.0,0.0,100000.0,-0.122072346509,-0.0333814658225,0.255513906479,1.0,0.0,0.0,0.0,1.0,0.0,0.0,0.0,1.0,-0.416457290202,-1.27869573832,9.31897146702,0.1,0.0,0.0,0.0,0.1,0.0,0.0,0.0,0.1
1505403906962567844,8763,1505403906962375399,-0.00586699809147,0.0176702938742,-0.998498725937,0.0515134288236,1.0,0.0,0.0,0.0,1.0,0.0,0.0,0.0,100000.0,-0.154498010874,0.0661704316735,0.0947362184525,1.0,0.0,0.0,0.0,1.0,0.0,0.0,0.0,1.0,-0.422646428645,-1.31741216183,9.0700674057,0.1,0.0,0.0,0.0,0.1,0.0,0.0,0.0,0.1
1505403906967902953,8764,1505403906967695266,-0.00593717119349,0.0178236189778,-0.998492548017,0.0515722809162,1.0,0.0,0.0,0.0,1.0,0.0,0.0,0.0,100000.0,-0.0545810759068,-0.0300706084818,-0.0468603372574,1.0,0.0,0.0,0.0,1.0,0.0,0.0,0.0,1.0,-0.295666631311,-1.20046190917,9.18432819843,0.1,0.0,0.0,0.0,0.1,0.0,0.0,0.0,0.1
1505403906980949344,8765,1505403906980607199,-0.00585001099791,0.0180029585522,-0.998490706311,0.0515556036278,1.0,0.0,0.0,0.0,1.0,0.0,0.0,0.0,100000.0,-0.0672321394086,0.0440847575665,-0.0756849646568,1.0,0.0,0.0,0.0,1.0,0.0,0.0,0.0,1.0,-0.160301785171,-1.08634451926,9.27662762403,0.1,0.0,0.0,0.0,0.1,0.0,0.0,0.0,0.1
1505403906983082279,8766,1505403906982898388,-0.00579298261999,0.0179386945411,-0.998520328344,0.0510078275802,1.0,0.0,0.0,0.0,1.0,0.0,0.0,0.0,100000.0,0.00668597593904,0.0360845886171,-0.291196942329,1.0,0.0,0.0,0.0,1.0,0.0,0.0,0.0,1.0,0.00192978243576,-0.768659313023,9.41616119146,0.1,0.0,0.0,0.0,0.1,0.0,0.0,0.0,0.1
1505403906990109454,8767,1505403906989903665,-0.00575374213175,0.0178887521659,-0.998526288758,0.0509130401388,1.0,0.0,0.0,0.0,1.0,0.0,0.0,0.0,100000.0,-0.000880718231201,0.0357529483736,-0.107258677483,1.0,0.0,0.0,0.0,1.0,0.0,0.0,0.0,1.0,0.107247069851,-0.686595080793,9.53779072762,0.1,0.0,0.0,0.0,0.1,0.0,0.0,0.0,0.1
1505403907008748443,8768,1505403907008534612,-0.00559974248096,0.0178184932243,-0.998533589335,0.0508115651546,1.0,0.0,0.0,0.0,1.0,0.0,0.0,0.0,100000.0,-0.00814149901271,0.0788910984993,-0.109611272812,1.0,0.0,0.0,0.0,1.0,0.0,0.0,0.0,1.0,0.144494855776,-0.419650047272,9.38398113251,0.1,0.0,0.0,0.0,0.1,0.0,0.0,0.0,0.1
1505403907014169322,8769,1505403907013995504,-0.00566452505929,0.0175708949113,-0.998541157078,0.0507418410168,1.0,0.0,0.0,0.0,1.0,0.0,0.0,0.0,100000.0,0.0618381798267,-0.0194202568382,-0.097248852253,1.0,0.0,0.0,0.0,1.0,0.0,0.0,0.0,1.0,-0.0486407571472,-0.420971412212,9.40177359581,0.1,0.0,0.0,0.0,0.1,0.0,0.0,0.0,0.1
1505403907015707574,8770,1505403907015533256,-0.00560581237987,0.0174847149001,-0.998523366552,0.051126764633,1.0,0.0,0.0,0.0,1.0,0.0,0.0,0.0,100000.0,-0.00611549289897,0.0227437801659,0.0811748504639,1.0,0.0,0.0,0.0,1.0,0.0,0.0,0.0,1.0,-0.106142634526,-0.357917143404,9.52450420856,0.1,0.0,0.0,0.0,0.1,0.0,0.0,0.0,0.1
1505403907016469028,8771,1505403907016331437,-0.00562178175731,0.0174311457499,-0.998520637734,0.0511965501571,1.0,0.0,0.0,0.0,1.0,0.0,0.0,0.0,100000.0,-0.0103541538119,-0.0175759904087,-0.0408723652363,1.0,0.0,0.0,0.0,1.0,0.0,0.0,0.0,1.0,-0.407640390098,-0.473148716241,9.72006826401,0.1,0.0,0.0,0.0,0.1,0.0,0.0,0.0,0.1
1505403907018111345,8772,1505403907017972293,-0.00553416348469,0.0175905719471,-0.998492238915,0.0517029364789,1.0,0.0,0.0,0.0,1.0,0.0,0.0,0.0,100000.0,-0.0964990034699,0.025141581893,0.132762417197,1.0,0.0,0.0,0.0,1.0,0.0,0.0,0.0,1.0,-0.342345415801,-0.460268894583,9.92137544155,0.1,0.0,0.0,0.0,0.1,0.0,0.0,0.0,0.1
1505403907021643534,8773,1505403907021437483,-0.00540355632712,0.0177965094455,-0.998468390804,0.0521052626576,1.0,0.0,0.0,0.0,1.0,0.0,0.0,0.0,100000.0,-0.124468892813,0.0339191183448,0.0908288136125,1.0,0.0,0.0,0.0,1.0,0.0,0.0,0.0,1.0,-0.540214686096,-0.273541179672,9.67736518383,0.1,0.0,0.0,0.0,0.1,0.0,0.0,0.0,0.1
1505403907024437153,8774,1505403907024172276,-0.00536233083291,0.017789234974,-0.998460499083,0.0522629916642,1.0,0.0,0.0,0.0,1.0,0.0,0.0,0.0,100000.0,-0.0612600371242,-0.00206707790494,-0.00726670026779,1.0,0.0,0.0,0.0,1.0,0.0,0.0,0.0,1.0,-0.521381128579,0.0257691125385,9.44887747765,0.1,0.0,0.0,0.0,0.1,0.0,0.0,0.0,0.1
1505403907024466888,8775,1505403907024193615,-0.00532434868969,0.0176238413163,-0.998447089261,0.0525781463513,1.0,0.0,0.0,0.0,1.0,0.0,0.0,0.0,100000.0,-0.0223783124238,-0.00351182580926,0.0540179163218,1.0,0.0,0.0,0.0,1.0,0.0,0.0,0.0,1.0,-0.435527710617,0.519109318405,9.27697050571,0.1,0.0,0.0,0.0,0.1,0.0,0.0,0.0,0.1
1505403907027633329,8776,1505403907027422686,-0.00539821249964,0.0172536748548,-0.998461387077,0.0524216417309,1.0,0.0,0.0,0.0,1.0,0.0,0.0,0.0,100000.0,0.0536196306348,-0.0467407479882,-0.134108155966,1.0,0.0,0.0,0.0,1.0,0.0,0.0,0.0,1.0,-0.416032229364,0.583432855457,9.25412769318,0.1,0.0,0.0,0.0,0.1,0.0,0.0,0.0,0.1
1505403907038121261,8777,1505403907037869361,-0.00545487904316,0.0169529453911,-0.998458423225,0.052570134373,1.0,0.0,0.0,0.0,1.0,0.0,0.0,0.0,100000.0,0.0163298249245,-0.0258666239679,-0.0103854062036,1.0,0.0,0.0,0.0,1.0,0.0,0.0,0.0,1.0,-0.135150618106,0.763657519221,9.54002325535,0.1,0.0,0.0,0.0,0.1,0.0,0.0,0.0,0.1
1505403907048082763,8778,1505403907047118521,-0.00540167919275,0.0167722682034,-0.998461671627,0.0525718857587,1.0,0.0,0.0,0.0,1.0,0.0,0.0,0.0,100000.0,-0.0247656591237,0.018498538062,-0.0711651071906,1.0,0.0,0.0,0.0,1.0,0.0,0.0,0.0,1.0,-0.201532029361,0.682858137786,9.36008923054,0.1,0.0,0.0,0.0,0.1,0.0,0.0,0.0,0.1
1505403907048089711,8779,1505403907047721293,-0.00544641560325,0.0166656148442,-0.998469650821,0.0524495017042,1.0,0.0,0.0,0.0,1.0,0.0,0.0,0.0,100000.0,-0.0605569854379,-0.0111662540585,-0.120099067688,1.0,0.0,0.0,0.0,1.0,0.0,0.0,0.0,1.0,-0.087856557779,0.735503983498,9.35177069902,0.1,0.0,0.0,0.0,0.1,0.0,0.0,0.0,0.1
1505403907048092775,8780,1505403907047760778,-0.00521571736974,0.0167562912981,-0.99846779803,0.0524793225164,1.0,0.0,0.0,0.0,1.0,0.0,0.0,0.0,100000.0,-0.131905242801,0.0937969014049,-0.0552682876587,1.0,0.0,0.0,0.0,1.0,0.0,0.0,0.0,1.0,-0.207162123173,0.778005905449,9.05307694674,0.1,0.0,0.0,0.0,0.1,0.0,0.0,0.0,0.1
1505403907052567979,8781,1505403907052408200,-0.00519214582695,0.0168719839899,-0.998476490766,0.0522788213827,1.0,0.0,0.0,0.0,1.0,0.0,0.0,0.0,100000.0,-0.142866194248,0.0172296203673,-0.15116071701,1.0,0.0,0.0,0.0,1.0,0.0,0.0,0.0,1.0,-0.180255257338,0.689220871031,9.11849199533,0.1,0.0,0.0,0.0,0.1,0.0,0.0,0.0,0.1
1505403907057370108,8782,1505403907057178445,-0.00506381132899,0.0170706883992,-0.998470506422,0.0523411618018,1.0,0.0,0.0,0.0,1.0,0.0,0.0,0.0,100000.0,-0.170335993171,0.0586354844272,-0.0431653857231,1.0,0.0,0.0,0.0,1.0,0.0,0.0,0.0,1.0,-0.158810567483,0.665538085997,9.27021743059,0.1,0.0,0.0,0.0,0.1,0.0,0.0,0.0,0.1
1505403907063006424,8783,1505403907062626398,-0.0050322476204,0.0172552562165,-0.998460180757,0.0524804731195,1.0,0.0,0.0,0.0,1.0,0.0,0.0,0.0,100000.0,-0.161125928164,0.0127529334277,-0.012987434864,1.0,0.0,0.0,0.0,1.0,0.0,0.0,0.0,1.0,-0.266403877735,0.537403107435,9.35076775551,0.1,0.0,0.0,0.0,0.1,0.0,0.0,0.0,0.1
1505403907067583570,8784,1505403907067307679,-0.00520814947417,0.0173673335519,-0.998445590305,0.0527034543871,1.0,0.0,0.0,0.0,1.0,0.0,0.0,0.0,100000.0,-0.13948559761,-0.071737870574,0.0176735818386,1.0,0.0,0.0,0.0,1.0,0.0,0.0,0.0,1.0,-0.273234878853,0.591088806093,9.31154372692,0.1,0.0,0.0,0.0,0.1,0.0,0.0,0.0,0.1
1505403907075265452,8785,1505403907075104863,-0.0052735009669,0.0173273671891,-0.998427068749,0.0530597863155,1.0,0.0,0.0,0.0,1.0,0.0,0.0,0.0,100000.0,-0.0836354345083,-0.0365270674229,0.0705240219831,1.0,0.0,0.0,0.0,1.0,0.0,0.0,0.0,1.0,-0.312805531174,0.732073414326,9.10298112631,0.1,0.0,0.0,0.0,0.1,0.0,0.0,0.0,0.1
1505403907078631514,8786,1505403907078509094,-0.00565300655353,0.0171397601944,-0.998413221703,0.0533414554083,1.0,0.0,0.0,0.0,1.0,0.0,0.0,0.0,100000.0,-0.0259104836732,-0.167056083679,0.0403033904731,1.0,0.0,0.0,0.0,1.0,0.0,0.0,0.0,1.0,-0.379474149644,0.680350267887,8.96437456608,0.1,0.0,0.0,0.0,0.1,0.0,0.0,0.0,0.1
1505403907082910574,8787,1505403907082496873,-0.00581609356016,0.0169720287797,-0.998396581212,0.0536878936072,1.0,0.0,0.0,0.0,1.0,0.0,0.0,0.0,100000.0,-0.0287485681474,-0.0773202031851,0.0660773217678,1.0,0.0,0.0,0.0,1.0,0.0,0.0,0.0,1.0,-0.313353221864,0.682255539298,8.98143862486,0.1,0.0,0.0,0.0,0.1,0.0,0.0,0.0,0.1
1505403907087939805,8788,1505403907087793911,-0.00608258966565,0.0167988792628,-0.9983826213,0.0539716707545,1.0,0.0,0.0,0.0,1.0,0.0,0.0,0.0,100000.0,-0.0277269855142,-0.122399814427,0.0409113913774,1.0,0.0,0.0,0.0,1.0,0.0,0.0,0.0,1.0,-0.382007611543,0.643232814968,9.04671406746,0.1,0.0,0.0,0.0,0.1,0.0,0.0,0.0,0.1
1505403907094269512,8789,1505403907094084013,-0.00636064845013,0.0167040122823,-0.998371389611,0.0541764388939,1.0,0.0,0.0,0.0,1.0,0.0,0.0,0.0,100000.0,-0.0522572360933,-0.122993841767,0.0104783177376,1.0,0.0,0.0,0.0,1.0,0.0,0.0,0.0,1.0,-0.342305695266,0.505225604028,9.07818675041,0.1,0.0,0.0,0.0,0.1,0.0,0.0,0.0,0.1
1505403907099188719,8790,1505403907099022927,-0.00643136332808,0.0166642461365,-0.998362189069,0.0543496081294,1.0,0.0,0.0,0.0,1.0,0.0,0.0,0.0,100000.0,-0.0711424350739,-0.0397332534194,-0.00237433612347,1.0,0.0,0.0,0.0,1.0,0.0,0.0,0.0,1.0,-0.419898154587,0.565312551707,9.10424867868,0.1,0.0,0.0,0.0,0.1,0.0,0.0,0.0,0.1
1505403907107754810,8791,1505403907107610444,-0.0067058870801,0.016570604204,-0.998362175395,0.0543453116262,1.0,0.0,0.0,0.0,1.0,0.0,0.0,0.0,100000.0,-0.0511217787862,-0.121616125107,-0.076913356781,1.0,0.0,0.0,0.0,1.0,0.0,0.0,0.0,1.0,-0.358998943865,0.53239627555,9.06427404881,0.1,0.0,0.0,0.0,0.1,0.0,0.0,0.0,0.1
1505403907107796902,8792,1505403907107643726,-0.00670454614899,0.0165622433515,-0.998365162542,0.0542931245961,1.0,0.0,0.0,0.0,1.0,0.0,0.0,0.0,100000.0,-0.0829323679209,-0.00557248527184,-0.091348387301,1.0,0.0,0.0,0.0,1.0,0.0,0.0,0.0,1.0,-0.272992576286,0.589526416361,9.2485247612,0.1,0.0,0.0,0.0,0.1,0.0,0.0,0.0,0.1
1505403907112756808,8793,1505403907112615758,-0.0067112365094,0.0165625874305,-0.998371742101,0.0541710677115,1.0,0.0,0.0,0.0,1.0,0.0,0.0,0.0,100000.0,-0.0900385975838,-0.0102982381359,-0.119723245502,1.0,0.0,0.0,0.0,1.0,0.0,0.0,0.0,1.0,-0.342379806191,0.634591408074,9.3272298336,0.1,0.0,0.0,0.0,0.1,0.0,0.0,0.0,0.1
1505403907118731728,8794,1505403907118571017,-0.00663802539423,0.0166626935113,-0.998370527119,0.0541717808884,1.0,0.0,0.0,0.0,1.0,0.0,0.0,0.0,100000.0,-0.122337125242,0.0367486923933,-0.0669157207012,1.0,0.0,0.0,0.0,1.0,0.0,0.0,0.0,1.0,-0.0918173760176,0.532920126617,9.57311279774,0.1,0.0,0.0,0.0,0.1,0.0,0.0,0.0,0.1
1505403907126072001,8795,1505403907125919876,-0.00638950427418,0.0168943479356,-0.998364779737,0.0542357983561,1.0,0.0,0.0,0.0,1.0,0.0,0.0,0.0,100000.0,-0.172194615006,0.105370186269,-0.0447229743004,1.0,0.0,0.0,0.0,1.0,0.0,0.0,0.0,1.0,-0.19042827785,0.551263602823,9.59859235287,0.1,0.0,0.0,0.0,0.1,0.0,0.0,0.0,0.1
1505403907129577063,8796,1505403907129223457,-0.00626764563369,0.0171265538803,-0.99834492626,0.0545417819826,1.0,0.0,0.0,0.0,1.0,0.0,0.0,0.0,100000.0,-0.158195823431,0.0619034618139,0.0558260679245,1.0,0.0,0.0,0.0,1.0,0.0,0.0,0.0,1.0,-0.0169724982465,0.285303240642,9.71862196922,0.1,0.0,0.0,0.0,0.1,0.0,0.0,0.0,0.1
1505403907133065747,8797,1505403907132795946,-0.00593011620512,0.0176935778646,-0.998314935715,0.0549459748564,1.0,0.0,0.0,0.0,1.0,0.0,0.0,0.0,100000.0,-0.279740273952,0.152766630054,0.0956178829074,1.0,0.0,0.0,0.0,1.0,0.0,0.0,0.0,1.0,-0.033306159405,0.133500992879,9.73563404083,0.1,0.0,0.0,0.0,0.1,0.0,0.0,0.0,0.1
1505403907140421026,8798,1505403907140196863,-0.00583050876042,0.018107507587,-0.998282096162,0.0554164219236,1.0,0.0,0.0,0.0,1.0,0.0,0.0,0.0,100000.0,-0.207710668445,0.0554049424827,0.118154242635,1.0,0.0,0.0,0.0,1.0,0.0,0.0,0.0,1.0,-0.0345345092006,-0.106251537427,9.69220372438,0.1,0.0,0.0,0.0,0.1,0.0,0.0,0.0,0.1
1505403907144065454,8799,1505403907143921039,-0.00572770327174,0.0187132117939,-0.998236053854,0.0560516717516,1.0,0.0,0.0,0.0,1.0,0.0,0.0,0.0,100000.0,-0.268005400896,0.0617356672883,0.184765249491,1.0,0.0,0.0,0.0,1.0,0.0,0.0,0.0,1.0,0.0201179924887,-0.457722618431,9.74063824415,0.1,0.0,0.0,0.0,0.1,0.0,0.0,0.0,0.1
1505403907147969835,8800,1505403907147686206,-0.00582078390178,0.0191784580723,-0.998210232859,0.0563439103732,1.0,0.0,0.0,0.0,1.0,0.0,0.0,0.0,100000.0,-0.204867258668,-0.0309008043259,0.0476796030998,1.0,0.0,0.0,0.0,1.0,0.0,0.0,0.0,1.0,-0.269028426707,-0.591539568454,9.43727791309,0.1,0.0,0.0,0.0,0.1,0.0,0.0,0.0,0.1
1505403907152930023,8801,1505403907152731390,-0.00611716439936,0.0194230944757,-0.998195763614,0.0564848758784,1.0,0.0,0.0,0.0,1.0,0.0,0.0,0.0,100000.0,-0.108198836446,-0.11302741617,-0.0174061059952,1.0,0.0,0.0,0.0,1.0,0.0,0.0,0.0,1.0,-0.200695342571,-0.907046242058,9.41514189243,0.1,0.0,0.0,0.0,0.1,0.0,0.0,0.0,0.1
1505403907158266795,8802,1505403907158139001,-0.00634079329495,0.0197524410921,-0.998201540458,0.0562433999641,1.0,0.0,0.0,0.0,1.0,0.0,0.0,0.0,100000.0,-0.135120838881,-0.100095912814,-0.16842225194,1.0,0.0,0.0,0.0,1.0,0.0,0.0,0.0,1.0,-0.529707144201,-0.942648765445,9.02237706184,0.1,0.0,0.0,0.0,0.1,0.0,0.0,0.0,0.1
1505403907165438529,8803,1505403907165205604,-0.00670736081112,0.0196388084605,-0.998234019486,0.0556612149962,1.0,0.0,0.0,0.0,1.0,0.0,0.0,0.0,100000.0,0.0464784838259,-0.159796521068,-0.311293780804,1.0,0.0,0.0,0.0,1.0,0.0,0.0,0.0,1.0,-0.466061338782,-1.12333061695,8.94256156683,0.1,0.0,0.0,0.0,0.1,0.0,0.0,0.0,0.1
1505403907168282934,8804,1505403907168097103,-0.00682545712167,0.0196599612143,-0.998247966678,0.0553885916419,1.0,0.0,0.0,0.0,1.0,0.0,0.0,0.0,100000.0,0.0119419693947,-0.0538760200143,-0.179971516132,1.0,0.0,0.0,0.0,1.0,0.0,0.0,0.0,1.0,-0.388933733851,-1.34658046961,8.79100961685,0.1,0.0,0.0,0.0,0.1,0.0,0.0,0.0,0.1
1505403907174682407,8805,1505403907174499384,-0.0069508474019,0.019550571754,-0.998272481312,0.0549682992181,1.0,0.0,0.0,0.0,1.0,0.0,0.0,0.0,100000.0,0.0752395913005,-0.0560796931386,-0.243288457394,1.0,0.0,0.0,0.0,1.0,0.0,0.0,0.0,1.0,-0.314427611232,-1.54978138208,8.73337570429,0.1,0.0,0.0,0.0,0.1,0.0,0.0,0.0,0.1
1505403907178021059,8806,1505403907177889953,-0.00689497149354,0.0194659248644,-0.998271070003,0.0550309724835,1.0,0.0,0.0,0.0,1.0,0.0,0.0,0.0,100000.0,0.0930460244417,0.028625542298,-0.0472536087036,1.0,0.0,0.0,0.0,1.0,0.0,0.0,0.0,1.0,-0.0643676339649,-1.94185168743,8.98706784248,0.1,0.0,0.0,0.0,0.1,0.0,0.0,0.0,0.1
1505403907184511809,8807,1505403907184309145,-0.00661429420122,0.0196811859413,-0.998255979391,0.0552621176098,1.0,0.0,0.0,0.0,1.0,0.0,0.0,0.0,100000.0,-0.00609114766121,0.114081814885,0.0218878984451,1.0,0.0,0.0,0.0,1.0,0.0,0.0,0.0,1.0,-0.217253676429,-2.18336437047,9.06554802656,0.1,0.0,0.0,0.0,0.1,0.0,0.0,0.0,0.1
1505403907188264619,8808,1505403907188123094,-0.00642578254746,0.0199521871158,-0.998234768036,0.0555694829236,1.0,0.0,0.0,0.0,1.0,0.0,0.0,0.0,100000.0,-0.0062195956707,0.0829333588481,0.0524849891663,1.0,0.0,0.0,0.0,1.0,0.0,0.0,0.0,1.0,-0.123620454967,-2.68499194384,9.66317852736,0.1,0.0,0.0,0.0,0.1,0.0,0.0,0.0,0.1
1505403907193573726,8809,1505403907193268589,-0.00593285065918,0.0206217463203,-0.998169488421,0.0565439408499,1.0,0.0,0.0,0.0,1.0,0.0,0.0,0.0,100000.0,-0.137882918119,0.203392878175,0.322870731354,1.0,0.0,0.0,0.0,1.0,0.0,0.0,0.0,1.0,-0.219562742859,-3.02076744437,9.89004178047,0.1,0.0,0.0,0.0,0.1,0.0,0.0,0.0,0.1
1505403907197973660,8810,1505403907197768183,-0.00576505211406,0.0216251593341,-0.998120037253,0.0570570582186,1.0,0.0,0.0,0.0,1.0,0.0,0.0,0.0,100000.0,-0.276953160763,0.0885182917118,0.137897491455,1.0,0.0,0.0,0.0,1.0,0.0,0.0,0.0,1.0,-0.112397395819,-3.10807960629,10.2466807842,0.1,0.0,0.0,0.0,0.1,0.0,0.0,0.0,0.1
1505403907207567451,8811,1505403907207128817,-0.00553452933811,0.0225181101718,-0.99806242592,0.0577381820498,1.0,0.0,0.0,0.0,1.0,0.0,0.0,0.0,100000.0,-0.250695079565,0.115846164525,0.205447018147,1.0,0.0,0.0,0.0,1.0,0.0,0.0,0.0,1.0,-0.058176629059,-2.80118940473,10.1294713259,0.1,0.0,0.0,0.0,0.1,0.0,0.0,0.0,0.1
1505403907208588244,8812,1505403907208455599,-0.00530290833975,0.0235530785373,-0.998026075819,0.0579748535049,1.0,0.0,0.0,0.0,1.0,0.0,0.0,0.0,100000.0,-0.358977198601,0.117246948183,0.0283988118172,1.0,0.0,0.0,0.0,1.0,0.0,0.0,0.0,1.0,-0.192538047954,-1.95717490613,9.94736318588,0.1,0.0,0.0,0.0,0.1,0.0,0.0,0.0,0.1
1505403907213396755,8813,1505403907213218504,-0.00530104066781,0.0240785059094,-0.998028314764,0.0577200783996,1.0,0.0,0.0,0.0,1.0,0.0,0.0,0.0,100000.0,-0.196415930986,0.0113517642021,-0.174133479595,1.0,0.0,0.0,0.0,1.0,0.0,0.0,0.0,1.0,-0.257226042822,-1.37292949557,9.83571927547,0.1,0.0,0.0,0.0,0.1,0.0,0.0,0.0,0.1
1505403907218318943,8814,1505403907218165035,-0.00495466347183,0.024552735075,-0.998013599634,0.0578054448709,1.0,0.0,0.0,0.0,1.0,0.0,0.0,0.0,100000.0,-0.201176673174,0.142892092466,-0.0340014100075,1.0,0.0,0.0,0.0,1.0,0.0,0.0,0.0,1.0,-0.367844320089,-0.749937067926,9.84525921345,0.1,0.0,0.0,0.0,0.1,0.0,0.0,0.0,0.1
1505403907223734194,8815,1505403907223559696,-0.00494102476372,0.024921769288,-0.998024700506,0.0574559733111,1.0,0.0,0.0,0.0,1.0,0.0,0.0,0.0,100000.0,-0.190775036812,0.0139369750395,-0.211084842682,1.0,0.0,0.0,0.0,1.0,0.0,0.0,0.0,1.0,-0.304407157004,-0.441614262015,9.97632997036,0.1,0.0,0.0,0.0,0.1,0.0,0.0,0.0,0.1
1505403907233321409,8816,1505403907233017247,-0.00474463256559,0.0248192796157,-0.998023884851,0.057531009798,1.0,0.0,0.0,0.0,1.0,0.0,0.0,0.0,100000.0,-0.0238349363208,0.0769849643111,-0.0371089577675,1.0,0.0,0.0,0.0,1.0,0.0,0.0,0.0,1.0,-0.166364569962,0.0777811866254,9.85757374763,0.1,0.0,0.0,0.0,0.1,0.0,0.0,0.0,0.1
1505403907241532784,8817,1505403907240875040,-0.00464817866849,0.0248249399125,-0.998025567404,0.0575072482491,1.0,0.0,0.0,0.0,1.0,0.0,0.0,0.0,100000.0,-0.10106293112,0.0448992885649,-0.080676317215,1.0,0.0,0.0,0.0,1.0,0.0,0.0,0.0,1.0,-0.158350386098,0.596801845729,9.6936301589,0.1,0.0,0.0,0.0,0.1,0.0,0.0,0.0,0.1
1505403907241546059,8818,1505403907240925853,-0.00478309226658,0.0244590424515,-0.998037101353,0.0574527770703,1.0,0.0,0.0,0.0,1.0,0.0,0.0,0.0,100000.0,0.0357320010662,-0.0595428273082,-0.0953382849693,1.0,0.0,0.0,0.0,1.0,0.0,0.0,0.0,1.0,-0.21200450547,0.769597418606,9.58059602976,0.1,0.0,0.0,0.0,0.1,0.0,0.0,0.0,0.1
1505403907243759370,8819,1505403907243538230,-0.00471052747345,0.0241389531601,-0.998028474737,0.0577432722017,1.0,0.0,0.0,0.0,1.0,0.0,0.0,0.0,100000.0,0.0126304849982,0.0196130611002,0.0454278886318,1.0,0.0,0.0,0.0,1.0,0.0,0.0,0.0,1.0,-0.25871758908,0.887022419274,9.72628569603,0.1,0.0,0.0,0.0,0.1,0.0,0.0,0.0,0.1
1505403907248835629,8820,1505403907248651942,-0.00497278863152,0.0239750536988,-0.998029479448,0.0577721933689,1.0,0.0,0.0,0.0,1.0,0.0,0.0,0.0,100000.0,-0.0237685665488,-0.117333181202,-0.0633800625801,1.0,0.0,0.0,0.0,1.0,0.0,0.0,0.0,1.0,-0.344651324302,0.335385925323,9.92171773911,0.1,0.0,0.0,0.0,0.1,0.0,0.0,0.0,0.1
1505403907253929043,8821,1505403907253745626,-0.00504599617405,0.0236894674285,-0.998009137227,0.0582332299145,1.0,0.0,0.0,0.0,1.0,0.0,0.0,0.0,100000.0,0.022715035826,-0.0437893979251,0.112176761031,1.0,0.0,0.0,0.0,1.0,0.0,0.0,0.0,1.0,-0.317846278846,0.491197939217,10.0363734007,0.1,0.0,0.0,0.0,0.1,0.0,0.0,0.0,0.1
1505403907258503379,8822,1505403907258322343,-0.00509537041221,0.0235194654224,-0.997996117898,0.0585202580882,1.0,0.0,0.0,0.0,1.0,0.0,0.0,0.0,100000.0,-0.0223042145371,-0.0360291562974,0.0416425094008,1.0,0.0,0.0,0.0,1.0,0.0,0.0,0.0,1.0,-0.412816034257,0.450009350479,9.82051565647,0.1,0.0,0.0,0.0,0.1,0.0,0.0,0.0,0.1
1505403907263517345,8823,1505403907263378679,-0.00525896753637,0.0232027492896,-0.997984403063,0.0588311731003,1.0,0.0,0.0,0.0,1.0,0.0,0.0,0.0,100000.0,0.0267109535635,-0.0847741365433,0.0485351718962,1.0,0.0,0.0,0.0,1.0,0.0,0.0,0.0,1.0,-0.379483897239,0.593016055226,9.70023136139,0.1,0.0,0.0,0.0,0.1,0.0,0.0,0.0,0.1
1505403907273866801,8824,1505403907273722632,-0.00516428483089,0.022944870141,-0.99797057606,0.0591742546643,1.0,0.0,0.0,0.0,1.0,0.0,0.0,0.0,100000.0,0.0124218426645,0.0171321108937,0.0661417841911,1.0,0.0,0.0,0.0,1.0,0.0,0.0,0.0,1.0,-0.455525357276,0.593551150709,9.61116857529,0.1,0.0,0.0,0.0,0.1,0.0,0.0,0.0,0.1
1505403907275083459,8825,1505403907274968634,-0.00527297848021,0.0228244142732,-0.997967206233,0.059268010726,1.0,0.0,0.0,0.0,1.0,0.0,0.0,0.0,100000.0,-0.0367381386459,-0.0547213554382,-0.0368736088276,1.0,0.0,0.0,0.0,1.0,0.0,0.0,0.0,1.0,-0.353824650496,0.363220382482,9.74103136063,0.1,0.0,0.0,0.0,0.1,0.0,0.0,0.0,0.1
1505403907278898716,8826,1505403907278640651,-0.00529407132719,0.0226739291008,-0.997960675193,0.0594336311862,1.0,0.0,0.0,0.0,1.0,0.0,0.0,0.0,100000.0,-0.0258289538324,-0.0193456932902,-0.00500190304592,1.0,0.0,0.0,0.0,1.0,0.0,0.0,0.0,1.0,-0.321970716119,0.475157122314,9.79123811722,0.1,0.0,0.0,0.0,0.1,0.0,0.0,0.0,0.1
1505403907283737601,8827,1505403907283537230,-0.00524549568376,0.0227556570272,-0.997961610831,0.0593909770613,1.0,0.0,0.0,0.0,1.0,0.0,0.0,0.0,100000.0,-0.116819180548,0.0204409249127,-0.0893613994122,1.0,0.0,0.0,0.0,1.0,0.0,0.0,0.0,1.0,-0.275789077207,0.405427284539,9.70357255936,0.1,0.0,0.0,0.0,0.1,0.0,0.0,0.0,0.1
1505403907290439302,8828,1505403907290297755,-0.00531024385815,0.0228394311788,-0.997963094609,0.0593281003567,1.0,0.0,0.0,0.0,1.0,0.0,0.0,0.0,100000.0,-0.138784945011,-0.020309722051,-0.0968099161983,1.0,0.0,0.0,0.0,1.0,0.0,0.0,0.0,1.0,-0.202273905277,0.772050526738,9.79553494453,0.1,0.0,0.0,0.0,0.1,0.0,0.0,0.0,0.1
1505403907295650527,8829,1505403907295382268,-0.00506695178249,0.0228803197347,-0.997965682811,0.0592900742144,1.0,0.0,0.0,0.0,1.0,0.0,0.0,0.0,100000.0,-0.108676880598,0.100361406803,-0.0827431678772,1.0,0.0,0.0,0.0,1.0,0.0,0.0,0.0,1.0,-0.146927537769,0.720067444444,9.75812112093,0.1,0.0,0.0,0.0,0.1,0.0,0.0,0.0,0.1
1505403907299379416,8830,1505403907299124266,-0.00491468200201,0.0229857160243,-0.997966934279,0.0592410402177,1.0,0.0,0.0,0.0,1.0,0.0,0.0,0.0,100000.0,-0.144799798727,0.0777179151773,-0.0903160870075,1.0,0.0,0.0,0.0,1.0,0.0,0.0,0.0,1.0,-0.0270770882256,0.78292657882,10.0512709379,0.1,0.0,0.0,0.0,0.1,0.0,0.0,0.0,0.1
1505403907303890323,8831,1505403907303718412,-0.00466659079993,0.0228776936277,-0.997962470429,0.0593779561697,1.0,0.0,0.0,0.0,1.0,0.0,0.0,0.0,100000.0,-0.0551138408482,0.11083111167,-0.0138915777206,1.0,0.0,0.0,0.0,1.0,0.0,0.0,0.0,1.0,0.0415919182822,0.757247033715,10.1118681192,0.1,0.0,0.0,0.0,0.1,0.0,0.0,0.0,0.1
1505403907308999405,8832,1505403907308807906,-0.00442279652694,0.0227260206541,-0.997963567315,0.0594363959962,1.0,0.0,0.0,0.0,1.0,0.0,0.0,0.0,100000.0,-0.0255318768322,0.112686209381,-0.0444538295269,1.0,0.0,0.0,0.0,1.0,0.0,0.0,0.0,1.0,0.075712871179,0.611973958462,10.1395953894,0.1,0.0,0.0,0.0,0.1,0.0,0.0,0.0,0.1
1505403907314135907,8833,1505403907313962544,-0.00445599733699,0.022496367142,-0.997960310703,0.059575798895,1.0,0.0,0.0,0.0,1.0,0.0,0.0,0.0,100000.0,0.00249227508903,-0.00746838096529,-0.0165757834911,1.0,0.0,0.0,0.0,1.0,0.0,0.0,0.0,1.0,-0.0212587439921,0.518388872594,10.1280916214,0.1,0.0,0.0,0.0,0.1,0.0,0.0,0.0,0.1
1505403907320571022,8834,1505403907320354950,-0.00431980975168,0.0221892762507,-0.997955560942,0.0597802111801,1.0,0.0,0.0,0.0,1.0,0.0,0.0,0.0,100000.0,0.0625258907676,0.0528922043741,0.0103072971106,1.0,0.0,0.0,0.0,1.0,0.0,0.0,0.0,1.0,-0.0942662583664,0.0952719947323,10.0650387764,0.1,0.0,0.0,0.0,0.1,0.0,0.0,0.0,0.1
1505403907324599209,8835,1505403907324413733,-0.00442009275259,0.0220604596876,-0.997949727039,0.0599177870235,1.0,0.0,0.0,0.0,1.0,0.0,0.0,0.0,100000.0,0.00602625310421,-0.0428633652627,-0.0177346616983,1.0,0.0,0.0,0.0,1.0,0.0,0.0,0.0,1.0,-0.216409834102,-0.2171932742,10.1283918619,0.1,0.0,0.0,0.0,0.1,0.0,0.0,0.0,0.1
1505403907329092229,8836,1505403907328840199,-0.00437739909443,0.0221057750101,-0.997929982467,0.0602322437066,1.0,0.0,0.0,0.0,1.0,0.0,0.0,0.0,100000.0,-0.0268195569515,0.0161111969501,0.0546980500221,1.0,0.0,0.0,0.0,1.0,0.0,0.0,0.0,1.0,-0.209754161909,-0.813470210135,10.1264759302,0.1,0.0,0.0,0.0,0.1,0.0,0.0,0.0,0.1
1505403907333972415,8837,1505403907333838349,-0.00432354201092,0.0223359974472,-0.997919267914,0.0603286410289,1.0,0.0,0.0,0.0,1.0,0.0,0.0,0.0,100000.0,-0.084768101573,0.0254239439964,-0.0353484936059,1.0,0.0,0.0,0.0,1.0,0.0,0.0,0.0,1.0,-0.234098286554,-1.07426896542,10.0401036263,0.1,0.0,0.0,0.0,0.1,0.0,0.0,0.0,0.1
1505403907344519570,8838,1505403907344271370,-0.00450070807538,0.0224999060144,-0.997911919186,0.0603763149087,1.0,0.0,0.0,0.0,1.0,0.0,0.0,0.0,100000.0,-0.0450866371393,-0.0633267387748,-0.053382948041,1.0,0.0,0.0,0.0,1.0,0.0,0.0,0.0,1.0,-0.197976548597,-1.42015677392,9.94692742825,0.1,0.0,0.0,0.0,0.1,0.0,0.0,0.0,0.1
1505403907344523632,8839,1505403907344307748,-0.00454357551811,0.0226636502544,-0.997913375425,0.0602877270029,1.0,0.0,0.0,0.0,1.0,0.0,0.0,0.0,100000.0,-0.0221491418779,-0.0139736039564,-0.110380806029,1.0,0.0,0.0,0.0,1.0,0.0,0.0,0.0,1.0,-0.253755680099,-1.79699513018,9.81528189182,0.1,0.0,0.0,0.0,0.1,0.0,0.0,0.0,0.1
1505403907348910536,8840,1505403907348731257,-0.0048979726283,0.0226778861872,-0.997924488255,0.0600702845342,1.0,0.0,0.0,0.0,1.0,0.0,0.0,0.0,100000.0,0.0443961322308,-0.137603253126,-0.161607801914,1.0,0.0,0.0,0.0,1.0,0.0,0.0,0.0,1.0,-0.239955130592,-1.99553691149,9.76013752222,0.1,0.0,0.0,0.0,0.1,0.0,0.0,0.0,0.1
1505403907354637889,8841,1505403907354528741,-0.0051439565779,0.0225935121022,-0.997931783883,0.0599602171185,1.0,0.0,0.0,0.0,1.0,0.0,0.0,0.0,100000.0,0.122996255755,-0.10261220485,-0.120312988758,1.0,0.0,0.0,0.0,1.0,0.0,0.0,0.0,1.0,-0.295397568494,-2.67016041279,9.70515145063,0.1,0.0,0.0,0.0,0.1,0.0,0.0,0.0,0.1
1505403907358982120,8842,1505403907358831885,-0.00546826414075,0.0225398338981,-0.997943731849,0.0597525065445,1.0,0.0,0.0,0.0,1.0,0.0,0.0,0.0,100000.0,0.119361594319,-0.132429346442,-0.160113215446,1.0,0.0,0.0,0.0,1.0,0.0,0.0,0.0,1.0,-0.263090279698,-2.80606597662,9.55915511847,0.1,0.0,0.0,0.0,0.1,0.0,0.0,0.0,0.1
1505403907364068572,8843,1505403907363930402,-0.00589644409163,0.0222696721009,-0.997951536463,0.0596826986853,1.0,0.0,0.0,0.0,1.0,0.0,0.0,0.0,100000.0,0.231345802546,-0.189774274826,-0.104829490185,1.0,0.0,0.0,0.0,1.0,0.0,0.0,0.0,1.0,-0.424399936944,-3.3732720077,9.49024699926,0.1,0.0,0.0,0.0,0.1,0.0,0.0,0.0,0.1
1505403907374748105,8844,1505403907374534807,-0.00621722373116,0.0221179114784,-0.997936127299,0.0599635718709,1.0,0.0,0.0,0.0,1.0,0.0,0.0,0.0,100000.0,0.206341326237,-0.148820027709,0.0344550609589,1.0,0.0,0.0,0.0,1.0,0.0,0.0,0.0,1.0,-0.495339170098,-3.62955211401,9.28319202662,0.1,0.0,0.0,0.0,0.1,0.0,0.0,0.0,0.1
1505403907374755250,8845,1505403907374567201,-0.00667229501332,0.0220966907767,-0.997905905812,0.0604236698822,1.0,0.0,0.0,0.0,1.0,0.0,0.0,0.0,100000.0,0.182819142938,-0.206908464432,0.103715568781,1.0,0.0,0.0,0.0,1.0,0.0,0.0,0.0,1.0,-0.544073528796,-4.24391985536,9.31656136513,0.1,0.0,0.0,0.0,0.1,0.0,0.0,0.0,0.1
1505403907379201504,8846,1505403907379054950,-0.00699887207836,0.0223686585011,-0.997840216254,0.0613641730446,1.0,0.0,0.0,0.0,1.0,0.0,0.0,0.0,100000.0,0.109652593732,-0.151691302657,0.29674449563,1.0,0.0,0.0,0.0,1.0,0.0,0.0,0.0,1.0,-0.574467222393,-4.916180861,9.34704045057,0.1,0.0,0.0,0.0,0.1,0.0,0.0,0.0,0.1
1505403907385921110,8847,1505403907385667671,-0.00717940666967,0.0233925150176,-0.997760489518,0.0622515214031,1.0,0.0,0.0,0.0,1.0,0.0,0.0,0.0,100000.0,-0.17099095881,-0.0651272982359,0.28219845891,1.0,0.0,0.0,0.0,1.0,0.0,0.0,0.0,1.0,-0.365163841099,-5.26239380836,9.48209143877,0.1,0.0,0.0,0.0,0.1,0.0,0.0,0.0,0.1
1505403907389340189,8848,1505403907389210493,-0.00740526262013,0.0243532607843,-0.997692834986,0.0629371733709,1.0,0.0,0.0,0.0,1.0,0.0,0.0,0.0,100000.0,-0.128557816148,-0.0839042887092,0.201717019081,1.0,0.0,0.0,0.0,1.0,0.0,0.0,0.0,1.0,-0.400902794302,-5.61461740732,9.63400729895,0.1,0.0,0.0,0.0,0.1,0.0,0.0,0.0,0.1
1505403907398525811,8849,1505403907398246073,-0.00740204505485,0.0258091710782,-0.997612016443,0.0636345901639,1.0,0.0,0.0,0.0,1.0,0.0,0.0,0.0,100000.0,-0.341343432665,0.0268680024892,0.2067964077,1.0,0.0,0.0,0.0,1.0,0.0,0.0,0.0,1.0,-0.268982426822,-5.34545996189,9.76941285133,0.1,0.0,0.0,0.0,0.1,0.0,0.0,0.0,0.1
1505403907399732470,8850,1505403907399491731,-0.00750224129879,0.0268431136478,-0.997586205303,0.0635997375314,1.0,0.0,0.0,0.0,1.0,0.0,0.0,0.0,100000.0,-0.201587766409,-0.0180743858218,-0.0876808166504,1.0,0.0,0.0,0.0,1.0,0.0,0.0,0.0,1.0,-0.29606237635,-4.93632851839,9.91955997944,0.1,0.0,0.0,0.0,0.1,0.0,0.0,0.0,0.1
1505403907407674863,8851,1505403907407539707,-0.00760883546319,0.0275707379199,-0.997568233364,0.0635576888808,1.0,0.0,0.0,0.0,1.0,0.0,0.0,0.0,100000.0,-0.112721771002,-0.0269493442029,-0.0873927474022,1.0,0.0,0.0,0.0,1.0,0.0,0.0,0.0,1.0,-0.24191948995,-4.43445751071,10.0203590155,0.1,0.0,0.0,0.0,0.1,0.0,0.0,0.0,0.1
1505403907409630523,8852,1505403907409452609,-0.00752622381515,0.028357758747,-0.997588899401,0.0628934119355,1.0,0.0,0.0,0.0,1.0,0.0,0.0,0.0,100000.0,-0.175581723452,0.0638990476727,-0.337439000607,1.0,0.0,0.0,0.0,1.0,0.0,0.0,0.0,1.0,-0.155552589148,-3.69855135679,10.055320096,0.1,0.0,0.0,0.0,0.1,0.0,0.0,0.0,0.1
1505403907414397152,8853,1505403907414244984,-0.00763325612297,0.0283469791375,-0.997639332711,0.0620801417752,1.0,0.0,0.0,0.0,1.0,0.0,0.0,0.0,100000.0,0.0951395481825,-0.0322490818799,-0.402089089155,1.0,0.0,0.0,0.0,1.0,0.0,0.0,0.0,1.0,-0.163087315485,-3.04811094403,10.1142069578,0.1,0.0,0.0,0.0,0.1,0.0,0.0,0.0,0.1
1505403907419937021,8854,1505403907419659225,-0.0073314910891,0.0287173884794,-0.997652209526,0.0617383970136,1.0,0.0,0.0,0.0,1.0,0.0,0.0,0.0,100000.0,-0.0801436081529,0.138103306293,-0.204977631569,1.0,0.0,0.0,0.0,1.0,0.0,0.0,0.0,1.0,-0.128664387949,-2.40044220686,10.0576016903,0.1,0.0,0.0,0.0,0.1,0.0,0.0,0.0,0.1
1505403907426200581,8855,1505403907425830724,-0.00715422187741,0.0285996694438,-0.997683381763,0.0613086108967,1.0,0.0,0.0,0.0,1.0,0.0,0.0,0.0,100000.0,0.067139133811,0.0742332711816,-0.244362831116,1.0,0.0,0.0,0.0,1.0,0.0,0.0,0.0,1.0,-0.169605353102,-1.69649823308,10.0381818533,0.1,0.0,0.0,0.0,0.1,0.0,0.0,0.0,0.1
1505403907431110917,8856,1505403907430891960,-0.00695419641251,0.0284352391539,-0.997665440153,0.0616988318471,1.0,0.0,0.0,0.0,1.0,0.0,0.0,0.0,100000.0,0.0673142001033,0.0750138908625,0.0863428115845,1.0,0.0,0.0,0.0,1.0,0.0,0.0,0.0,1.0,-0.133179906383,-1.28680398464,10.122812295,0.1,0.0,0.0,0.0,0.1,0.0,0.0,0.0,0.1
1505403907434618131,8857,1505403907434416671,-0.00670350976252,0.0283621699825,-0.997653101069,0.0619591817161,1.0,0.0,0.0,0.0,1.0,0.0,0.0,0.0,100000.0,0.00326580926776,0.0960556566715,0.0341231226921,1.0,0.0,0.0,0.0,1.0,0.0,0.0,0.0,1.0,-0.202218960971,-0.785598003864,10.0987626791,0.1,0.0,0.0,0.0,0.1,0.0,0.0,0.0,0.1
1505403907440553966,8858,1505403907440314664,-0.00686947891155,0.0279041085581,-0.997641162114,0.0623400564638,1.0,0.0,0.0,0.0,1.0,0.0,0.0,0.0,100000.0,0.136954724789,-0.0753277242184,0.0756873786449,1.0,0.0,0.0,0.0,1.0,0.0,0.0,0.0,1.0,-0.125870068371,-0.66131734103,10.3326220036,0.1,0.0,0.0,0.0,0.1,0.0,0.0,0.0,0.1
1505403907444617061,8859,1505403907444376873,-0.0067476163157,0.0276377542963,-0.997610801515,0.0629548482073,1.0,0.0,0.0,0.0,1.0,0.0,0.0,0.0,100000.0,0.0475012883544,0.0367664322257,0.173188999295,1.0,0.0,0.0,0.0,1.0,0.0,0.0,0.0,1.0,-0.177627203614,-0.282728342339,10.2193215132,0.1,0.0,0.0,0.0,0.1,0.0,0.0,0.0,0.1
1505403907450904884,8860,1505403907450747615,-0.00686837039438,0.0272090669719,-0.997603664047,0.0632409807153,1.0,0.0,0.0,0.0,1.0,0.0,0.0,0.0,100000.0,0.100292719901,-0.0598301813006,0.0396302975714,1.0,0.0,0.0,0.0,1.0,0.0,0.0,0.0,1.0,-0.152822304331,-0.177781850845,10.1549403667,0.1,0.0,0.0,0.0,0.1,0.0,0.0,0.0,0.1
1505403907455081332,8861,1505403907454947254,-0.00690186227682,0.0267930322018,-0.997576881593,0.0638346538657,1.0,0.0,0.0,0.0,1.0,0.0,0.0,0.0,100000.0,0.0754215866327,-0.0271665155888,0.16704967618,1.0,0.0,0.0,0.0,1.0,0.0,0.0,0.0,1.0,-0.190357014537,0.255274716765,9.94371123314,0.1,0.0,0.0,0.0,0.1,0.0,0.0,0.0,0.1
1505403907459852597,8862,1505403907459503227,-0.00685200769179,0.0264540207581,-0.997569879225,0.0640903334262,1.0,0.0,0.0,0.0,1.0,0.0,0.0,0.0,100000.0,0.0300135202706,0.00546523556113,0.0278907436877,1.0,0.0,0.0,0.0,1.0,0.0,0.0,0.0,1.0,-0.239669146389,0.521823968738,9.76113520861,0.1,0.0,0.0,0.0,0.1,0.0,0.0,0.0,0.1
1505403907464664707,8863,1505403907464423732,-0.00715131497988,0.0258566143355,-0.997570309486,0.0642944151656,1.0,0.0,0.0,0.0,1.0,0.0,0.0,0.0,100000.0,0.124624326825,-0.140145421028,0.00517159700394,1.0,0.0,0.0,0.0,1.0,0.0,0.0,0.0,1.0,-0.293790365383,0.583480644226,9.81877613068,0.1,0.0,0.0,0.0,0.1,0.0,0.0,0.0,0.1
1505403907475142741,8864,1505403907474918171,-0.00716710904797,0.0254608615558,-0.997564513256,0.0645400570967,1.0,0.0,0.0,0.0,1.0,0.0,0.0,0.0,100000.0,0.052503965795,-0.0304386094213,0.0219330489635,1.0,0.0,0.0,0.0,1.0,0.0,0.0,0.0,1.0,-0.397364636511,0.55831323117,9.72220908403,0.1,0.0,0.0,0.0,0.1,0.0,0.0,0.0,0.1
1505403907475150984,8865,1505403907474955885,-0.00748361871992,0.0250729749678,-0.997570719248,0.0645600610055,1.0,0.0,0.0,0.0,1.0,0.0,0.0,0.0,100000.0,0.0530736260116,-0.1486877352,-0.0682029128075,1.0,0.0,0.0,0.0,1.0,0.0,0.0,0.0,1.0,-0.37284611389,0.377430148423,9.69193152189,0.1,0.0,0.0,0.0,0.1,0.0,0.0,0.0,0.1
1505403907479691034,8866,1505403907479467935,-0.00767265588103,0.0246570639468,-0.997563996514,0.0648014846168,1.0,0.0,0.0,0.0,1.0,0.0,0.0,0.0,100000.0,0.061824016273,-0.10264736414,0.020595215261,1.0,0.0,0.0,0.0,1.0,0.0,0.0,0.0,1.0,-0.472192758322,0.495606663078,9.39009400606,0.1,0.0,0.0,0.0,0.1,0.0,0.0,0.0,0.1
1505403907489123378,8867,1505403907488943037,-0.00781812237331,0.0243327370235,-0.997569814655,0.0648171255225,1.0,0.0,0.0,0.0,1.0,0.0,0.0,0.0,100000.0,0.0261091478169,-0.0797720104456,-0.0682101100683,1.0,0.0,0.0,0.0,1.0,0.0,0.0,0.0,1.0,-0.414352393895,0.503873791546,9.23403552771,0.1,0.0,0.0,0.0,0.1,0.0,0.0,0.0,0.1
1505403907492081926,8868,1505403907491878507,-0.00813760547634,0.0238481864533,-0.997575893532,0.064864320107,1.0,0.0,0.0,0.0,1.0,0.0,0.0,0.0,100000.0,0.0755099505186,-0.153637200594,-0.0581696033478,1.0,0.0,0.0,0.0,1.0,0.0,0.0,0.0,1.0,-0.44287571758,0.690953606367,9.24077692032,0.1,0.0,0.0,0.0,0.1,0.0,0.0,0.0,0.1
1505403907495098908,8869,1505403907494953922,-0.00819762840104,0.0233978703365,-0.997580869164,0.0649441916644,1.0,0.0,0.0,0.0,1.0,0.0,0.0,0.0,100000.0,0.0702491849661,-0.0438248738647,-0.0422563254833,1.0,0.0,0.0,0.0,1.0,0.0,0.0,0.0,1.0,-0.30090742372,0.686721251905,9.41274580956,0.1,0.0,0.0,0.0,0.1,0.0,0.0,0.0,0.1
1505403907499981574,8870,1505403907499722651,-0.00843258977956,0.0229625473626,-0.997586372088,0.0649849449713,1.0,0.0,0.0,0.0,1.0,0.0,0.0,0.0,100000.0,0.0612850673497,-0.108466282487,-0.0597398281097,1.0,0.0,0.0,0.0,1.0,0.0,0.0,0.0,1.0,-0.235426807031,0.643255011737,9.54680787325,0.1,0.0,0.0,0.0,0.1,0.0,0.0,0.0,0.1
1505403907507798057,8871,1505403907507652610,-0.00853804191243,0.0224818093077,-0.997580457288,0.065229604694,1.0,0.0,0.0,0.0,1.0,0.0,0.0,0.0,100000.0,0.0825268104672,-0.0556617155671,0.0208697021008,1.0,0.0,0.0,0.0,1.0,0.0,0.0,0.0,1.0,-0.161211688444,0.7305105865,9.6091819644,0.1,0.0,0.0,0.0,0.1,0.0,0.0,0.0,0.1
1505403907509972959,8872,1505403907509783324,-0.00852302518237,0.0219487312213,-0.997585353356,0.0653381512451,1.0,0.0,0.0,0.0,1.0,0.0,0.0,0.0,100000.0,0.0972090661526,-0.00730347028002,-0.0295768678188,1.0,0.0,0.0,0.0,1.0,0.0,0.0,0.0,1.0,-0.12084382344,0.83423397392,9.44002622366,0.1,0.0,0.0,0.0,0.1,0.0,0.0,0.0,0.1
1505403907515209591,8873,1505403907515102078,-0.0086739654559,0.021255498661,-0.997586975342,0.0655224597179,1.0,0.0,0.0,0.0,1.0,0.0,0.0,0.0,100000.0,0.162790358067,-0.0849279016256,-0.00103983283043,1.0,0.0,0.0,0.0,1.0,0.0,0.0,0.0,1.0,-0.240102257207,0.804417213798,9.49380549192,0.1,0.0,0.0,0.0,0.1,0.0,0.0,0.0,0.1
1505403907523752059,8874,1505403907523541885,-0.00857638012152,0.0205712727545,-0.997602264417,0.0655209162853,1.0,0.0,0.0,0.0,1.0,0.0,0.0,0.0,100000.0,0.166699945927,0.0176526792347,-0.0753939896822,1.0,0.0,0.0,0.0,1.0,0.0,0.0,0.0,1.0,-0.210605305806,0.770999611914,9.42940915823,0.1,0.0,0.0,0.0,0.1,0.0,0.0,0.0,0.1
1505403907524947833,8875,1505403907524800365,-0.00872245343909,0.0198530859168,-0.997612560289,0.0655664040477,1.0,0.0,0.0,0.0,1.0,0.0,0.0,0.0,100000.0,0.187001258135,-0.084587149322,-0.0565631240606,1.0,0.0,0.0,0.0,1.0,0.0,0.0,0.0,1.0,-0.286821072549,0.585529829562,9.5307379961,0.1,0.0,0.0,0.0,0.1,0.0,0.0,0.0,0.1
1505403907531224774,8876,1505403907531020009,-0.0088317683362,0.0192153355161,-0.997615332716,0.0656994572218,1.0,0.0,0.0,0.0,1.0,0.0,0.0,0.0,100000.0,0.162715420127,-0.0673640295863,-0.024939538911,1.0,0.0,0.0,0.0,1.0,0.0,0.0,0.0,1.0,-0.300392225012,0.484498275071,9.44890551567,0.1,0.0,0.0,0.0,0.1,0.0,0.0,0.0,0.1
1505403907541670181,8877,1505403907541302369,-0.00878898173623,0.0186754554624,-0.997620472809,0.0657827743009,1.0,0.0,0.0,0.0,1.0,0.0,0.0,0.0,100000.0,0.135623559356,-0.0118960319087,-0.0389510840178,1.0,0.0,0.0,0.0,1.0,0.0,0.0,0.0,1.0,-0.358746930212,0.392044749856,9.29998213053,0.1,0.0,0.0,0.0,0.1,0.0,0.0,0.0,0.1
1505403907541702106,8878,1505403907541383246,-0.00899114020186,0.0182139532924,-0.997608826655,0.0660608831595,1.0,0.0,0.0,0.0,1.0,0.0,0.0,0.0,100000.0,0.100836627185,-0.109797477722,0.0335803925991,1.0,0.0,0.0,0.0,1.0,0.0,0.0,0.0,1.0,-0.427464368939,0.34602098912,9.28961623907,0.1,0.0,0.0,0.0,0.1,0.0,0.0,0.0,0.1
1505403907544972606,8879,1505403907544787504,-0.00886374700656,0.0179408052535,-0.99759900906,0.0663006683032,1.0,0.0,0.0,0.0,1.0,0.0,0.0,0.0,100000.0,0.0341126695275,0.0250921752304,0.0230933427811,1.0,0.0,0.0,0.0,1.0,0.0,0.0,0.0,1.0,-0.440927220881,0.320057230443,9.1735142827,0.1,0.0,0.0,0.0,0.1,0.0,0.0,0.0,0.1
1505403907550960758,8880,1505403907550821003,-0.00905248357774,0.0176992759595,-0.997588420843,0.0664991035421,1.0,0.0,0.0,0.0,1.0,0.0,0.0,0.0,100000.0,0.0180429928005,-0.100158803165,0.00617742259055,1.0,0.0,0.0,0.0,1.0,0.0,0.0,0.0,1.0,-0.420879156888,0.308712016046,9.29390605688,0.1,0.0,0.0,0.0,0.1,0.0,0.0,0.0,0.1
1505403907555096873,8881,1505403907554961612,-0.00920972840941,0.0174852415118,-0.997571067768,0.0667938019937,1.0,0.0,0.0,0.0,1.0,0.0,0.0,0.0,100000.0,0.00320505350828,-0.0798510536551,0.0425140485168,1.0,0.0,0.0,0.0,1.0,0.0,0.0,0.0,1.0,-0.357157926261,0.366767192632,9.18137602806,0.1,0.0,0.0,0.0,0.1,0.0,0.0,0.0,0.1
1505403907560416997,8882,1505403907560087164,-0.00930839917082,0.0172238719959,-0.997565342381,0.0669333968844,1.0,0.0,0.0,0.0,1.0,0.0,0.0,0.0,100000.0,0.0246503353119,-0.058372605592,-0.0200415998697,1.0,0.0,0.0,0.0,1.0,0.0,0.0,0.0,1.0,-0.327470586449,0.409621597826,9.16374887228,0.1,0.0,0.0,0.0,0.1,0.0,0.0,0.0,0.1
1505403907565218569,8883,1505403907565074279,-0.00955234239634,0.0169268677617,-0.997562421418,0.0670182756942,1.0,0.0,0.0,0.0,1.0,0.0,0.0,0.0,100000.0,0.0255475975573,-0.113965913653,-0.0384586080909,1.0,0.0,0.0,0.0,1.0,0.0,0.0,0.0,1.0,-0.283872461691,0.499360253662,9.11003093719,0.1,0.0,0.0,0.0,0.1,0.0,0.0,0.0,0.1
1505403907573877073,8884,1505403907573713313,-0.00949111354491,0.0166416142269,-0.997561129426,0.0671175722067,1.0,0.0,0.0,0.0,1.0,0.0,0.0,0.0,100000.0,0.025829076767,0.00499400403351,-0.036156129092,1.0,0.0,0.0,0.0,1.0,0.0,0.0,0.0,1.0,-0.294686523452,0.591048939526,9.15960508585,0.1,0.0,0.0,0.0,0.1,0.0,0.0,0.0,0.1
1505403907577090078,8885,1505403907576861438,-0.00956469032458,0.0163495347271,-0.997576878471,0.0669446110772,1.0,0.0,0.0,0.0,1.0,0.0,0.0,0.0,100000.0,0.0228268355131,-0.0399550795555,-0.142611026764,1.0,0.0,0.0,0.0,1.0,0.0,0.0,0.0,1.0,-0.243097890168,0.687249082327,9.26958014965,0.1,0.0,0.0,0.0,0.1,0.0,0.0,0.0,0.1
1505403907581398853,8886,1505403907581132531,-0.00954828647787,0.0160877029331,-0.997576450928,0.0670167187684,1.0,0.0,0.0,0.0,1.0,0.0,0.0,0.0,100000.0,0.00729445740581,-0.00350254029036,-0.0424206256866,1.0,0.0,0.0,0.0,1.0,0.0,0.0,0.0,1.0,-0.187534209713,0.718712930381,9.35668669939,0.1,0.0,0.0,0.0,0.1,0.0,0.0,0.0,0.1
1505403907585628857,8887,1505403907585477667,-0.00944264313639,0.0158511400932,-0.997590339201,0.0668811855566,1.0,0.0,0.0,0.0,1.0,0.0,0.0,0.0,100000.0,0.000401135534048,0.0349635928869,-0.126199662685,1.0,0.0,0.0,0.0,1.0,0.0,0.0,0.0,1.0,-0.148616089486,0.774184702337,9.35367611647,0.1,0.0,0.0,0.0,0.1,0.0,0.0,0.0,0.1
1505403907590525598,8888,1505403907590413444,-0.00945364336949,0.0156048813194,-0.997588734701,0.0669614269767,1.0,0.0,0.0,0.0,1.0,0.0,0.0,0.0,100000.0,0.00679951533675,-0.011608495377,-0.043811917305,1.0,0.0,0.0,0.0,1.0,0.0,0.0,0.0,1.0,-0.105547045544,0.6637501508,9.38126494884,0.1,0.0,0.0,0.0,0.1,0.0,0.0,0.0,0.1
1505403907595874372,8889,1505403907595167585,-0.00931830155631,0.0154716277312,-0.997571938496,0.0672608765679,1.0,0.0,0.0,0.0,1.0,0.0,0.0,0.0,100000.0,-0.0257485024631,0.044354043901,0.0502368509769,1.0,0.0,0.0,0.0,1.0,0.0,0.0,0.0,1.0,-0.240967365354,0.568211420625,9.36106530428,0.1,0.0,0.0,0.0,0.1,0.0,0.0,0.0,0.1
1505403907607661899,8890,1505403907607444739,-0.00929619869103,0.0152447390427,-0.997567256078,0.0673850741837,1.0,0.0,0.0,0.0,1.0,0.0,0.0,0.0,100000.0,0.0064052529633,-0.00638068187982,-0.0264777410775,1.0,0.0,0.0,0.0,1.0,0.0,0.0,0.0,1.0,-0.254783576727,0.534896551818,9.40148153305,0.1,0.0,0.0,0.0,0.1,0.0,0.0,0.0,0.1
1505403907607672910,8891,1505403907607476862,-0.00929206413698,0.0150659283204,-0.997535667117,0.0678915913552,1.0,0.0,0.0,0.0,1.0,0.0,0.0,0.0,100000.0,0.00114631280303,-0.0211703665555,0.130303472281,1.0,0.0,0.0,0.0,1.0,0.0,0.0,0.0,1.0,-0.378221967071,0.393311791122,9.43207218647,0.1,0.0,0.0,0.0,0.1,0.0,0.0,0.0,0.1
1505403907610846626,8892,1505403907610679226,-0.00925569517718,0.0148653939158,-0.997523427538,0.0681202149418,1.0,0.0,0.0,0.0,1.0,0.0,0.0,0.0,100000.0,0.00668131932616,-0.00994502287358,0.020235709846,1.0,0.0,0.0,0.0,1.0,0.0,0.0,0.0,1.0,-0.454664246738,0.443958613276,9.25546300411,0.1,0.0,0.0,0.0,0.1,0.0,0.0,0.0,0.1
1505403907615923815,8893,1505403907615732680,-0.00935544278632,0.0146027425185,-0.997508471224,0.0683819086961,1.0,0.0,0.0,0.0,1.0,0.0,0.0,0.0,100000.0,0.0302303452045,-0.0646368637681,0.0290264040232,1.0,0.0,0.0,0.0,1.0,0.0,0.0,0.0,1.0,-0.437642610073,0.38783262074,9.23813375235,0.1,0.0,0.0,0.0,0.1,0.0,0.0,0.0,0.1
1505403907621900791,8894,1505403907621696785,-0.0093714069722,0.0143802162959,-0.997488713871,0.0687142766143,1.0,0.0,0.0,0.0,1.0,0.0,0.0,0.0,100000.0,0.0104102529585,-0.0427966564894,0.0579808503389,1.0,0.0,0.0,0.0,1.0,0.0,0.0,0.0,1.0,-0.579665610939,0.508670155704,8.97204355001,0.1,0.0,0.0,0.0,0.1,0.0,0.0,0.0,0.1
1505403907626169423,8895,1505403907625957042,-0.00953045100792,0.0140283408843,-0.997493983156,0.0686886433287,1.0,0.0,0.0,0.0,1.0,0.0,0.0,0.0,100000.0,0.0540403202176,-0.0905116200447,-0.0843885615468,1.0,0.0,0.0,0.0,1.0,0.0,0.0,0.0,1.0,-0.484372286499,0.580302490294,9.00820851326,0.1,0.0,0.0,0.0,0.1,0.0,0.0,0.0,0.1
1505403907630587688,8896,1505403907630376972,-0.00961320247119,0.0136895853724,-0.997492395124,0.0687684757689,1.0,0.0,0.0,0.0,1.0,0.0,0.0,0.0,100000.0,0.0491746664047,-0.0632735416293,-0.0422162227333,1.0,0.0,0.0,0.0,1.0,0.0,0.0,0.0,1.0,-0.459671845287,0.649323053658,9.01614677906,0.1,0.0,0.0,0.0,0.1,0.0,0.0,0.0,0.1
1505403907641317080,8897,1505403907641044385,-0.00973593086244,0.0133503490149,-0.997508315733,0.0685867325049,1.0,0.0,0.0,0.0,1.0,0.0,0.0,0.0,100000.0,0.0403868108988,-0.0668313205242,-0.147757619619,1.0,0.0,0.0,0.0,1.0,0.0,0.0,0.0,1.0,-0.311209006608,0.755213692784,9.09704991579,0.1,0.0,0.0,0.0,0.1,0.0,0.0,0.0,0.1
1505403907641329789,8898,1505403907641081256,-0.00977329782091,0.0130434326252,-0.997525610004,0.068388660614,1.0,0.0,0.0,0.0,1.0,0.0,0.0,0.0,100000.0,0.0390227884054,-0.0261789001524,-0.156107276678,1.0,0.0,0.0,0.0,1.0,0.0,0.0,0.0,1.0,-0.191067584977,0.644237291813,9.30762833357,0.1,0.0,0.0,0.0,0.1,0.0,0.0,0.0,0.1
1505403907647031501,8899,1505403907646923917,-0.00975446143797,0.012773830944,-0.997530895805,0.0683651346761,1.0,0.0,0.0,0.0,1.0,0.0,0.0,0.0,100000.0,0.0149857737124,0.00152208004147,-0.0829282999039,1.0,0.0,0.0,0.0,1.0,0.0,0.0,0.0,1.0,-0.128334913775,0.804245115817,9.28079185486,0.1,0.0,0.0,0.0,0.1,0.0,0.0,0.0,0.1
1505403907655092990,8900,1505403907654954527,-0.00977758734917,0.012493297613,-0.997541226809,0.0682628531296,1.0,0.0,0.0,0.0,1.0,0.0,0.0,0.0,100000.0,0.0302430354059,-0.018938338384,-0.112770199776,1.0,0.0,0.0,0.0,1.0,0.0,0.0,0.0,1.0,-0.10981359873,0.619627791643,9.44953228235,0.1,0.0,0.0,0.0,0.1,0.0,0.0,0.0,0.1
1505403907656344061,8901,1505403907656207669,-0.00966820768964,0.0122628924151,-0.997531186819,0.0684666236435,1.0,0.0,0.0,0.0,1.0,0.0,0.0,0.0,100000.0,0.0117953512818,0.0383153520525,0.0100998282433,1.0,0.0,0.0,0.0,1.0,0.0,0.0,0.0,1.0,-0.125825090706,0.675454492867,9.46392104626,0.1,0.0,0.0,0.0,0.1,0.0,0.0,0.0,0.1
1505403907660939570,8902,1505403907660720021,-0.00976103038844,0.0120537773,-0.997520826404,0.0686413113878,1.0,0.0,0.0,0.0,1.0,0.0,0.0,0.0,100000.0,0.00634093210101,-0.0479507669806,-0.00635290145874,1.0,0.0,0.0,0.0,1.0,0.0,0.0,0.0,1.0,-0.177380574867,0.566475545615,9.61302667856,0.1,0.0,0.0,0.0,0.1,0.0,0.0,0.0,0.1
1505403907666554484,8903,1505403907666387078,-0.00974664421803,0.0117988654067,-0.99750644611,0.0688961513515,1.0,0.0,0.0,0.0,1.0,0.0,0.0,0.0,100000.0,0.0332237184048,-0.00947833247483,0.0286170244217,1.0,0.0,0.0,0.0,1.0,0.0,0.0,0.0,1.0,-0.229703545198,0.427110206336,9.66208153963,0.1,0.0,0.0,0.0,0.1,0.0,0.0,0.0,0.1
1505403907674612567,8904,1505403907674442925,-0.00985546832879,0.0116564951606,-0.997479323528,0.0692964284693,1.0,0.0,0.0,0.0,1.0,0.0,0.0,0.0,100000.0,-0.0124346092343,-0.064594835043,0.0871452912688,1.0,0.0,0.0,0.0,1.0,0.0,0.0,0.0,1.0,-0.334835094959,0.452964222431,9.62910823822,0.1,0.0,0.0,0.0,0.1,0.0,0.0,0.0,0.1
1505403907676657164,8905,1505403907676482316,-0.0100412066818,0.0115004568499,-0.997455714568,0.069634841398,1.0,0.0,0.0,0.0,1.0,0.0,0.0,0.0,100000.0,-0.00673427805305,-0.0989963412285,0.0587249472737,1.0,0.0,0.0,0.0,1.0,0.0,0.0,0.0,1.0,-0.450758929551,0.385783617944,9.49568228722,0.1,0.0,0.0,0.0,0.1,0.0,0.0,0.0,0.1
1505403907684117348,8906,1505403907683940305,-0.0101538406097,0.0112967028157,-0.997431281521,0.0700008762098,1.0,0.0,0.0,0.0,1.0,0.0,0.0,0.0,100000.0,0.00106079503894,-0.0696269050241,0.0748278945684,1.0,0.0,0.0,0.0,1.0,0.0,0.0,0.0,1.0,-0.44321911037,0.612696047127,9.39445508718,0.1,0.0,0.0,0.0,0.1,0.0,0.0,0.0,0.1
1505403907688340669,8907,1505403907688187646,-0.0104602970351,0.0111233830371,-0.997408194757,0.0703117740291,1.0,0.0,0.0,0.0,1.0,0.0,0.0,0.0,100000.0,-0.0099557004869,-0.153666630387,0.0467999279499,1.0,0.0,0.0,0.0,1.0,0.0,0.0,0.0,1.0,-0.505800785124,0.549770139903,9.32571811676,0.1,0.0,0.0,0.0,0.1,0.0,0.0,0.0,0.1
1505403907692884910,8908,1505403907692764527,-0.0106135582011,0.0109095496214,-0.997396033522,0.0704945843571,1.0,0.0,0.0,0.0,1.0,0.0,0.0,0.0,100000.0,0.00122530758381,-0.084232121706,0.00127500295639,1.0,0.0,0.0,0.0,1.0,0.0,0.0,0.0,1.0,-0.407823294401,0.674713894725,9.28338829279,0.1,0.0,0.0,0.0,0.1,0.0,0.0,0.0,0.1
