%time,field.linear.x,field.linear.y,field.linear.z,field.angular.x,field.angular.y,field.angular.z
1505403906800907530,-0.0249019836816,0.0496071480483,0.0201397538185,0.0,0.0,-0.00409267252519
1505403906850961445,-0.0226897449423,0.045452585365,0.0231962203979,0.0,0.0,-0.00392241605552
1505403906901077369,-0.0246683633103,0.0547856297818,0.0271696448326,0.0,0.0,-0.00294301092665
1505403906950920786,-0.0253808821546,0.0517375138568,0.0306949615479,0.0,0.0,-0.00200470289869
1505403907000977838,-0.0252131079244,0.0543463481676,0.034120619297,0.0,0.0,-0.000982813491404
1505403907050990541,-0.0264473042573,0.0583168292042,0.0373576283455,0.0,0.0,-0.000819002492908
1505403907100975331,-0.0269620767954,0.0580681735794,0.0411172509193,0.0,0.0,-0.000464779801715
1505403907150959950,-0.0283072826328,0.0588272666764,0.0447882413864,0.0,0.0,0.000617414369066
1505403907201035713,-0.0296887146652,0.0588109893189,0.0480928421021,0.0,0.0,0.00179282868906
1505403907250899968,-0.0315303345538,0.0613708525002,0.0498893857002,0.0,0.0,0.00254227593567
1505403907301043027,-0.0330743630177,0.0586708384822,0.0503188967705,0.0,0.0,0.00262002606258
1505403907350929627,-0.034296590538,0.0548178242496,0.0497383475304,0.0,0.0,0.00317207190874
1505403907400873107,-0.0358600957053,0.0513158094364,0.0483029484749,0.0,0.0,0.00234035218181
1505403907450927693,-0.0369524684387,0.0472412864959,0.0454598069191,0.0,0.0,0.00373292918217
1505403907500851843,-0.0373856709195,0.0426364174034,0.0414757728577,0.0,0.0,0.00358959255205
1505403907550970906,-0.0369077612045,0.0382464988128,0.0374262332916,0.0,0.0,0.00398841352756
1505403907601350349,-0.0361447689461,0.0353077989912,0.0333492159843,0.0,0.0,0.00457445345658
1505403907650923257,-0.0358963284708,0.0341265802981,0.0294994711876,0.0,0.0,0.00497008846345
1505403907701018888,-0.000201603655143,0.0226380272277,0.000481962841012,0.0,0.0,0.0282536315918
1505403907750991754,0.00106513666918,0.0219554511574,0.000486474801006,0.0,0.0,0.0239056396484
1505403907800957117,0.00470207332304,0.0219378265287,0.0,0.0,0.0,0.0
1505403907850924079,0.00500097501849,0.0153169555022,0.000456922503477,0.0,0.0,0.0206829833984
1505403907901007625,0.00704350838845,0.0105464213906,0.000483513493029,0.0,0.0,0.0288424682617
1505403907950934073,0.00809082131699,0.00845964401204,0.000498741859806,0.0,0.0,0.0167225646973
1505403908000866204,0.00909858467439,0.00804003689697,-0.000126963216431,0.0,0.0,0.028190612793
1505403908050903074,0.0103542492268,0.0093175344219,0.000493397496345,0.0,0.0,0.0145951843262
1505403908100910485,0.00998673662091,0.00963311252885,0.000504272271692,0.0,0.0,0.0189457702637
1505403908150903809,0.0100240108691,0.0116566494966,-9.39501936198e-05,0.0,0.0,0.0220303344727
1505403908201008985,0.00875262957103,0.0174631277795,-8.30733823701e-05,0.0,0.0,0.0242546081543
1505403908251119721,0.00757546010689,0.0206504654674,0.000531737060235,0.0,0.0,0.0178712463379
1505403908300898165,0.00772521830188,0.0222394386863,0.000530950180735,0.0,0.0,0.0149032592773
1505403908350886147,0.00734551628567,0.036008787877,-8.58689328477e-05,0.0,0.0,0.031964263916
1505403908401024104,0.00626023801513,0.0370098743352,-8.38397164831e-05,0.0,0.0,0.0153674316406
1505403908450954463,0.00514623198739,0.0424460414485,0.000527801295857,0.0,0.0,0.00808868408203
1505403908502767137,0.00519707771719,0.0443373072225,0.000523121696805,0.0,0.0,0.0113990020752
1505403908550927747,0.00563899949493,0.0475882256354,-0.00010167577538,0.0,0.0,0.0106539916992
1505403908601322648,0.00407464251679,0.0484962522121,0.0,0.0,0.0,0.0
1505403908650929186,0.0040254395335,0.0397195071985,-0.000103703983153,0.0,0.0,0.0158638763428
1505403908700974254,0.00062838800708,0.0581555927539,-0.000100277920555,0.0,0.0,0.0110657501221
1505403908750876232,0.00177626986374,0.0518682376765,-9.76220003543e-05,0.0,0.0,0.00829116821289
1505403908801036445,0.00348404036877,0.0411945277825,-0.000100899312903,0.0,0.0,0.012889251709
1505403908850936607,0.00049446771302,0.0608508412689,-0.000105079363549,0.0,0.0,0.00773468017578
1505403908901058324,0.00123919099306,0.0478013818808,0.0,0.0,0.0,0.0
1505403908950974304,0.0028130072275,0.0369047418352,-0.000789669945991,0.0,0.0,0.0275880432129
1505403909000865928,-0.000898020732591,0.0526166420207,0.0,0.0,0.0,0.0
1505403909050982981,-0.000181156542398,0.0440264885977,0.0,0.0,0.0,0.0
1505403909101067792,0.00120933076231,0.028291975239,-0.000786478817228,0.0,0.0,0.00823120117188
1505403909150938244,-0.00474333596066,0.044033148338,0.0,0.0,0.0,0.0
1505403909201253555,-0.00276404360529,0.0331663731667,0.0,0.0,0.0,0.0
1505403909250902713,-0.0032892741509,0.030221699164,0.0,0.0,0.0,0.0
1505403909300913969,-0.00437795508645,0.0237392830612,-0.000782737427473,0.0,0.0,0.00585983276367
1505403909350962658,-0.00572839034774,0.0179741756231,0.0,0.0,0.0,0.0
1505403909401095336,-0.00698500650317,0.0187803278361,-0.000772786638054,0.0,0.0,0.00767425537109
1505403909451101923,-0.00752259665299,0.0176803381916,0.0,0.0,0.0,0.0
1505403909501003781,-0.00851133630462,0.0182749089568,0.0,0.0,0.0,0.0
1505403909551016670,-0.0078075666272,0.0208602906463,0.0,0.0,0.0,0.0
1505403909601022995,-0.00678598170552,0.0222809514498,0.0,0.0,0.0,0.0
1505403909651020381,-0.00594059086302,0.0167730523098,-0.000762999038231,0.0,0.0,-0.00994773864746
1505403909701024727,-0.00559998057906,0.0180901735064,-0.000759284964097,0.0,0.0,-0.0095246887207
1505403909750947550,-0.0057155313244,0.0152650729327,-0.000761949391042,0.0,0.0,-0.00367858886719
1505403909801034817,-0.00629701234927,0.0157039770223,0.0,0.0,0.0,0.0
1505403909850942936,-0.00706345880113,0.0153326320379,-7.2852255578e-05,0.0,0.0,-0.00576599121094
1505403909901000801,-0.00523852463624,0.0183838331636,0.0,0.0,0.0,0.0
1505403909950890706,-0.00451096468359,0.0166771458452,0.0,0.0,0.0,0.0
1505403910001072037,-0.00402906852327,0.0143181730389,-6.71419533889e-05,0.0,0.0,-0.00757484436035
1505403910050953608,-0.00329289484089,0.0196009535849,0.0,0.0,0.0,0.0
1505403910100948088,-0.00255881017026,0.0213000905315,-8.59838706745e-05,0.0,0.0,-0.00992553710938
1505403910151039502,-0.00170057863821,0.0261722015657,-9.03015788316e-05,0.0,0.0,-0.0181666564941
1505403910201395443,-0.000831092446433,0.0299889145418,-8.98775437225e-05,0.0,0.0,-0.0181666564941
1505403910250891811,0.000554991392912,0.0210313355836,-9.11438022552e-05,0.0,0.0,-0.00921981811523
1505403910301007499,-0.000952859452012,0.0458770788858,-8.57779306362e-05,0.0,0.0,-0.015086517334
1505403910350927907,0.000227007144243,0.0267268852758,-8.39855549333e-05,0.0,0.0,-0.0154090881348
1505403910401039879,-0.00153424749713,0.0475096445595,-8.26595695533e-05,0.0,0.0,-0.0160264587402
1505403910451150685,-0.00226148525649,0.0386252954917,0.0,0.0,0.0,0.0
1505403910501049617,-0.00305832837162,0.0376817358209,-0.000766435887814,0.0,0.0,-0.0123597717285
1505403910551040581,-0.00278627977628,0.0231832662679,-0.000756612819719,0.0,0.0,-0.0244505310059
1505403910600993714,-0.00948793895335,0.0488358998547,-5.8082414027e-05,0.0,0.0,-0.0271710968018
1505403910650942023,-0.0103925018457,0.0317201360403,0.0,0.0,0.0,0.0
1505403910701070184,-0.00969137943353,0.0177249200564,-0.000748689928573,0.0,0.0,-0.0178761291504
1505403910750904607,-0.0227549227916,0.0447866739014,0.0,0.0,0.0,0.0
1505403910800992006,-0.0198013486329,0.0322356339692,0.0,0.0,0.0,0.0
1505403910850920847,-0.0173579069625,0.0185061825201,0.0,0.0,0.0,0.0
1505403910900990935,-0.031554147443,0.0501738804816,0.0,0.0,0.0,0.0
1505403910950925092,-0.025470331407,0.0235461613804,-0.000717793661427,0.0,0.0,-0.0471279907227
1505403911000996189,-0.0204151337198,0.0116755001795,0.0,0.0,0.0,0.0
1505403911050935666,-0.0336340018053,0.0303866347854,-0.000712005396304,0.0,0.0,-0.0507674407959
1505403911101055813,-0.0269137663304,0.0145925842703,-0.000710663747514,0.0,0.0,-0.0492917633057
1505403911150997443,-0.0223185258207,0.00847136545093,0.0,0.0,0.0,0.0
1505403911201186497,-0.0350188792637,0.0165578503716,-0.00072928573454,0.0,0.0,-0.0184252929687
1505403911251098403,-0.0276019106838,0.0105404417323,0.0,0.0,0.0,0.0
1505403911301096728,-0.027923205844,0.00568986540699,-0.000736834349139,0.0,0.0,-0.0510977172852
1505403911353469297,-0.0277643666084,0.00474935199633,0.0,0.0,0.0,0.0
1505403911401028593,-0.0277960840397,0.00128597054812,0.0,0.0,0.0,0.0
1505403911450980427,-0.0281924420026,0.00286779333104,-0.000745872263747,0.0,0.0,-0.0403437042236
1505403911501029880,-0.0238930749547,-0.00215676781327,0.0,0.0,0.0,0.0
1505403911551042378,-0.0319266776102,-0.00231307869178,-0.00150646067031,0.0,0.0,-0.0652903747559
1505403911600991829,-0.0306411317633,-0.00692860263302,-0.000760136061759,0.0,0.0,-0.0454762268066
1505403911650949805,-0.0256186116133,-0.0107547096399,0.0,0.0,0.0,0.0
1505403911700988389,-0.0315535306603,-0.00584768312112,0.0,0.0,0.0,0.0
1505403911750994901,-0.031217913112,-0.0150337034184,-0.00076546470719,0.0,0.0,-0.0440398406982
1505403911801013050,-0.0256233733556,-0.0191565616797,-0.000786133981547,0.0,0.0,-0.0342442321777
1505403911850982108,-0.0299384716288,-0.0084056635124,-0.0007847885967,0.0,0.0,-0.0487949371338
1505403911900938422,-0.0268684904113,-0.0191683383857,0.0,0.0,0.0,0.0
1505403911950976429,-0.0259371314336,-0.00336435940826,-9.19452590693e-05,0.0,0.0,-0.0490003204346
1505403912001126264,-0.0235150571157,-0.00656380489728,-0.000104857154171,0.0,0.0,-0.030358505249
1505403912050973826,-0.0207008559927,-0.0121055322837,-0.000117179650855,0.0,0.0,-0.0454098510742
1505403912101055243,-0.0196903058662,0.00579395057548,-9.92472889743e-05,0.0,0.0,-0.0496346282959
1505403912151134484,-0.018803202415,0.000455288618745,-8.65350816525e-05,0.0,0.0,-0.033025970459
1505403912201021670,-0.0164663716741,0.00316013894827,-8.16334912699e-05,0.0,0.0,-0.0427764892578
1505403912250971914,-0.0138031528482,-0.00150228845251,-9.81260443865e-05,0.0,0.0,-0.0742240905762
1505403912301030341,-0.0112570067082,0.0229319494257,-0.000113944199651,0.0,0.0,-0.0665023803711
1505403912350924681,-0.0100703815164,0.0192077959341,-8.15558411302e-05,0.0,0.0,-0.0597761535645
1505403912401065400,-0.00737382861468,0.0234152530769,-6.43738317575e-05,0.0,0.0,-0.0593681335449
1505403912450928298,-0.00609929374286,0.0304655475833,0.000542888950216,0.0,0.0,-0.0415156555176
1505403912501024925,-0.00646669602625,0.0180053528404,-6.92546509446e-05,0.0,0.0,-0.0707360839844
1505403912550973589,-0.00380057175601,0.0471440549321,-4.90700812469e-05,0.0,0.0,-0.0574392700195
1505403912601056110,-0.00475335263349,0.0373117863064,0.0,0.0,0.0,0.0
1505403912650944155,-0.00394500645611,0.0386865605319,-5.37950766131e-05,0.0,0.0,-0.0662188720703
1505403912701135645,-0.00416071689213,0.0375944568174,-6.18250704791e-05,0.0,0.0,-0.0511367034912
1505403912750921171,-0.00395159299499,0.0391455482711,-5.83764612344e-05,0.0,0.0,-0.0676239776611
1505403912800986546,-0.00457008279639,0.0416120334426,-6.14604843556e-05,0.0,0.0,-0.0639589691162
1505403912851164977,-0.00460958199713,0.0393848382712,0.0,0.0,0.0,0.0
1505403912900992152,-0.00546952053855,0.0358314071016,0.0,0.0,0.0,0.0
1505403912950938156,-0.00515006318326,0.038822412787,-7.49127368432e-05,0.0,0.0,-0.0450359344482
1505403913001103280,-0.00591427858857,0.0373745805356,0.0,0.0,0.0,0.0
1505403913051090601,-0.00712998909593,0.037064912084,0.0,0.0,0.0,0.0
1505403913101014851,-0.0082024213642,0.0264979171326,-0.000768769762932,0.0,0.0,-0.0539028930664
1505403913150990995,-0.00654687903888,0.0464714678037,0.0,0.0,0.0,0.0
1505403913201040082,-0.00706391078719,0.030686846826,0.0,0.0,0.0,0.0
1505403913250969039,-0.00787635902278,0.026394713886,-0.000789555681098,0.0,0.0,-0.0709480285645
1505403913301045864,-0.00549576324644,0.0334299898401,0.0,0.0,0.0,0.0
1505403913350915745,-0.00545688549688,0.0228611773098,-0.000110115519794,0.0,0.0,-0.0388381958008
1505403913401052758,-0.00488028131974,0.0247340380634,-0.000115449040742,0.0,0.0,-0.0338781738281
1505403913450983690,-0.0040353642056,0.0230867328399,-0.000115902692861,0.0,0.0,-0.0462730407715
1505403913500939895,-0.00412353662155,0.0187581757231,0.0,0.0,0.0,0.0
1505403913550945169,-0.0010458837249,0.0187532008132,-0.000113545692814,0.0,0.0,-0.0431437683105
1505403913600945232,-0.00123621869922,0.0254713089832,-0.000104985350313,0.0,0.0,-0.048992767334
1505403913650896877,-0.00179794451632,0.0223686745806,0.0,0.0,0.0,0.0
1505403913700933549,0.00263935774933,0.0283572582253,0.0,0.0,0.0,0.0
1505403913750888155,0.00454818190635,0.0334880870154,-9.45792501025e-05,0.0,0.0,-0.0602571105957
1505403913800994963,0.00323906522281,0.0334016057293,-0.000772108500373,0.0,0.0,-0.0698072814941
1505403913850972953,0.00971603251234,0.0404308132672,0.0,0.0,0.0,0.0
1505403913901026646,0.00974503492235,0.0418096283052,0.0,0.0,0.0,0.0
1505403913950941881,0.0072297339808,0.0363179753847,0.0,0.0,0.0,0.0
1505403914001062901,0.0169097776753,0.0446536522064,0.0,0.0,0.0,0.0
1505403914050920114,0.0157675041594,0.0414380063006,0.0,0.0,0.0,0.0
1505403914101087883,0.0127251081865,0.0377145525676,0.0,0.0,0.0,0.0
1505403914150941311,0.0227159858281,0.0481796605201,-0.000100718074299,0.0,0.0,-0.111940994263
1505403914200978515,0.0232540900727,0.0502132599979,-0.000100332034334,0.0,0.0,-0.0981509399414
1505403914250942380,0.0188644664893,0.0465614286655,-9.84597921928e-05,0.0,0.0,-0.118815917969
1505403914300988546,0.0266552285971,0.0480367647384,-0.000101158088147,0.0,0.0,-0.119281616211
1505403914350960207,0.0248205555255,0.04793165405,0.000482501898761,0.0,0.0,-0.112050170898
1505403914401008492,0.0198495848245,0.0424703953292,0.000480714283117,0.0,0.0,-0.125582809448
1505403914450924902,0.0229128602804,0.0396614001093,-0.000139725761049,0.0,0.0,-0.121985015869
1505403914501065430,0.0275029561228,0.0354189411659,0.000447334479686,0.0,0.0,-0.108913040161
1505403914550935699,0.0239126487694,0.0300337308829,0.000450825219886,0.0,0.0,-0.102537994385
1505403914601337958,0.0227895059452,0.0236785779754,0.000453428056187,0.0,0.0,-0.13080406189
1505403914650933270,0.0230991532498,0.0196529578145,0.000466626317927,0.0,0.0,-0.11044418335
1505403914701011340,0.0244505870958,0.0141481904131,0.000443572143166,0.0,0.0,-0.11725692749
1505403914750934818,0.0217768426063,0.0183005459526,0.000457035164127,0.0,0.0,-0.1329246521
1505403914801021053,0.0305099582689,-0.0032454874406,0.000462197367604,0.0,0.0,-0.113185272217
1505403914850931331,0.0262035469167,0.000478143266211,0.000454925420101,0.0,0.0,-0.139535675049
1505403914901051432,0.0258268345913,-0.00790560555458,0.000435993512962,0.0,0.0,-0.0958665466309
1505403914950885964,0.0263155082775,-0.0149802722077,0.000457870459312,0.0,0.0,-0.143470993042
1505403915001065921,0.0255268847528,-0.0193409235378,0.000470338237889,0.0,0.0,-0.11495513916
1505403915050952576,0.0214327778936,-0.00925160626151,0.000520343046894,0.0,0.0,-0.116968078613
1505403915101007949,0.0299051949638,-0.0390051082251,-4.23649773423e-05,0.0,0.0,-0.140856246948
1505403915150929829,0.0245731033744,-0.0243084856403,0.000607855662973,0.0,0.0,-0.106011123657
1505403915201020174,0.0269297378063,-0.0223499031417,3.91495377262e-05,0.0,0.0,-0.144013519287
1505403915250910834,0.0278467394142,-0.0218490340355,0.0,0.0,0.0,0.0
1505403915301373528,0.0292952413631,-0.0212404232274,4.43669573047e-05,0.0,0.0,-0.0944302368164
1505403915351078285,0.0289503717269,-0.0166628554633,0.0,0.0,0.0,0.0
1505403915400959686,0.0298177021355,-0.0128231293733,7.4375147483e-05,0.0,0.0,-0.0975541687012
1505403915450879446,0.030488468346,-0.00595948501688,8.43843850093e-05,0.0,0.0,-0.109786682129
1505403915501373743,0.0327721337123,-0.00541284927489,6.28688968677e-05,0.0,0.0,-0.139710083008
1505403915550971721,0.0338235040289,-0.00402959808635,0.0,0.0,0.0,0.0
1505403915600973985,0.0301580103004,0.00650233167924,0.0,0.0,0.0,0.0
1505403915650936905,0.040322235904,-0.00682854888515,-0.00069723663392,0.0,0.0,-0.127619628906
1505403915700973632,0.0339471383264,0.00191167075165,-3.2969192112e-05,0.0,0.0,-0.126631240845
1505403915751155415,0.0311878245266,0.0110612109916,-6.02865381546e-05,0.0,0.0,-0.121914291382
1505403915801422133,0.0373447914512,-0.00806235646872,-6.17299565724e-05,0.0,0.0,-0.11662902832
1505403915850927803,0.0306145962741,0.000551823148373,0.0,0.0,0.0,0.0
1505403915901338897,0.0284265934845,0.0125931729026,-5.90356146109e-05,0.0,0.0,-0.115652770996
1505403915950947105,0.0303151763287,-0.00957552076655,0.0,0.0,0.0,0.0
1505403916000935531,0.0277145413582,0.00163589386154,-6.14281848253e-05,0.0,0.0,-0.0877833557129
1505403916050983713,0.0261726683014,0.0110036831406,-8.7889698247e-05,0.0,0.0,-0.11577293396
1505403916101206437,0.0230489948305,-0.0113471315139,-7.74356789778e-05,0.0,0.0,-0.112053833008
1505403916151005540,0.0240839748578,-0.0039768755636,-5.40016744552e-05,0.0,0.0,-0.113770370483
1505403916201033420,0.0219051851998,0.00286026785829,0.000557199214813,0.0,0.0,-0.0777710723877
1505403916250989332,0.0183044607395,-0.0218662816546,0.00056008558604,0.0,0.0,-0.111924285889
1505403916301075961,0.0206465754895,-0.0135404656591,0.000560137618227,0.0,0.0,-0.0983101654053
1505403916350973129,0.0224988567465,0.00026110924009,0.000570676595033,0.0,0.0,-0.0851313781738
1505403916401021604,0.0178828363384,-0.0311709271063,0.00109950738528,0.0,0.0,-0.079875869751
1505403916451007105,0.0247179804843,-0.0209477054022,0.000627609802474,0.0,0.0,-0.0988623046875
1505403916501155611,0.0241444271628,-0.0203555250204,0.000619814924246,0.0,0.0,-0.077437286377
1505403916551144222,0.0241187319898,-0.0273537980826,0.00106729343412,0.0,0.0,-0.0710891723633
1505403916601018998,0.0255890465986,-0.0271439062926,0.00108887371645,0.0,0.0,-0.0725952148438
1505403916650943682,0.0242683325401,-0.0235608492951,0.00113066845705,0.0,0.0,-0.0612715911865
1505403916701122552,0.0224690718858,-0.0257374045267,0.00162869081238,0.0,0.0,-0.0648240661621
1505403916751052660,0.0225892186041,-0.0220964028539,0.00115267839028,0.0,0.0,-0.0667373657227
1505403916801029322,0.0245326307939,-0.0187906740949,0.00111464574529,0.0,0.0,-0.0719926452637
1505403916850874094,0.0253660192591,-0.0160127973074,0.0011174859298,0.0,0.0,-0.0617395019531
1505403916901049819,0.0245854882714,-0.0152661544477,0.00159591480891,0.0,0.0,-0.0661679077148
1505403916950874493,0.0250931414088,-0.0101219519234,0.00114186549745,0.0,0.0,-0.0674978637695
1505403917000990861,0.0227999791723,0.00483309342086,0.00113092104746,0.0,0.0,-0.050227355957
1505403917050967398,0.0239665947908,-0.0139110434282,0.00108234684675,0.0,0.0,-0.0594929504395
1505403917100944576,0.0211498152148,0.00138580516512,0.00106633956647,0.0,0.0,-0.060811920166
1505403917150928571,0.0201218465275,0.00328095140361,0.00107831509387,0.0,0.0,-0.0584509277344
1505403917201046254,0.0187561762484,0.0241006306976,0.00108702344272,0.0,0.0,-0.0581498718262
1505403917250891816,0.0138061076201,-0.00709282482635,0.00109290960686,0.0,0.0,-0.0351063537598
1505403917301115337,0.0114370443209,0.0116596459989,0.00155985059568,0.0,0.0,-0.0352732086182
1505403917350959776,0.0134393391052,0.0242462416745,0.00055899735171,0.0,0.0,-0.0395886993408
1505403917401006525,0.00785476388517,0.0149969767152,0.0,0.0,0.0,0.0
1505403917451008601,0.00465317359151,0.0159755070156,0.00144800461561,0.0,0.0,-0.0399842834473
1505403917501106144,0.00167793007417,0.023026621649,0.000995013349135,0.0,0.0,-0.0467841339111
1505403917550994396,0.00242049921241,0.0316736552007,0.000998764504356,0.0,0.0,-0.038211517334
1505403917600983979,-0.00619458151023,0.0245567450109,0.00147424759995,0.0,0.0,-0.0303721618652
1505403917651125925,-0.014537782307,0.0259625971264,0.000999681128089,0.0,0.0,-0.0431956481934
1505403917701112512,-0.00602453468133,0.0337321676754,0.0,0.0,0.0,0.0
1505403917750937123,-0.0148654732851,0.031355924791,0.0,0.0,0.0,0.0
1505403917800981422,-0.0252286298067,0.0258740053322,0.0,0.0,0.0,0.0
1505403917850899639,-0.0206384777063,0.0325416454956,0.0,0.0,0.0,0.0
1505403917900972520,-0.0143003634806,0.0371602651534,0.0,0.0,0.0,0.0
1505403917950942360,-0.0300200081243,0.0282467630161,0.0,0.0,0.0,0.0
1505403918001033472,-0.0163264790244,0.0350062616688,0.0,0.0,0.0,0.0
1505403918050981392,-0.0238625302769,0.029331918161,0.0,0.0,0.0,0.0
1505403918101038298,-0.0321264714363,0.0241652189653,0.0,0.0,0.0,0.0
1505403918150956758,-0.0192049458806,0.0313496623742,0.0,0.0,0.0,0.0
1505403918200993607,-0.0263245385928,0.0268366314684,0.0,0.0,0.0,0.0
1505403918251015801,-0.0320120386682,0.0177524198656,0.0,0.0,0.0,0.0
1505403918301023808,-0.0228119805721,0.0247167725458,0.0,0.0,0.0,0.0
1505403918350915896,-0.0149564420395,0.0323472572369,0.0,0.0,0.0,0.0
1505403918401066747,-0.0259211052132,0.0117440456202,0.0,0.0,0.0,0.0
1505403918451040355,-0.0191260803647,0.0154516844172,0.0,0.0,0.0,0.0
1505403918501029915,-0.0190399374265,0.0181067525986,0.0,0.0,0.0,0.0
1505403918550941394,-0.0145109235632,0.0227559406377,0.0,0.0,0.0,0.0
1505403918600973083,-0.0241396012153,0.013314512898,0.0,0.0,0.0,0.0
1505403918650885830,-0.0187824533419,0.0193995825204,0.0,0.0,0.0,0.0
1505403918701031073,-0.0139814110626,0.0244695088372,0.0,0.0,0.0,0.0
1505403918750866981,-0.0221351212199,0.00965848677626,0.0,0.0,0.0,0.0
1505403918801357931,-0.0169729542365,0.0118058395479,0.0,0.0,0.0,0.0
1505403918850920232,-0.013076814642,0.0115792257475,0.0,0.0,0.0,0.0
1505403918901039508,-0.0226448969025,-0.0110773836064,0.0,0.0,0.0,0.0
1505403918950972487,-0.016506096571,-0.0146855929824,0.0,0.0,0.0,0.0
1505403919001363127,-0.0121598659835,-0.0105564111736,0.0,0.0,0.0,0.0
1505403919050987882,-0.0188587181877,-0.0487666977815,0.0,0.0,0.0,0.0
1505403919101068072,-0.0132324971667,-0.0455457342055,0.0,0.0,0.0,0.0
1505403919150907074,-0.0114571639474,-0.0191226677608,0.000963438602022,0.0,0.0,-0.0181465148926
1505403919200946987,-0.0164552128118,-0.0715520031796,0.00098604842606,0.0,0.0,-0.00673278808594
1505403919250926112,-0.0127280106484,-0.0538098358093,0.00100961566175,0.0,0.0,-0.0152926635742
1505403919301000426,-0.0129105793443,-0.0617855706339,0.000500245916379,0.0,0.0,-0.00244812011719
1505403919351125500,-0.0106211903676,-0.0496422050888,0.0004939231187,0.0,0.0,-0.00445999145508
1505403919401092234,-0.0178209633533,-0.119252620533,0.000508520211579,0.0,0.0,-0.0120545196533
1505403919451034491,-0.0129526469217,-0.0800976581497,-7.16010067473e-05,0.0,0.0,-0.0165235900879
1505403919500991828,-0.0148857988936,-0.0888856072432,-5.00685088818e-05,0.0,0.0,-0.00364784240723
1505403919551060333,-0.0118480413008,-0.0630653219625,-3.09291771784e-05,0.0,0.0,-0.0161085510254
1505403919601007049,-0.0219963264828,-0.13623906939,-2.57474558514e-05,0.0,0.0,-0.0186849975586
1505403919650954255,-0.0145511072037,-0.0877350220494,0.0,0.0,0.0,0.0
1505403919701051130,-0.0112978237498,-0.0602075480256,0.0,0.0,0.0,0.0
1505403919751121480,-0.0201833724533,-0.130112399199,-0.00148775569996,0.0,0.0,-0.0244088745117
1505403919800964879,-0.0123832858508,-0.0755952723849,0.0,0.0,0.0,0.0
1505403919851011894,-0.00958120722689,-0.0574979578931,-0.000756211959032,0.0,0.0,-0.017661895752
1505403919900902645,-0.0149141886641,-0.0963412859317,-0.000785629232273,0.0,0.0,-0.0194153594971
1505403919950955431,-0.00910405408331,-0.0588854910746,-0.000797484429497,0.0,0.0,-0.0297473907471
1505403920000984204,-0.00765613180837,-0.04388723466,-0.00157264390832,0.0,0.0,-0.034458770752
1505403920050945411,-0.00813907197733,-0.0633433490107,0.0,0.0,0.0,0.0
1505403920100982945,-0.00572055625214,-0.0391846120189,-0.0015962238691,0.0,0.0,-0.0293682861328
1505403920151059259,-0.004737770411,-0.0251075659743,0.0,0.0,0.0,0.0
1505403920201117517,-0.00334522636714,-0.0350082850204,-0.000836101865149,0.0,0.0,-0.0124649047852
1505403920251005912,-0.00361821327017,-0.0176071378045,-0.000813817341665,0.0,0.0,-0.0152559661865
1505403920300997502,-0.00150437365888,-0.025546988356,-0.00156027340885,0.0,0.0,-0.0170281982422
1505403920350932992,-0.00148206917917,-0.0147802971556,-0.0015670263299,0.0,0.0,-0.0151359558105
1505403920401031189,-0.000767067202426,-0.0100292907009,-0.00157168204847,0.0,0.0,-0.016950302124
1505403920451053650,-0.000799175431346,-0.00836764051744,0.0,0.0,0.0,0.0
1505403920501026652,0.00229297208404,0.00275966884255,0.0,0.0,0.0,0.0
1505403920550856473,0.00126500468647,-0.0031796897861,-0.000800623930908,0.0,0.0,-0.00530128479004
1505403920601101358,0.00374856678446,0.00891577355652,-0.000794512559803,0.0,0.0,-0.00458755493164
1505403920650954249,0.00451240576817,0.00588282896757,-0.000791598184791,0.0,0.0,-0.0153691101074
1505403920700993326,0.00337779121702,-0.000689678178835,-0.000787141330314,0.0,0.0,-0.00495941162109
1505403920750993303,0.00778145784834,0.0122001870482,-0.00152843439738,0.0,0.0,-0.00189147949219
1505403920801012847,0.0088631242146,0.00394210856857,0.0,0.0,0.0,0.0
1505403920850992159,0.00722806633815,-0.000414990792474,0.0,0.0,0.0,0.0
1505403920900984940,0.0128357288667,0.00708625528356,-0.000731016286324,0.0,0.0,-0.00302200317383
1505403920950902054,0.0109262228723,0.00223590950292,-0.00074582410779,0.0,0.0,-0.00356636047363
1505403921001055135,0.00678008824736,-0.00403008722193,-0.000750962077545,0.0,0.0,0.00183128356934
1505403921050952010,0.0116795952135,0.0125718829952,0.0,0.0,0.0,0.0
1505403921101049055,0.00933219074504,0.00488296778423,-0.000760566933132,0.0,0.0,0.00161163330078
1505403921150910699,0.00761587918827,0.00134976843557,-0.000763862526657,0.0,0.0,-0.0003173828125
1505403921201080629,0.0103951670579,0.0116561204052,-0.000765797573276,0.0,0.0,-0.00687683105469
1505403921251252916,0.00802422760297,0.00613241860888,-0.00151746357167,0.0,0.0,-0.00393127441406
1505403921300958417,0.00543760599564,0.000235898503499,-0.000764237486066,0.0,0.0,-0.00730758666992
1505403921350983275,0.00490301698125,0.0143335123409,-0.000764325907862,0.0,0.0,0.00139373779297
1505403921401010567,5.83614356481e-05,0.00786316296836,0.0,0.0,0.0,0.0
1505403921451031539,-0.00161075875552,-0.0026442360278,-0.000751668931628,0.0,0.0,-0.00800399780273
1505403921500979753,-0.00309268685557,0.00424999426374,0.0,0.0,0.0,0.0
1505403921550834037,-0.0051299230755,0.00348019480674,0.0,0.0,0.0,0.0
1505403921600981811,-0.00912873174279,0.0103957802113,-4.5498604981e-05,0.0,0.0,-0.0175479125977
1505403921650941469,-0.00802130405951,-0.00654970497095,0.0,0.0,0.0,0.0
1505403921701005954,-0.0102006680692,-0.00504548651822,-0.000721722033515,0.0,0.0,-0.0332360839844
1505403921750909162,-0.0124564658466,0.00244949056152,0.0,0.0,0.0,0.0
1505403921800989789,-0.00959788250909,-0.0152909628745,0.0,0.0,0.0,0.0
1505403921850922950,-0.0126285971057,-0.00373680605304,0.0,0.0,0.0,0.0
1505403921901016033,-0.0112291533157,-0.0121286001354,0.0,0.0,0.0,0.0
1505403921950944677,-0.00999527194686,-0.0176838115658,0.0,0.0,0.0,0.0
1505403922001037189,-0.0111070894254,-0.0248353952653,-0.000677503450324,0.0,0.0,-0.0441670227051
1505403922050972603,-0.00975208316976,-0.0359922187016,0.0,0.0,0.0,0.0
1505403922101025761,-0.0072631665515,-0.0362766192142,0.0,0.0,0.0,0.0
1505403922150893349,-0.00777477343286,-0.0348961911177,-4.92151730033e-05,0.0,0.0,-0.0370611572266
1505403922201057037,-0.00720833983463,-0.0427943069417,-8.55755689447e-05,0.0,0.0,-0.0600883483887
1505403922250925559,-0.00667916260681,-0.0442243707926,0.000498017110984,0.0,0.0,-0.0540131378174
1505403922301100253,-0.00398562905447,-0.039915962514,-0.000129061341216,0.0,0.0,-0.064925994873
1505403922350913215,-0.00318796553763,-0.0472119194283,0.0,0.0,0.0,0.0
1505403922400976190,-0.00160673190331,-0.0433437966032,0.0,0.0,0.0,0.0
1505403922451007225,-0.000911448976735,-0.0370561855702,0.0,0.0,0.0,0.0
1505403922501103337,-0.00148968413622,-0.0383615124973,0.0,0.0,0.0,0.0
1505403922550978365,0.00167409839183,-0.0258236855356,0.0,0.0,0.0,0.0
1505403922601043677,7.0808949311e-06,-0.0290222636478,0.0,0.0,0.0,0.0
1505403922651234531,-0.000865378750131,-0.0290950083809,0.0,0.0,0.0,0.0
1505403922701012821,0.00188201116736,-0.0179808658244,0.0,0.0,0.0,0.0
1505403922751034712,0.000241849223407,-0.0196773306534,0.0,0.0,0.0,0.0
1505403922801065898,-0.00226654872892,-0.0203161755464,0.0,0.0,0.0,0.0
1505403922850992847,-0.000365879239793,-0.0130744208238,0.0,0.0,0.0,0.0
1505403922901004240,-0.000536985111586,-0.00518618873347,0.0,0.0,0.0,0.0
1505403922951155675,-0.00320001909635,-0.016495468647,0.0,0.0,0.0,0.0
1505403923000977743,-0.00178971259488,-0.00539923239226,0.0,0.0,0.0,0.0
1505403923051043911,-0.00281908554361,-0.00886595399667,0.0,0.0,0.0,0.0
1505403923101057139,-0.00319762607028,-0.0163850201746,0.0,0.0,0.0,0.0
1505403923151005022,-0.000959258232095,-0.0109137460966,0.0,0.0,0.0,0.0
1505403923201370467,0.000874364529878,-0.00784800434725,0.0,0.0,0.0,0.0
1505403923251018161,0.000633900588484,-0.0135625537177,0.0,0.0,0.0,0.0
1505403923301013061,0.00522049178493,-0.00721702239955,0.0,0.0,0.0,0.0
1505403923351007674,0.00579791964264,-0.0101231005767,0.0,0.0,0.0,0.0
1505403923401020142,0.00632471927444,-0.0114244653022,0.0,0.0,0.0,0.0
1505403923451003168,0.0115195107907,-0.00579506505497,0.0,0.0,0.0,0.0
1505403923501063145,0.0167747385121,-0.00263857017479,0.0,0.0,0.0,0.0
1505403923550980274,0.0139402957038,-0.00541254399303,0.0,0.0,0.0,0.0
1505403923600994766,0.0148316429548,-0.00637403206981,0.0,0.0,0.0,0.0
1505403923650957153,0.0123913974628,-0.00960781550794,0.0,0.0,0.0,0.0
1505403923701079845,0.0190475816069,-0.00392538445344,0.0,0.0,0.0,0.0
1505403923751003732,0.0154365287563,-0.00894638404265,0.0,0.0,0.0,0.0
1505403923800998089,0.0102346980399,-0.0193668261652,0.0,0.0,0.0,0.0
1505403923851043696,0.0134642849841,-0.00370255791378,0.0,0.0,0.0,0.0
1505403923900940823,0.00830307999774,-0.0100110252684,0.0,0.0,0.0,0.0
1505403923951038359,0.00538597241799,-0.00695850341374,0.0,0.0,0.0,0.0
1505403924001060398,0.00167824807801,-0.00507278223697,0.0,0.0,0.0,0.0
1505403924050929310,-0.00175897589122,-0.00254414078556,0.0,0.0,0.0,0.0
1505403924100946038,-0.00423882600077,-0.00561854459885,0.0,0.0,0.0,0.0
1505403924150923346,-0.010189533054,0.0101811697491,0.0,0.0,0.0,0.0
1505403924200988428,-0.0135409062238,0.00694159088749,0.0,0.0,0.0,0.0
1505403924250963399,-0.0145869129477,0.00258280298054,0.0,0.0,0.0,0.0
1505403924301357408,-0.0270414181664,0.0178486275583,0.0,0.0,0.0,0.0
1505403924350950969,-0.0264761415067,0.0123289011051,0.0,0.0,0.0,0.0
1505403924400995487,-0.0235192476053,0.00633728366217,0.0,0.0,0.0,0.0
1505403924450910427,-0.0314927527961,0.0157532928501,0.0,0.0,0.0,0.0
1505403924500940350,-0.0406064129892,0.021372217014,0.0,0.0,0.0,0.0
1505403924550949348,-0.0355276773946,0.017288460125,0.0,0.0,0.0,0.0
1505403924601091077,-0.0358076619386,0.0144786613273,0.0,0.0,0.0,0.0
1505403924651008230,-0.0290518328398,0.00283689782138,0.0,0.0,0.0,0.0
1505403924700991507,-0.0442850192779,0.0229708193972,0.0,0.0,0.0,0.0
1505403924751025255,-0.0364376402919,0.013124094669,0.0,0.0,0.0,0.0
1505403924800973531,-0.0304193669596,0.00561108152474,0.0,0.0,0.0,0.0
1505403924851053832,-0.0425448886239,0.0204170142087,0.0,0.0,0.0,0.0
1505403924901013017,-0.0355592840228,0.0112893801531,0.0,0.0,0.0,0.0
1505403924950970110,-0.0303772230057,0.00221879792341,0.0,0.0,0.0,0.0
1505403925001138352,-0.0369356652257,0.0125709281359,0.0,0.0,0.0,0.0
1505403925050956361,-0.0317413250403,0.00544814389061,0.0,0.0,0.0,0.0
1505403925101023913,-0.0277279967902,-0.00209562282585,0.0,0.0,0.0,0.0
1505403925150967376,-0.0336501241627,0.00866851568332,0.0,0.0,0.0,0.0
1505403925200983859,-0.0285562138369,-0.000539503382747,0.0,0.0,0.0,0.0
1505403925251174215,-0.0311177279832,0.00758315893694,0.0,0.0,0.0,0.0
1505403925300960626,-0.0294188899934,0.00367127403928,0.0,0.0,0.0,0.0
1505403925351070339,-0.0263480300969,-0.00416231392664,0.0,0.0,0.0,0.0
1505403925401015165,-0.0294100771835,0.00766372980372,0.0,0.0,0.0,0.0
1505403925451008028,-0.026765196678,0.00455205053639,0.0,0.0,0.0,0.0
1505403925501107334,-0.0251149076333,0.00272892521017,0.0,0.0,0.0,0.0
1505403925551036565,-0.025688030156,0.00286760362961,0.0,0.0,0.0,0.0
1505403925601005135,-0.0228831883364,-0.000673355787204,0.0,0.0,0.0,0.0
1505403925650895674,-0.0266470983629,0.00504117197755,0.0,0.0,0.0,0.0
1505403925701021965,-0.0290265863476,0.0122992946603,0.0,0.0,0.0,0.0
1505403925750998429,-0.023811457156,0.00704879816352,0.0,0.0,0.0,0.0
1505403925800992256,-0.0280183128611,0.00986669312565,0.0,0.0,0.0,0.0
1505403925850931359,-0.028548432874,0.00977318177572,0.0,0.0,0.0,0.0
1505403925900979181,-0.0286703629416,0.0100512877307,0.0,0.0,0.0,0.0
1505403925950936350,-0.0292859714039,0.0134238111196,0.0,0.0,0.0,0.0
1505403926001104357,-0.030267535461,0.0145924249233,0.0,0.0,0.0,0.0
1505403926050944008,-0.0320437070679,0.0163764840355,0.0,0.0,0.0,0.0
1505403926100974511,-0.0314452640467,0.0183677463828,0.0,0.0,0.0,0.0
1505403926150925193,-0.0343951783145,-0.023613998151,-7.25087509157e-05,0.0,0.0,-0.0740020751953
1505403926201010746,-0.0336301373413,-0.0175434239932,0.000527171096081,0.0,0.0,-0.0581983947754
1505403926250959152,-0.0338740786936,-0.0173635986548,-9.61415758534e-05,0.0,0.0,-0.0513905334473
1505403926301111608,-0.0369334619884,-0.00721829644332,-0.000109515873313,0.0,0.0,-0.052188873291
1505403926350931741,-0.0312861518543,-0.0153076705932,-0.000136543035867,0.0,0.0,-0.0558333587646
1505403926401058133,-0.0327828666381,-0.00657816875104,-0.000118767854136,0.0,0.0,-0.0605207824707
1505403926450933718,-0.0323069001502,-0.00407057899932,-0.000144420744133,0.0,0.0,-0.0691879272461
1505403926501043160,-0.0325447720505,0.0147616011875,0.000447864371609,0.0,0.0,-0.0787622070313
1505403926550864046,-0.0289959669147,0.00180338184033,-0.000191342202066,0.0,0.0,-0.0760364532471
1505403926601074015,-0.0282786545893,0.0206802267577,0.000417133233814,0.0,0.0,-0.064354019165
1505403926651072963,-0.0269588450445,0.030675918372,-0.000202244852968,0.0,0.0,-0.0682986450195
1505403926701011175,-0.0245538490204,0.0431976643875,0.000435563141985,0.0,0.0,-0.0904098510742
1505403926751039284,-0.024073068074,0.0473878053732,-0.000156197884329,0.0,0.0,-0.0912161254883
1505403926801025945,-0.0245008198972,0.0741112469315,-0.000133486858824,0.0,0.0,-0.0863816070557
1505403926850882500,-0.0218051193429,0.0449090773727,-0.000114280610317,0.0,0.0,-0.0914350891113
1505403926901036597,-0.0234293740684,0.0773164821137,-0.000106827223964,0.0,0.0,-0.0865949249268
1505403926950933717,-0.022234783591,0.0744874751716,0.0,0.0,0.0,0.0
1505403927001008814,-0.0220418795655,0.0798628546483,-0.000780960596051,0.0,0.0,-0.101715545654
1505403927050948950,-0.0203551096012,0.0809177559326,0.0,0.0,0.0,0.0
1505403927101018368,-0.0206933928565,0.0804604450235,0.0,0.0,0.0,0.0
1505403927150984292,-0.0187599818641,0.0897831134361,-0.00079377548055,0.0,0.0,-0.0876930236816
1505403927201020304,-0.0178851840336,0.0867207973309,-0.000798093511672,0.0,0.0,-0.0840086364746
1505403927250922205,-0.0175901961652,0.0843391700942,-0.000810728225495,0.0,0.0,-0.095919342041
1505403927300970065,-0.0170065767945,0.0830657733823,-0.000828099555295,0.0,0.0,-0.08190574646
1505403927350997582,-0.0173410364474,0.0813612317908,-0.000832126566411,0.0,0.0,-0.0918809509277
1505403927400993401,-0.0166070826197,0.0712290458581,0.0,0.0,0.0,0.0
1505403927450960937,-0.016994552569,0.0630464757602,0.0,0.0,0.0,0.0
1505403927501083268,-0.0160229524391,0.0651723847381,-0.000855994285552,0.0,0.0,-0.0925134277344
1505403927551078609,-0.0171649438832,0.062394795216,0.0,0.0,0.0,0.0
1505403927601067352,-0.0171211852152,0.0610758384723,-0.000857555295045,0.0,0.0,-0.0720523834229
1505403927650913300,-0.0167195185427,0.0570361662043,-0.000860858481498,0.0,0.0,-0.075461807251
1505403927700949370,-0.0167365872978,0.0523306887833,0.0,0.0,0.0,0.0
1505403927750987790,-0.01649688214,0.051146616796,-0.000906770729424,0.0,0.0,-0.0864589691162
1505403927800954294,-0.0164702864732,0.0477250582739,0.0,0.0,0.0,0.0
1505403927850903187,-0.0159672036522,0.0450417132114,-0.000873384428377,0.0,0.0,-0.0665032196045
1505403927901131928,-0.0153943153477,0.0426974493869,-0.000858921257086,0.0,0.0,-0.0706280517578
1505403927950975763,-0.0146548814189,0.0408475035436,-0.000848581871912,0.0,0.0,-0.0720433044434
1505403928001005127,-0.0135054272845,0.0393041914598,-0.00086869920621,0.0,0.0,-0.0795269775391
1505403928050953679,-0.0120636886634,0.0399087186107,-0.00167152469104,0.0,0.0,-0.0983938598633
1505403928100968840,-0.0105455931667,0.039260556958,0.0,0.0,0.0,0.0
1505403928151094234,-0.00741528378136,0.0327871571055,0.0,0.0,0.0,0.0
1505403928201141989,-0.00448435836833,0.0310031163079,0.0,0.0,0.0,0.0
1505403928250936496,-0.00252381943501,0.0384370130899,-0.00158287666018,0.0,0.0,-0.0914505004883
1505403928301015568,0.00156746498373,0.0360860488715,0.0,0.0,0.0,0.0
1505403928350888565,0.00631673103305,0.034583402636,0.0,0.0,0.0,0.0
1505403928400974400,0.00857024173027,0.0387757339478,-0.000801602991291,0.0,0.0,-0.0657286071777
1505403928451251715,0.0120494081108,0.0366432042475,-0.000816325253139,0.0,0.0,-0.0476385498047
1505403928501100369,0.0138031788484,0.0360216684296,-0.00085067298397,0.0,0.0,-0.0677449035645
1505403928550989205,0.0170817773664,0.0364774717501,-0.000867163419428,0.0,0.0,-0.0637536621094
1505403928601328696,0.019656477241,0.0360978171566,-0.000866717414881,0.0,0.0,-0.0630418395996
1505403928650959277,0.0200878467066,0.0368464879353,-0.000854436789166,0.0,0.0,-0.0557201385498
1505403928700991067,0.0204377866933,0.038828943585,-0.000843024693248,0.0,0.0,-0.0523361206055
1505403928750907581,0.0206671458353,0.0424945162104,-0.000838231406911,0.0,0.0,-0.0324632263184
1505403928801125498,0.0196528766726,0.0450500426224,0.0,0.0,0.0,0.0
1505403928850937295,0.0180753122207,0.0466810437666,0.0,0.0,0.0,0.0
1505403928900941272,0.0179532944347,0.0512187088217,0.0,0.0,0.0,0.0
1505403928950985785,0.0184013666064,0.0536853401662,0.0,0.0,0.0,0.0
1505403929001091476,0.0175264845811,0.0542393669359,0.0,0.0,0.0,0.0
1505403929050934228,0.0175826755997,0.052944379581,0.0,0.0,0.0,0.0
1505403929101108319,0.0157107587358,0.0475918578614,0.0,0.0,0.0,0.0
1505403929150885585,0.0147450361996,0.0442587165443,0.0,0.0,0.0,0.0
1505403929201330526,0.0142035384973,0.0434492279839,0.0,0.0,0.0,0.0
1505403929250990037,0.0134240371575,0.046463882641,0.0,0.0,0.0,0.0
1505403929301495639,0.0129902952179,0.0485835977597,0.0,0.0,0.0,0.0
1505403929351042174,0.0123794898085,0.0498207649495,0.0,0.0,0.0,0.0
1505403929401000766,0.0128361804682,0.0540007825197,0.0,0.0,0.0,0.0
1505403929451015570,0.0120065757531,0.0541652188112,0.0,0.0,0.0,0.0
1505403929501099527,0.0111986190722,0.05681004785,0.0,0.0,0.0,0.0
1505403929551013432,0.0113455740096,0.0548650836906,0.0,0.0,0.0,0.0
1505403929600966699,0.0113553771534,0.0565252237538,0.0,0.0,0.0,0.0
1505403929650985980,0.00999596078542,0.0553545862621,0.0,0.0,0.0,0.0
1505403929700967416,0.0113072760266,0.0561497588554,0.0,0.0,0.0,0.0
1505403929751009557,0.0109620823573,0.0523320770152,0.0,0.0,0.0,0.0
1505403929801068249,0.0133516670684,0.0527382244209,0.0,0.0,0.0,0.0
1505403929850940818,0.0139191926082,0.0491348846381,0.0,0.0,0.0,0.0
1505403929901050711,0.0133320191201,0.0443421206895,0.0,0.0,0.0,0.0
1505403929950858199,0.012651757699,0.0406336169205,0.0,0.0,0.0,0.0
1505403930001008187,0.012374415657,0.0328383802038,0.0,0.0,0.0,0.0
1505403930051238717,0.0105251010802,0.028349655116,0.0,0.0,0.0,0.0
1505403930100941602,0.00982622453807,0.0202351458941,0.0,0.0,0.0,0.0
1505403930150930787,0.00961621345995,0.0146357729539,0.0,0.0,0.0,0.0
1505403930200964448,0.00914196415973,0.00582158290117,0.0,0.0,0.0,0.0
1505403930250986424,0.00702148036257,0.00172675343807,0.0,0.0,0.0,0.0
1505403930300931639,0.00434258216395,-0.00399202033372,0.0,0.0,0.0,0.0
1505403930351165660,0.00356464535294,-0.00990333186006,0.0,0.0,0.0,0.0
1505403930400973608,0.00115571609873,-0.0149118127693,0.0,0.0,0.0,0.0
1505403930450920171,0.000606600157921,-0.0193233826863,0.0,0.0,0.0,0.0
1505403930500994430,0.000856700287218,-0.0228411981218,0.0,0.0,0.0,0.0
1505403930550940161,0.00096951350113,-0.0234394163129,0.0,0.0,0.0,0.0
1505403930601066782,0.002323309752,-0.0254205319916,0.0,0.0,0.0,0.0
1505403930650933937,0.00507809593288,-0.0287608044124,0.0,0.0,0.0,0.0
1505403930701103348,0.00868686757365,-0.0324321769467,0.0,0.0,0.0,0.0
1505403930750968915,0.0117787515176,-0.0359500796632,0.0,0.0,0.0,0.0
1505403930800933888,0.0146904315533,-0.0387696304659,0.0,0.0,0.0,0.0
1505403930850937042,0.01907738189,-0.0407164989847,0.0,0.0,0.0,0.0
1505403930901015284,0.0227801821867,-0.0439262537088,0.0,0.0,0.0,0.0
1505403930950884865,0.0279115845952,-0.0498560898043,0.0,0.0,0.0,0.0
1505403931001214105,0.0304992064667,-0.0560877713559,0.0,0.0,0.0,0.0
1505403931051012832,0.0308491272512,-0.0571971050582,0.0,0.0,0.0,0.0
1505403931100959369,0.0328757832266,-0.0598700227887,0.0,0.0,0.0,0.0
1505403931150962501,0.0338988341298,-0.0610422750169,0.0,0.0,0.0,0.0
1505403931201093693,0.0354107547249,-0.0642466159729,0.0,0.0,0.0,0.0
1505403931250980734,0.0322784343762,-0.0608929945615,0.0,0.0,0.0,0.0
1505403931301114565,0.0315312472978,-0.0531476700035,0.0,0.0,0.0,0.0
1505403931350967669,0.031516454772,-0.04685776946,0.0,0.0,0.0,0.0
1505403931400988085,0.0309983190366,-0.0409272387412,0.0,0.0,0.0,0.0
1505403931450833726,0.0295970921655,-0.0340955409835,0.0,0.0,0.0,0.0
1505403931500875423,0.0290545660979,0.0240524980595,0.00012206862246,0.0,0.0,0.00516059875488
1505403931550963454,0.0278359540397,0.03207295736,0.000137887849349,0.0,0.0,-0.0134632873535
1505403931601069649,0.0251488730807,0.0356302244031,0.000722355678788,0.0,0.0,-0.0103215026855
1505403931650983472,0.022796406563,0.041903772406,0.000703174148716,0.0,0.0,-0.0134945678711
1505403931700992759,0.0215719456236,0.0490897904878,7.39383020104e-05,0.0,0.0,-0.00755172729492
1505403931750947427,0.0205214020705,0.0544572284083,4.80209075946e-06,0.0,0.0,-0.0138265991211
1505403931800899276,0.0180534022002,0.0588191226773,-6.57031781327e-05,0.0,0.0,-0.0163450622559
1505403931850873401,0.0171543133689,0.0616991667368,0.0,0.0,0.0,0.0
1505403931901128717,0.0147031989081,0.0588623066191,0.0,0.0,0.0,0.0
1505403931950913725,0.013610200857,0.0592204845822,0.0,0.0,0.0,0.0
1505403932000888330,0.0124734439063,0.0577264831752,0.0,0.0,0.0,0.0
1505403932051039950,0.00885603197933,0.0545823502633,0.0,0.0,0.0,0.0
1505403932101008329,0.00462835796646,0.0531300563885,0.0,0.0,0.0,0.0
1505403932150979690,0.000129295232618,0.0492314663397,0.0,0.0,0.0,0.0
1505403932201020764,-0.00615795727326,0.0483170857636,0.0,0.0,0.0,0.0
1505403932250971735,-0.0117250452096,0.0474394452848,0.0,0.0,0.0,0.0
1505403932301038647,-0.0149899678303,0.0471484727678,-0.000169486618432,0.0,0.0,-0.0204368591309
1505403932350954708,-0.0185788250295,0.0446723043389,-0.000153285162985,0.0,0.0,-0.0224087524414
1505403932400910623,-0.0217526396227,0.0364906791369,0.000468525388978,0.0,0.0,-0.0234443664551
1505403932450956555,-0.0236765443817,0.0349947766916,-0.000201330060506,0.0,0.0,-0.0295408630371
1505403932501027448,-0.0253131875603,0.0274360473997,-0.00023044275841,0.0,0.0,-0.0225701904297
1505403932550972812,-0.0264815684454,0.0246988543923,-0.000876535975467,0.0,0.0,-0.0142098999023
1505403932601014818,-0.0265852709261,0.0236319412871,0.0,0.0,0.0,0.0
1505403932650891595,-0.0272494819153,0.0258572546712,0.0,0.0,0.0,0.0
1505403932700960191,-0.0260816743003,0.0286004970378,0.0,0.0,0.0,0.0
1505403932750988755,-0.0276643816274,0.0255129100937,-0.000802720746703,0.0,0.0,-0.0202207946777
1505403932801074478,-0.0284463411809,0.0276847794986,0.0,0.0,0.0,0.0
1505403932851028655,-0.0284600298182,0.0283538714285,0.0,0.0,0.0,0.0
1505403932901098929,-0.0286976398117,0.0283423155879,0.0,0.0,0.0,0.0
1505403932950968794,-0.0288574013484,0.0267821234025,-0.000761053303083,0.0,0.0,-0.0291716003418
1505403933001329165,-0.0292560356498,0.0300841717805,0.0,0.0,0.0,0.0
1505403933050962284,-0.028901805838,0.0328847170879,0.0,0.0,0.0,0.0
1505403933100919347,-0.00538031217852,0.0316420493378,0.0,0.0,0.0,0.0
1505403933150992342,-0.0577083992545,0.0334753828888,0.0,0.0,0.0,0.0
1505403933200973150,-0.0270941602035,0.0275114619732,0.0,0.0,0.0,0.0
1505403933250943137,-0.0274388268936,0.0264152412736,0.0,0.0,0.0,0.0
1505403933300970316,-0.0279719765989,0.0201493016252,-0.00160963918565,0.0,0.0,-0.0402815246582
1505403933350962395,-0.0273075871068,0.0141439043941,-0.00159593639879,0.0,0.0,-0.0341961669922
1505403933400960592,-0.0268794028328,0.00984495901161,-0.00158424075049,0.0,0.0,-0.0305081939697
1505403933451008811,-0.0248702764471,0.00387294492738,-0.00157723156876,0.0,0.0,-0.0405757141113
1505403933500935993,-0.0239801750991,0.00104119325494,0.0,0.0,0.0,0.0
1505403933550924706,-0.0234922434009,-0.00480011269328,-0.000831647166676,0.0,0.0,-0.0199168395996
1505403933601176259,-0.0232797030818,-0.0099543527766,0.0,0.0,0.0,0.0
1505403933650932986,-0.0235917895307,-0.0156724589286,0.0,0.0,0.0,0.0
1505403933700888776,-0.0241136847001,-0.0222006686379,-0.00156548603887,0.0,0.0,-0.0328677368164
1505403933750981894,-0.0249097894273,-0.0262693692239,-0.00155376071522,0.0,0.0,-0.0312939453125
1505403933800948036,-0.0244505801759,-0.0295146906465,0.0,0.0,0.0,0.0
1505403933850978030,-0.0237735666814,-0.0336951268602,-0.00154385912887,0.0,0.0,-0.0498559570313
1505403933901007118,-0.0226129178328,-0.0338291710417,-0.00154661160647,0.0,0.0,-0.0469912719727
1505403933950980861,-0.0220136712807,-0.0386973989282,-0.00244617190243,0.0,0.0,-0.0425266265869
1505403934000893596,-0.0197024771869,-0.041635059816,-0.00244370449231,0.0,0.0,-0.0462054443359
1505403934050876653,-0.0190414129699,-0.0442569549935,-0.00244474852534,0.0,0.0,-0.0525057983398
1505403934100926804,-0.0174792998094,-0.0460030296266,-0.00244775527883,0.0,0.0,-0.0219886016846
1505403934150890831,-0.016215520677,-0.0452212005216,0.0,0.0,0.0,0.0
1505403934200995063,-0.0127181288392,-0.0482976835778,-0.00155605780517,0.0,0.0,-0.0353424072266
1505403934250918980,-0.00989897645703,-0.0498350088753,0.0,0.0,0.0,0.0
1505403934301058811,-0.00810178775816,-0.0543177984538,-0.00245975732185,0.0,0.0,-0.0612823486328
1505403934350902659,-0.00548779098596,-0.0580954118938,0.0,0.0,0.0,0.0
1505403934401056531,-0.00326802738316,-0.0618830051835,0.0,0.0,0.0,0.0
1505403934450956134,-0.000440770490171,-0.062109954965,0.0,0.0,0.0,0.0
1505403934500893805,0.000896027720605,-0.0685689410648,0.0,0.0,0.0,0.0
1505403934550983560,0.00281650989715,-0.0718565196087,0.0,0.0,0.0,0.0
1505403934601041305,0.00299664357819,-0.0774815248803,0.0,0.0,0.0,0.0
1505403934650862958,0.00239220164989,-0.0745194906221,0.0,0.0,0.0,0.0
1505403934701140183,0.000459128775568,-0.0662684984852,0.0,0.0,0.0,0.0
1505403934750893843,-0.00104248940863,-0.0635917877287,-0.000898249871996,0.0,0.0,-0.0495291137695
1505403934801328836,-0.00228002031712,-0.0545063647923,-0.000922332574528,0.0,0.0,-0.0358192443848
1505403934850905145,-0.00400867216319,-0.0447182498042,0.0,0.0,0.0,0.0
1505403934901030011,-0.00521620001668,-0.0389303919072,-0.000929938746973,0.0,0.0,-0.0433641052246
1505403934950914278,-0.00611882992935,-0.0312773698527,-0.00091366923934,0.0,0.0,-0.0387494659424
1505403935003942221,-0.00727573927507,-0.0259283023293,-0.000905106928767,0.0,0.0,-0.0375471496582
1505403935050936550,-0.00736240632659,-0.0212375611327,-0.000843858834039,0.0,0.0,-0.0629568481445
1505403935101075685,-0.00728476501328,-0.0158465286504,-6.72073110474e-05,0.0,0.0,-0.0419212341309
1505403935150982053,-0.00751753865609,-0.0127784897637,-2.90963000733e-05,0.0,0.0,-0.0461043548584
1505403935200939168,-0.00809657095057,-0.0114467899008,0.0,0.0,0.0,0.0
1505403935251029965,-0.00727413055315,-0.00902913560343,0.0,0.0,0.0,0.0
1505403935301015503,-0.00704202422318,-0.0039090733963,0.0,0.0,0.0,0.0
1505403935350952647,-0.00590290608482,0.000481636731545,0.0,0.0,0.0,0.0
1505403935401407711,-0.00377650313586,0.00448968713098,0.0,0.0,0.0,0.0
1505403935450951067,-0.000314207656858,0.00909011902446,0.0,0.0,0.0,0.0
1505403935500970762,0.00367522601224,0.0105204982822,0.0,0.0,0.0,0.0
1505403935550919869,0.00724821126825,0.00966075047568,0.0,0.0,0.0,0.0
1505403935600914360,0.0126373352145,0.0095279323199,0.0,0.0,0.0,0.0
1505403935650938519,0.0159665045087,-0.00487550486501,3.70669313391e-05,0.0,0.0,-0.0603125
1505403935701375942,0.0228290512377,-0.00279747535845,0.000633139920043,0.0,0.0,-0.0419509887695
1505403935750945683,0.0264148011566,-0.00724070976852,0.0,0.0,0.0,0.0
1505403935800974199,0.0304331064458,-0.0151953410996,7.08934053475e-05,0.0,0.0,-0.0594222259521
1505403935851648638,0.0368635758676,-0.0176805205115,0.0,0.0,0.0,0.0
1505403935900963849,0.0401072830466,-0.0204308876093,0.0,0.0,0.0,0.0
1505403935950981905,0.0424668606094,-0.0215040384284,0.0,0.0,0.0,0.0
1505403936001023084,0.0456360970043,-0.0211889058316,0.0,0.0,0.0,0.0
1505403936050979869,0.0483455625555,-0.02004794644,0.0,0.0,0.0,0.0
1505403936101143290,0.0516559372918,-0.0173395855998,0.0,0.0,0.0,0.0
1505403936150989279,0.0530836081022,-0.0158635995595,0.0,0.0,0.0,0.0
1505403936201064154,0.0528597939101,-0.0148470395288,0.0,0.0,0.0,0.0
1505403936251001040,0.0520779367391,-0.0155696362658,0.0,0.0,0.0,0.0
1505403936300974403,0.0513684444225,-0.0124973466664,0.0,0.0,0.0,0.0
1505403936350944651,0.0512148342759,-0.00961689125663,0.0,0.0,0.0,0.0
1505403936401008560,0.0483678990731,-0.00953735827156,0.0,0.0,0.0,0.0
1505403936450953328,0.0462448496734,-0.010215644983,0.0,0.0,0.0,0.0
1505403936501002335,0.0439406379606,-0.00632818668201,0.0,0.0,0.0,0.0
1505403936550999249,0.0428808202418,-0.00573808724896,0.0,0.0,0.0,0.0
1505403936601076369,0.0411174312527,-0.00535620580586,0.0,0.0,0.0,0.0
1505403936650997738,0.0392649013572,-0.0038601374044,0.0,0.0,0.0,0.0
1505403936700993642,0.0380770858123,-0.00108090460902,0.0,0.0,0.0,0.0
1505403936750932811,0.0367054484717,-0.00159623049848,0.0,0.0,0.0,0.0
1505403936800976978,0.036665249325,-0.00378406391032,0.0,0.0,0.0,0.0
1505403936850921699,0.035388236482,-0.0031652371811,0.0,0.0,0.0,0.0
1505403936901397047,0.0365652423301,-0.00451898144763,0.0,0.0,0.0,0.0
1505403936950925326,0.0357443918492,-0.00628346886914,0.0,0.0,0.0,0.0
1505403937001077762,0.0347664528374,-0.00777566697584,0.0,0.0,0.0,0.0
1505403937051050084,0.0350272459718,-0.00970169349889,0.0,0.0,0.0,0.0
1505403937100958746,0.0346970795884,-0.0116880615486,0.0,0.0,0.0,0.0
1505403937150922059,0.0288082477198,-0.0146278692972,0.0,0.0,0.0,0.0
1505403937201066716,0.037938854985,-0.0127360898199,0.0,0.0,0.0,0.0
1505403937250963724,0.0352627254726,-0.0154433800574,0.0,0.0,0.0,0.0
1505403937300951725,0.0321608006376,-0.0171607234291,0.0,0.0,0.0,0.0
1505403937351091547,0.0321013540778,-0.0134042868533,0.0,0.0,0.0,0.0
1505403937401011807,0.0331817077319,-0.012817127774,0.0,0.0,0.0,0.0
1505403937450873920,0.0320785720006,-0.0130804134894,0.0,0.0,0.0,0.0
1505403937501037487,0.031011680137,-0.00886751486398,0.0,0.0,0.0,0.0
1505403937551077512,0.0327088360082,-0.00406170679983,0.0,0.0,0.0,0.0
1505403937601089640,0.0303361821858,-0.00135808024992,0.0,0.0,0.0,0.0
1505403937650919036,0.0303621478952,0.00334665723904,0.0,0.0,0.0,0.0
1505403937701010176,0.0299447497507,0.010267096178,0.0,0.0,0.0,0.0
1505403937750995117,0.0304505274543,0.0168198186562,0.0,0.0,0.0,0.0
1505403937800996240,0.0302193542668,0.0209208964495,0.0,0.0,0.0,0.0
1505403937851032902,0.0299633567061,0.0252978689854,0.0,0.0,0.0,0.0
1505403937901059823,0.0289496163011,0.00872224222635,-0.000142409637715,0.0,0.0,-0.0688813018799
1505403937950921589,0.025390010849,0.00952286148487,-0.000102949558035,0.0,0.0,-0.0671284484863
1505403938000983758,0.024081135309,0.0122301041382,-0.000107976187154,0.0,0.0,-0.0822499847412
1505403938050924440,0.0203576555842,0.0184387745675,0.000494781997921,0.0,0.0,-0.0570555114746
1505403938101333503,0.0188220546549,0.0218005945131,-0.000131663047468,0.0,0.0,-0.0893989562988
1505403938150937708,0.0151403878336,0.0291094478461,0.000484128214999,0.0,0.0,-0.0853141784668
1505403938200985553,0.0145263021062,0.0308259358093,-0.000102116166144,0.0,0.0,-0.0817449951172
1505403938251027664,0.0136259615765,0.0348738548781,-9.4241431468e-05,0.0,0.0,-0.0736308288574
1505403938300958778,0.0109613240596,0.0334178106544,-8.79468351267e-05,0.0,0.0,-0.0707318115234
1505403938351046319,0.00892760414795,0.036801118935,0.0,0.0,0.0,0.0
1505403938401014056,0.00909740966391,0.025016383671,-7.52426861962e-05,0.0,0.0,-0.0753764343262
1505403938451175356,0.0026737940717,0.0505240223242,0.0,0.0,0.0,0.0
1505403938501104882,0.00374933106305,0.0317652821491,-0.000746469299298,0.0,0.0,-0.0958361816406
1505403938550981993,0.00354039113153,0.0232210033863,-6.83101915328e-05,0.0,0.0,-0.0827307128906
1505403938600913558,-0.00216150335989,0.0279282277698,0.0,0.0,0.0,0.0
1505403938650954780,-0.0111420979778,0.0307314225108,-0.000767287068256,0.0,0.0,-0.102382202148
1505403938701036875,-0.00982745051805,0.0148319659382,0.0,0.0,0.0,0.0
1505403938751022773,-0.0152349525191,0.00598864512207,0.0,0.0,0.0,0.0
1505403938800970101,-0.0217262599785,0.00882354181907,-0.000102203178205,0.0,0.0,-0.084730682373
1505403938850880807,-0.0272685791409,0.00362350393516,-0.000101218820805,0.0,0.0,-0.100964508057
1505403938901214025,-0.0303523516078,-0.00261056814788,-0.000782548458887,0.0,0.0,-0.0755485534668
1505403938950921943,-0.0354906810953,-0.0079314746044,-0.00076893343554,0.0,0.0,-0.0829154968262
1505403939000899653,-0.0392205910046,-0.0102725551113,0.0,0.0,0.0,0.0
1505403939050873074,-0.0417272875321,-0.0133359846398,-8.56981602902e-05,0.0,0.0,-0.0567256164551
1505403939100905157,-0.0440225418484,-0.0131346191276,-0.000767903262102,0.0,0.0,-0.0688440704346
1505403939151007618,-0.0454504236664,-0.0139714771394,-0.000768550144486,0.0,0.0,-0.0890205383301
1505403939201392883,-0.0458612997123,-0.0149040074568,-0.00152638916089,0.0,0.0,-0.0686735534668
1505403939250990376,-0.0455233861075,-0.0131930780627,0.0,0.0,0.0,0.0
1505403939301014376,-0.0467627340106,-0.010836438518,0.0,0.0,0.0,0.0
1505403939351106925,-0.0460581093226,-0.0110341656194,0.0,0.0,0.0,0.0
1505403939400985764,-0.0452037672528,-0.0113273295095,0.0,0.0,0.0,0.0
1505403939450913163,-0.0409815861348,-0.0039004664936,0.0,0.0,0.0,0.0
1505403939501093869,-0.0361077993669,-0.00411177851196,0.0,0.0,0.0,0.0
1505403939550952139,-0.0312689670258,-0.00398961147708,0.0,0.0,0.0,0.0
1505403939600994812,-0.0248856855498,-0.00701476853133,0.0,0.0,0.0,0.0
1505403939650915445,-0.0208192528336,-0.00354486203824,-0.00153680542571,0.0,0.0,-0.0739668273926
1505403939700979830,-0.0165012092492,-0.00370560519492,0.0,0.0,0.0,0.0
1505403939751007737,-0.0112629834152,-0.00144565455949,-0.00153245513453,0.0,0.0,-0.078423614502
1505403939801018791,-0.00982901487526,-0.00172988513551,-0.00153234950408,0.0,0.0,-0.0583650970459
1505403939851037365,-0.00509963213427,-0.00340817510443,0.0,0.0,0.0,0.0
1505403939901105926,-0.00102352460044,-0.00109768601963,0.0,0.0,0.0,0.0
1505403939951006016,0.0021452792666,-0.000894062973085,0.0,0.0,0.0,0.0
1505403940002066389,0.00449249916098,-0.00123199571767,-8.86492805523e-05,0.0,0.0,-0.0416179656982
1505403940050972632,0.00703080277056,0.00119362538771,0.0,0.0,0.0,0.0
1505403940101085861,0.00693439366696,0.00731733882922,-0.000761782885415,0.0,0.0,-0.0356309509277
1505403940151058634,0.0113950161042,0.00459648663104,-0.00076333224003,0.0,0.0,-0.0258570861816
1505403940200910777,0.0110145175041,0.00300901040963,-0.000777235584895,0.0,0.0,-0.0318783569336
1505403940251095920,0.0109268956686,0.00639601820105,-0.0007748694436,0.0,0.0,-0.0354468536377
1505403940300997826,0.00930004920019,0.00840250858041,-0.000761158750526,0.0,0.0,-0.0321557617188
1505403940350950316,0.00710994586063,0.00782513214661,0.0,0.0,0.0,0.0
1505403940401101953,0.00527844878177,0.0107476242743,-0.000758779751858,0.0,0.0,-0.0210389709473
1505403940450959519,0.00147141533352,0.0165123763908,-0.000764187386588,0.0,0.0,-0.0255635070801
1505403940500964148,-0.00137269383879,0.01796892947,-0.000762108097071,0.0,0.0,-0.0235160827637
1505403940550881119,-0.004388234974,0.019241334165,-0.00150559947583,0.0,0.0,-0.011248626709
1505403940600983993,-0.00774463862583,0.0176822454001,0.0,0.0,0.0,0.0
1505403940650997971,-0.0117375592015,0.0176090582851,-0.000738732394218,0.0,0.0,-0.0176651000977
1505403940701366730,-0.015301179111,0.0180979838791,-0.000740034258668,0.0,0.0,-0.0129499816895
1505403940750972203,-0.0201194993203,0.0195470365176,-0.000749504801447,0.0,0.0,-0.0113024902344
1505403940801342900,-0.0181203848334,0.0182785928469,0.0,0.0,0.0,0.0
1505403940850889732,-0.0346828932334,0.0173222935257,0.0,0.0,0.0,0.0
1505403940900985123,-0.0291209172058,0.0194889185078,-0.000728970641681,0.0,0.0,-0.00440414428711
1505403940950949586,-0.025234074016,0.0231216229127,0.0,0.0,0.0,0.0
1505403941001159920,-0.042806823852,0.0191522560375,0.0,0.0,0.0,0.0
1505403941050964975,-0.0331247755721,0.0201495329617,0.0,0.0,0.0,0.0
1505403941101038218,-0.0301592664162,0.0346390079998,-0.00237454515848,0.0,0.0,0.00966186523438
1505403941151050664,-0.0421300076838,0.0287532823325,0.0,0.0,0.0,0.0
1505403941202901313,-0.0333862087527,0.0311762493302,0.0,0.0,0.0,0.0
1505403941251048769,-0.028881865917,0.0292401275029,0.0,0.0,0.0,0.0
1505403941301111103,-0.0376081905625,0.0230346212794,0.0,0.0,0.0,0.0
1505403941351009790,-0.0302127789986,0.0237388453037,0.0,0.0,0.0,0.0
1505403941401045497,-0.0258738650257,0.0264846980079,0.0,0.0,0.0,0.0
1505403941450934040,-0.0287034228337,0.0171476144564,-0.00158952804154,0.0,0.0,0.0267241668701
1505403941500945458,-0.0265840841128,0.0206163295102,0.0,0.0,0.0,0.0
1505403941550961009,-0.0227349352769,0.0226061901832,0.0,0.0,0.0,0.0
1505403941601374953,-0.0175604782347,0.00123505174014,0.0,0.0,0.0,0.0
1505403941651014265,-0.0164080553627,0.00516648218475,0.0,0.0,0.0,0.0
1505403941701015856,-0.0126536082422,0.0136309526687,0.0,0.0,0.0,0.0
1505403941751092192,-0.00453578220289,-0.0100089603457,0.0,0.0,0.0,0.0
1505403941801072434,-0.00497432607793,0.0117724359837,0.0,0.0,0.0,0.0
1505403941851204986,0.00557611079718,-0.0175308731305,0.0,0.0,0.0,0.0
1505403941900977605,0.00501646495576,0.000655936818675,0.0,0.0,0.0,0.0
1505403941951067041,0.00196499547742,0.00990159845212,0.0,0.0,0.0,0.0
1505403942000968213,0.0109837569677,-0.00516038545122,-2.60328611516e-05,0.0,0.0,0.0528219604492
1505403942050940580,0.00892024389952,0.00601992408384,0.0,0.0,0.0,0.0
1505403942101195577,0.00390284799271,0.0140140714278,-6.81865892463e-05,0.0,0.0,0.0488288879395
1505403942150944363,0.0113374375562,0.000679690304309,-7.9749057564e-05,0.0,0.0,0.0385534667969
1505403942201030401,0.00520871085986,0.00979636491574,0.0,0.0,0.0,0.0
1505403942251036745,-5.41002072788e-05,0.0220687501341,-5.65275252913e-05,0.0,0.0,0.0489711761475
1505403942301014478,0.00267367733143,-0.000474846827983,0.000541988003072,0.0,0.0,0.0355714416504
1505403942351096597,-0.00227751757577,0.0142746769817,0.0,0.0,0.0,0.0
1505403942401098983,-0.0069737566512,0.0277814566668,-5.55810621649e-05,0.0,0.0,0.0419021606445
1505403942450873317,-0.00949203553069,0.0188308214126,-3.91424446465e-05,0.0,0.0,0.0384335327148
1505403942501063155,-0.0127404610087,0.0304236832771,0.0,0.0,0.0,0.0
1505403942550969308,-0.0157354091883,0.0438894769466,0.0,0.0,0.0,0.0
1505403942601388622,-0.0215483864206,0.0518381664857,0.0,0.0,0.0,0.0
1505403942650930469,-0.0217271294446,0.0556328279543,-4.9952773444e-06,0.0,0.0,0.0328285980225
1505403942700933429,-0.0210308826146,0.0572724416611,0.0,0.0,0.0,0.0
1505403942751069342,-0.0307450623768,0.0781240972494,-0.000731620474255,0.0,0.0,0.0534382629395
1505403942801015539,-0.0288592704599,0.0731862791273,-0.000758847277851,0.0,0.0,0.0371435546875
1505403942851030330,-0.0323890810874,0.0778408442442,0.0,0.0,0.0,0.0
1505403942900947177,-0.0344214537338,0.0789506855246,0.0,0.0,0.0,0.0
1505403942951020545,-0.0365128760286,0.0777019530343,0.0,0.0,0.0,0.0
1505403943001094661,-0.0382898269664,0.0761945746654,0.0,0.0,0.0,0.0
1505403943050980107,-0.0403926482482,0.0758885763111,0.0,0.0,0.0,0.0
1505403943101106258,-0.033765214987,0.0670153398038,0.0,0.0,0.0,0.0
1505403943150985937,-0.0451369881628,0.0680141584527,0.0,0.0,0.0,0.0
1505403943201078524,-0.0379068075295,0.0585924025328,0.0,0.0,0.0,0.0
1505403943251005614,-0.0371610553969,0.0512430989174,0.0,0.0,0.0,0.0
1505403943300985842,-0.0360078217229,0.0421818444886,0.0,0.0,0.0,0.0
