%time,field.header.seq,field.header.stamp,field.header.frame_id,field.pose.position.x,field.pose.position.y,field.pose.position.z,field.pose.orientation.x,field.pose.orientation.y,field.pose.orientation.z,field.pose.orientation.w
1505403906767727694,0,1505403906767454668,0.143430277705,0.0453532077372,-0.224138081074,-0.00418471358716,-0.997897028923,0.0033640768379,0.0645972266793
1505403906767743916,1,1505403906767467988,0.143407255411,0.0452652648091,-0.223674446344,-0.00424611661583,-0.997882127762,0.00406216643751,0.0647827610373
1505403906776843404,2,1505403906776697069,0.143432885408,0.0452514141798,-0.223277926445,-0.00431813718751,-0.997879743576,0.00433474220335,0.0647968873382
1505403906797275720,3,1505403906797129245,0.143460601568,0.0451764687896,-0.22283180058,-0.00433297408745,-0.997881829739,0.00446475390345,0.064753703773
1505403906797281421,4,1505403906797175941,0.143465444446,0.0451206490397,-0.222308143973,-0.00423621293157,-0.997870385647,0.00458187051117,0.0649277865887
1505403906807650559,5,1505403906807504221,0.143473267555,0.0451268143952,-0.221781209111,-0.004099952057,-0.997866392136,0.00434615137056,0.0650149434805
1505403906827067690,6,1505403906826914108,0.14354595542,0.0452989041805,-0.221146762371,-0.00403615785763,-0.997854173183,0.00394271314144,0.0652319565415
1505403906827071048,7,1505403906826937961,0.143587723374,0.0453753657639,-0.220604673028,-0.00413615163416,-0.997845172882,0.00377298821695,0.0653735771775
1505403906837318373,8,1505403906837171172,0.143608242273,0.0453930869699,-0.220030516386,-0.00407813629135,-0.997813284397,0.00338591984473,0.0658829882741
1505403906857768445,9,1505403906857593761,0.143577963114,0.0453713834286,-0.219391271472,-0.00415278179571,-0.99777919054,0.00368185318075,0.0663762241602
1505403906857771983,10,1505403906857608803,0.143538787961,0.0454679206014,-0.218773603439,-0.00406956207007,-0.997753441334,0.00354542210698,0.0667745023966
1505403906866923313,11,1505403906866804174,0.14358663559,0.0454383417964,-0.218131497502,-0.00397333689034,-0.99777173996,0.0034879737068,0.0665098875761
1505403906887333019,12,1505403906887189829,0.143739953637,0.0453164465725,-0.217450067401,-0.00390671472996,-0.997806608677,0.00368316425011,0.0659777745605
1505403906887341632,13,1505403906887215144,0.143846809864,0.0452647432685,-0.216773599386,-0.00378869613633,-0.997827529907,0.00361906341277,0.0656719952822
1505403906897520519,14,1505403906897401918,0.143850296736,0.0452276580036,-0.21599560976,-0.00383051810786,-0.997798919678,0.00390084064566,0.0660864114761
1505403906916952168,15,1505403906916789622,0.143844649196,0.0453039966524,-0.215233653784,-0.00404089968652,-0.997761368752,0.00357745634392,0.0666565150023
1505403906916955409,16,1505403906916804317,0.143906876445,0.0453765168786,-0.214496716857,-0.00420032022521,-0.997754871845,0.00342705380172,0.0667514428496
1505403906927171475,17,1505403906927045581,0.144036263227,0.0454478822649,-0.213749051094,-0.00415460811928,-0.997786581516,0.00360909360461,0.0662693306804
1505403906937404431,18,1505403906937284891,0.144140377641,0.0455094799399,-0.213023856282,-0.00389561685733,-0.997811734676,0.0035777608864,0.065907433629
1505403906947650153,19,1505403906947525322,0.144219562411,0.0454615987837,-0.212200939655,-0.00361593719572,-0.997799932957,0.00405546603724,0.066073089838
1505403906956882359,20,1505403906956698664,0.144265800714,0.045404471457,-0.211344107985,-0.00356623344123,-0.997763454914,0.00409118784592,0.0666217878461
1505403906967115546,21,1505403906966976851,0.144330695271,0.0454280041158,-0.210517138243,-0.0037923597265,-0.997750341892,0.00389921478927,0.0668184682727
1505403906977312664,22,1505403906977180417,0.144464686513,0.0455411411822,-0.209667339921,-0.00404371507466,-0.997762918472,0.00328473211266,0.0666485726833
1505403906987535122,23,1505403906987371738,0.144563451409,0.0455594807863,-0.208737939596,-0.00420696800575,-0.997758626938,0.00323164975271,0.0667054504156
1505403906997797395,24,1505403906997630256,0.144677728415,0.0454602055252,-0.207815423608,-0.00424616225064,-0.99775737524,0.00361500889994,0.0667015016079
1505403907007019605,25,1505403907006853598,0.144711136818,0.0453456752002,-0.206877738237,-0.0039560184814,-0.997734189034,0.00413745921105,0.0670352131128
1505403907017214728,26,1505403907017070492,0.144723832607,0.0454246029258,-0.205982655287,-0.00388030172326,-0.997724890709,0.00389890279621,0.0671918913722
1505403907027517550,27,1505403907027352935,0.144805774093,0.0455404631793,-0.205043882132,-0.00372135429643,-0.997735023499,0.00413450505584,0.0670358911157
1505403907037829874,28,1505403907037599414,0.144863978028,0.0454493127763,-0.204052090645,-0.00372957973741,-0.997732043266,0.00450892234221,0.0670563355088
1505403907047043475,29,1505403907046829459,0.144899591804,0.0455053411424,-0.203049972653,-0.00402104668319,-0.997713029385,0.00444353744388,0.0673248097301
1505403907057414411,30,1505403907057131786,0.144963636994,0.0456729196012,-0.20201434195,-0.00411343853921,-0.997701346874,0.00374189205468,0.0675361976027
1505403907067802551,31,1505403907067352179,0.145057216287,0.0455952174962,-0.200991213322,-0.00421341462061,-0.997696995735,0.003488792805,0.0676077455282
1505403907076972545,32,1505403907076871007,0.145205810666,0.0455850325525,-0.19995123148,-0.0041793291457,-0.997707009315,0.00307006156072,0.0674820244312
1505403907087385272,33,1505403907087274243,0.145412310958,0.0455787479877,-0.198882088065,-0.004267339129,-0.997735917568,0.00301662320271,0.067050755024
1505403907097695160,34,1505403907097559844,0.145570114255,0.0455562286079,-0.19791251421,-0.00403532106429,-0.997765660286,0.00351261743344,0.0665968433022
1505403907106999432,35,1505403907106824309,0.145594924688,0.045594766736,-0.197015568614,-0.00397777976468,-0.997756421566,0.00368418591097,0.0667296648026
1505403907117196580,36,1505403907117055341,0.145617902279,0.0456302724779,-0.196109190583,-0.00423781340942,-0.99772053957,0.00392875308171,0.0672328025103
1505403907127466582,37,1505403907127357734,0.145671740174,0.0455359183252,-0.195144325495,-0.00430535199121,-0.997699022293,0.00449259532616,0.0675121173263
1505403907137823588,38,1505403907137583112,0.14574855566,0.0454588010907,-0.194128215313,-0.00442105671391,-0.997694551945,0.00506168138236,0.0675309672952
1505403907147051594,39,1505403907146880806,0.145774409175,0.0454467721283,-0.193100214005,-0.0045221131295,-0.997687697411,0.00502455048263,0.0676280483603
1505403907157238375,40,1505403907157098723,0.145860552788,0.0454490110278,-0.191965505481,-0.00440517952666,-0.997685492039,0.00514318840578,0.0676606148481
1505403907167555698,41,1505403907167372693,0.145958080888,0.0454490222037,-0.190810963511,-0.0042913230136,-0.997680842876,0.00465623708442,0.0677703544497
1505403907177722770,42,1505403907177571998,0.146043583751,0.0455414913595,-0.18957875669,-0.00397418020293,-0.997697293758,0.00398737378418,0.0675895735621
1505403907186960103,43,1505403907186828883,0.146177172661,0.0457483381033,-0.188423812389,-0.0041583343409,-0.997717559338,0.00299812038429,0.0673300251365
1505403907197207399,44,1505403907197035198,0.146380320191,0.0457935705781,-0.187268182635,-0.00467910245061,-0.99772632122,0.00280490587465,0.0671748667955
1505403907207541416,45,1505403907207340532,0.146476790309,0.0457671955228,-0.185957089067,-0.00488108070567,-0.997714102268,0.00328638940118,0.0673200711608
1505403907217811193,46,1505403907217591030,0.146557211876,0.0456770546734,-0.184634506702,-0.00466896127909,-0.997693300247,0.00384488934651,0.0676122903824
1505403907226975241,47,1505403907226841997,0.146615788341,0.0456497557461,-0.183366432786,-0.0046307775192,-0.997671961784,0.0036827956792,0.0679394155741
1505403907237273938,48,1505403907237124285,0.146694719791,0.045676972717,-0.182074561715,-0.0044135726057,-0.997664988041,0.0031376357656,0.068082511425
1505403907247497765,49,1505403907247341604,0.146779581904,0.0458049289882,-0.180806145072,-0.00456996448338,-0.997666358948,0.00256054103374,0.0680768936872
1505403907257668737,50,1505403907257523535,0.146867871284,0.0457405745983,-0.179521724582,-0.00442509306595,-0.997671484947,0.00262211589143,0.068009108305
1505403907267056066,51,1505403907266725327,0.146997615695,0.0457282140851,-0.178272813559,-0.00463303225115,-0.997662365437,0.00283903162926,0.0681193321943
1505403907277132065,52,1505403907276990288,0.147078052163,0.0457844510674,-0.177084192634,-0.00490133464336,-0.997650384903,0.00275292480364,0.0682796239853
1505403907287396575,53,1505403907287211521,0.147200405598,0.0458180904388,-0.175783663988,-0.00504077551886,-0.997646212578,0.00303728785366,0.068317823112
1505403907297674800,54,1505403907297519520,0.147338911891,0.0456450693309,-0.174513399601,-0.00485455011949,-0.997650623322,0.00326127163135,0.0682572498918
1505403907306893034,55,1505403907306781910,0.147457584739,0.0456919521093,-0.173251748085,-0.00443958258256,-0.997683823109,0.00287899654359,0.0678168535233
1505403907317194798,56,1505403907317018369,0.14755924046,0.0456804446876,-0.171892598271,-0.00437639839947,-0.997694671154,0.0027912450023,0.0676641464233
1505403907327396581,57,1505403907327260587,0.147627711296,0.045726723969,-0.170643299818,-0.0044528786093,-0.997667074203,0.00244887615554,0.0680788382888
1505403907337711102,58,1505403907337524046,0.147630661726,0.0456903502345,-0.169354334474,-0.00439638551325,-0.997630774975,0.00218604062684,0.0686202868819
1505403907346930655,59,1505403907346791844,0.147660657763,0.0456482246518,-0.168058097363,-0.00454692123458,-0.997614681721,0.00212196563371,0.0688457041979
1505403907357199939,60,1505403907357066817,0.14778868854,0.0455251522362,-0.166783362627,-0.00457532284781,-0.997621655464,0.00279672420584,0.068718649447
1505403907377570264,61,1505403907377390363,0.147909030318,0.045488640666,-0.165443539619,-0.00431103585288,-0.997633159161,0.00376410596073,0.0685222148895
1505403907377574306,62,1505403907377402370,0.148003101349,0.0454452261329,-0.164075404406,-0.00434710690752,-0.99764662981,0.00409932853654,0.0683050900698
1505403907387742302,63,1505403907387600624,0.148153215647,0.0455113351345,-0.162740707397,-0.00444723991677,-0.997645616531,0.00382876046933,0.0683284178376
1505403907396897705,64,1505403907396783161,0.148265182972,0.0454522110522,-0.161400005221,-0.00439083436504,-0.997626245022,0.00352556095459,0.068630695343
1505403907407190248,65,1505403907406989656,0.148373857141,0.0453425720334,-0.160015195608,-0.00424919649959,-0.997618377209,0.0034762241412,0.0687562525272
1505403907417396823,66,1505403907417247649,0.148464336991,0.045313000679,-0.158667981625,-0.00399384647608,-0.997613012791,0.00354750920087,0.0688459351659
1505403907427553726,67,1505403907427452840,0.148585900664,0.0453802607954,-0.157238543034,-0.0042362161912,-0.99759632349,0.00391440605745,0.0690528601408
1505403907436760254,68,1505403907436595252,0.148663416505,0.0453935675323,-0.155883163214,-0.00433298852295,-0.997576713562,0.00379752600566,0.0693368464708
1505403907446981917,69,1505403907446821843,0.148807272315,0.0452735982835,-0.154467746615,-0.00435573142022,-0.997572958469,0.0046671316959,0.0693359971046
1505403907457242687,70,1505403907457102383,0.148924291134,0.045276992023,-0.153027027845,-0.0042710150592,-0.997567355633,0.00478328205645,0.0694141387939
1505403907467519385,71,1505403907467359986,0.148936346173,0.0454166680574,-0.1515725106,-0.00441293558106,-0.997566699982,0.00441073440015,0.0694383904338
1505403907486955822,72,1505403907486769810,0.149022385478,0.0454490855336,-0.150234118104,-0.00422476744279,-0.997557640076,0.00402412051335,0.0696030855179
1505403907486963706,73,1505403907486781173,0.149118512869,0.0454146675766,-0.148812457919,-0.00382315344177,-0.997553944588,0.00371039379388,0.0696976929903
1505403907497164945,74,1505403907496983090,0.149166330695,0.0453570298851,-0.147403642535,-0.00359504157677,-0.997563481331,0.00416782870889,0.0695473626256
1505403907507391126,75,1505403907507215041,0.14924095571,0.0452370047569,-0.146003365517,-0.00364309409633,-0.99755525589,0.00482840556651,0.0696191638708
1505403907517627621,76,1505403907517497249,0.149264335632,0.0450744405389,-0.144547969103,-0.00366068142466,-0.99752676487,0.00581256439909,0.0699512138963
1505403907526891550,77,1505403907526707625,0.149219065905,0.0450655966997,-0.143039613962,-0.00357728963718,-0.997480750084,0.00591210275888,0.0706004872918
1505403907537126991,78,1505403907536977282,0.149278104305,0.0451318472624,-0.141640722752,-0.00346769974567,-0.997465729713,0.00552979204804,0.0708487406373
1505403907547365221,79,1505403907547224173,0.149363175035,0.0449847988784,-0.140204846859,-0.00317845214158,-0.997470319271,0.0062588378787,0.0707371234894
1505403907557546754,80,1505403907557467265,0.149448215961,0.0448809638619,-0.138654708862,-0.00297274929471,-0.997453272343,0.00668501434848,0.0709471106529
1505403907566938168,81,1505403907566793188,0.149551764131,0.0448340140283,-0.137143164873,-0.00274865725078,-0.997457742691,0.00696272961795,0.0708659365773
1505403907577255164,82,1505403907577008949,0.149556398392,0.0449676811695,-0.135620951653,-0.00242824782617,-0.997447371483,0.00613777572289,0.0711003690958
1505403907587393097,83,1505403907587285366,0.149573490024,0.0448801219463,-0.134084492922,-0.001947029843,-0.997434437275,0.00597843155265,0.0713100507855
1505403907597649451,84,1505403907597502365,0.149624094367,0.04486393556,-0.132558956742,-0.00196988880634,-0.997416257858,0.00566831603646,0.0715879127383
1505403907606924093,85,1505403907606794684,0.149684652686,0.0446766912937,-0.130930259824,-0.0019667991437,-0.99742013216,0.00685214949772,0.0714303851128
1505403907617261822,86,1505403907617093899,0.149734288454,0.0445877201855,-0.129250511527,-0.00176136393566,-0.997399032116,0.00744219822809,0.0716702491045
1505403907627489740,87,1505403907627302133,0.149838805199,0.0446379743516,-0.127723753452,-0.00183721270878,-0.997392416,0.00715110264719,0.0717898905277
1505403907637724052,88,1505403907637566888,0.149902522564,0.0447753332555,-0.126188769937,-0.00175067700911,-0.997397899628,0.00602976512164,0.0718203708529
1505403907646967092,89,1505403907646816167,0.149948731065,0.0447350740433,-0.124637424946,-0.00136662484147,-0.997383892536,0.00622862577438,0.0720053613186
1505403907657258905,90,1505403907657138479,0.150008574128,0.0447293557227,-0.122980825603,-0.001345492783,-0.997371792793,0.00663283420727,0.0721368938684
1505403907667531876,91,1505403907667374473,0.150086909533,0.0446491837502,-0.121350973845,-0.00148679385893,-0.997362732887,0.00712003791705,0.0722131952643
1505403907677730710,92,1505403907677578719,0.150193706155,0.0446010529995,-0.119830660522,-0.00150346127339,-0.997380375862,0.00761789781973,0.0719171315432
1505403907686938879,93,1505403907686779356,0.150277525187,0.0446824617684,-0.118338182569,-0.00173093483318,-0.997405529022,0.0073166154325,0.071594171226
1505403907697112837,94,1505403907696987247,0.150371477008,0.0447018444538,-0.116721242666,-0.00204553408548,-0.997404515743,0.00732806604356,0.0715990141034
1505403907707453643,95,1505403907707272632,0.150464653969,0.0446614772081,-0.115077979863,-0.00213509285823,-0.99742102623,0.00813605636358,0.0712785124779
1505403907717732916,96,1505403907717571432,0.150491371751,0.0445968881249,-0.113426908851,-0.00238171685487,-0.997441589832,0.00851086247712,0.0709383934736
1505403907726880119,97,1505403907726769107,0.150626823306,0.0448418967426,-0.111867420375,-0.00226102257147,-0.997477591038,0.00802702736109,0.0704908892512
1505403907737194211,98,1505403907737046156,0.150800451636,0.0451011098921,-0.110268466175,-0.0024612727575,-0.997527480125,0.00718481419608,0.0698655322194
1505403907747468718,99,1505403907747306113,0.150952890515,0.044999551028,-0.108584955335,-0.00251612532884,-0.997546315193,0.00746084842831,0.0695657208562
1505403907757726705,100,1505403907757575946,0.151160225272,0.0449518188834,-0.106962323189,-0.00282643735409,-0.997574448586,0.00792149826884,0.0690982863307
1505403907766963241,101,1505403907766791650,0.151429072022,0.0449470691383,-0.105442777276,-0.00329818902537,-0.997596383095,0.0083728954196,0.0687050148845
1505403907777272877,102,1505403907777048516,0.151614621282,0.0451430752873,-0.103807479143,-0.0034621169325,-0.997587561607,0.00798588898033,0.0688709169626
1505403907787433600,103,1505403907787316959,0.151894927025,0.0451526753604,-0.102227918804,-0.00372430100106,-0.997600734234,0.00819520279765,0.068642385304
1505403907797680790,104,1505403907797576624,0.152209803462,0.0451024472713,-0.10060005635,-0.00408179825172,-0.99762660265,0.00855397153646,0.068201482296
1505403907806967368,105,1505403907806834969,0.152463898063,0.0452313199639,-0.0988699048758,-0.0046294638887,-0.997623741627,0.00875313300639,0.0681822448969
1505403907817249509,106,1505403907817029767,0.152688354254,0.0453520603478,-0.0971001982689,-0.0045610438101,-0.997615873814,0.00873396266252,0.0683046504855
1505403907827468770,107,1505403907827318865,0.152926206589,0.0453345291317,-0.095329798758,-0.00453569274396,-0.997635364532,0.00888442620635,0.0680012628436
1505403907837799904,108,1505403907837602065,0.15310010314,0.0455034635961,-0.0936095789075,-0.00439054705203,-0.997668921947,0.00800676923245,0.0676258578897
1505403907847018008,109,1505403907846845151,0.153284937143,0.0456095486879,-0.0918748602271,-0.00479553733021,-0.997691988945,0.00709404330701,0.0673588886857
1505403907857258856,110,1505403907857046963,0.153421938419,0.0457271188498,-0.0900162830949,-0.00543253170326,-0.997711718082,0.00638927193359,0.0670891478658
1505403907877709389,111,1505403907877449614,0.153536394238,0.0456929914653,-0.0881043598056,-0.0059187146835,-0.997710704803,0.00694883568212,0.0670076757669
1505403907877712804,112,1505403907877473369,0.153631463647,0.0457326732576,-0.0862384065986,-0.00596077134833,-0.997723340988,0.00654932344332,0.0668557360768
1505403907886833981,113,1505403907886663020,0.153641819954,0.0459788888693,-0.0843721106648,-0.00603887205943,-0.99773234129,0.00531168561429,0.0668234974146
1505403907897069454,114,1505403907896897252,0.153626009822,0.0459022894502,-0.0825214833021,-0.00566509040073,-0.997744560242,0.00536277424544,0.0666711330414
1505403907907273842,115,1505403907907156907,0.153624400496,0.0457586124539,-0.0805293470621,-0.0052965246141,-0.997743189335,0.00608710572124,0.066658899188
1505403907917504606,116,1505403907917369721,0.153723239899,0.0459239371121,-0.0786172151566,-0.00549713056535,-0.997763156891,0.00529292970896,0.066411010921
1505403907927724838,117,1505403907927602307,0.153837189078,0.0458821728826,-0.076677903533,-0.00589699298143,-0.99777328968,0.00512418569997,0.0662377551198
1505403907936967150,118,1505403907936841079,0.154058307409,0.0459631718695,-0.0748084932566,-0.0063685849309,-0.997817635536,0.00442362623289,0.0655722916126
1505403907947151825,119,1505403907947050038,0.154169172049,0.0461566001177,-0.0728829577565,-0.00644988473505,-0.997824728489,0.00382537487894,0.06549449265
1505403907957468558,120,1505403907957345881,0.154313534498,0.0461607053876,-0.07096773386,-0.00603181635961,-0.997838675976,0.00345473526977,0.0653414577246
1505403907967641101,121,1505403907967495341,0.154434025288,0.0461462810636,-0.069078989327,-0.00583150051534,-0.997834563255,0.00324739026837,0.0654338151217
1505403907976852042,122,1505403907976695652,0.154578536749,0.0460742451251,-0.0670897141099,-0.00565486215055,-0.997819960117,0.00348290940747,0.0656603872776
1505403907987044581,123,1505403907986907094,0.154812425375,0.0461912304163,-0.0651613771915,-0.00598578155041,-0.997834265232,0.00313063361682,0.0654305964708
1505403907997247696,124,1505403907997108326,0.155040353537,0.0463602356613,-0.0631913840771,-0.00659647956491,-0.997843921185,0.00250459020026,0.0652505233884
1505403908007624985,125,1505403908007422342,0.155287742615,0.0462248139083,-0.0613229051232,-0.00651777628809,-0.997860610485,0.00254500098526,0.0650012493134
1505403908016749128,126,1505403908016566508,0.155413627625,0.0462093092501,-0.0592916160822,-0.00644062831998,-0.997864067554,0.00248591508716,0.0649593174458
1505403908026914139,127,1505403908026764142,0.15559335053,0.0461935773492,-0.0572757609189,-0.00599780771881,-0.997900664806,0.00271675130352,0.0644280090928
1505403908037086602,128,1505403908036988684,0.155683428049,0.0462010726333,-0.0553087592125,-0.00569448946044,-0.997889637947,0.00227320357226,0.0646426230669
1505403908047481852,129,1505403908047283995,0.15584012866,0.0462374202907,-0.0533136278391,-0.0059013934806,-0.997880399227,0.00163836847059,0.0647855550051
1505403908057616407,130,1505403908057458914,0.155992642045,0.0461512319744,-0.0512081310153,-0.00642916979268,-0.997866928577,0.00241266586818,0.0649184212089
1505403908066783921,131,1505403908066628076,0.156160667539,0.0463963411748,-0.0492721311748,-0.00669132033363,-0.997868299484,0.00125639734324,0.064903922379
1505403908077056969,132,1505403908076874894,0.156302899122,0.0464547164738,-0.0472862757742,-0.00627594720572,-0.997880935669,0.000883153465111,0.0647570192814
1505403908087173235,133,1505403908087066358,0.156347498298,0.0463236123323,-0.0453296676278,-0.00596390292048,-0.997877955437,0.00131851737387,0.0648249536753
1505403908097469285,134,1505403908097300844,0.156441524625,0.0462153889239,-0.0433464571834,-0.00582038285211,-0.997870445251,0.00228015100583,0.0649263337255
1505403908107784471,135,1505403908107596065,0.156520992517,0.0461773835123,-0.0413419827819,-0.00568906171247,-0.997843384743,0.00263119535521,0.0653408393264
1505403908117031509,136,1505403908116847777,0.156702920794,0.0462458543479,-0.039494920522,-0.00580927031115,-0.997853755951,0.00277378992178,0.0651647374034
1505403908127165181,137,1505403908127059146,0.156850859523,0.0462100319564,-0.0375957787037,-0.00614275876433,-0.99785810709,0.00367016461678,0.0650232806802
1505403908137477567,138,1505403908137298893,0.15701161325,0.04621059075,-0.0357061810791,-0.00590084865689,-0.997870385647,0.00364720611833,0.0648580417037
1505403908147684241,139,1505403908147558642,0.157176047564,0.0462133698165,-0.033864159137,-0.00555861275643,-0.997887969017,0.00412792898715,0.0645881667733
1505403908156929945,140,1505403908156820979,0.157334968448,0.0461193211377,-0.0319525972009,-0.00528728030622,-0.997894227505,0.00491152238101,0.0644598305225
1505403908167193219,141,1505403908167033220,0.157482206821,0.0461343117058,-0.0300612207502,-0.00547098042443,-0.997879624367,0.00554059632123,0.0646198317409
1505403908187677318,142,1505403908187414710,0.157664954662,0.0461774542928,-0.0282602086663,-0.00583424745128,-0.997879683971,0.00580132007599,0.0645635649562
1505403908187682925,143,1505403908187426281,0.157894298434,0.0459464490414,-0.0264154225588,-0.00567592028528,-0.997903645039,0.00672168005258,0.0641157701612
1505403908197018443,144,1505403908196855092,0.15799818933,0.0459182374179,-0.0245248638093,-0.00535606499761,-0.997901141644,0.00701852794737,0.0641511827707
1505403908217400811,145,1505403908217238782,0.158059597015,0.0459417067468,-0.0224981773645,-0.00525986449793,-0.997884213924,0.00736194802448,0.0643828883767
1505403908217406880,146,1505403908217270288,0.158140406013,0.0458261221647,-0.0205098129809,-0.00526974722743,-0.997863829136,0.0079197306186,0.0646318867803
1505403908227661402,147,1505403908227516097,0.158266603947,0.0457717850804,-0.018404783681,-0.00523650692776,-0.997858822346,0.00810352619737,0.0646896138787
1505403908247322204,148,1505403908247026431,0.158391207457,0.0458483211696,-0.0162752140313,-0.00515438942239,-0.997874796391,0.00773031078279,0.0644950717688
1505403908247329024,149,1505403908247084022,0.158520400524,0.0459805987775,-0.0141317769885,-0.00519325630739,-0.99791765213,0.00709937373176,0.0638979896903
1505403908257511800,150,1505403908257359535,0.158694729209,0.0458691641688,-0.0119104068726,-0.00480521749705,-0.997906804085,0.00706145260483,0.0641024187207
1505403908276965314,151,1505403908276785697,0.158708930016,0.0461206324399,-0.00962522439659,-0.00496099935845,-0.99787402153,0.00616531958804,0.0646893009543
1505403908276970896,152,1505403908276802599,0.158857285976,0.0461444295943,-0.00732136704028,-0.00489800656214,-0.997866809368,0.00616195099428,0.0648063421249
1505403908287139655,153,1505403908287035040,0.159078299999,0.046297993511,-0.00517382379621,-0.00511120120063,-0.997888803482,0.00481884833425,0.0645652785897
1505403908307646298,154,1505403908307433350,0.159278541803,0.046334143728,-0.00289714150131,-0.00517538469285,-0.997927069664,0.00481950445101,0.0639651045203
1505403908307650034,155,1505403908307452765,0.159425541759,0.0462959297001,-0.000655204989016,-0.00494528422132,-0.99793702364,0.00523329852149,0.0637947618961
1505403908316748956,156,1505403908316609065,0.159612253308,0.0463663004339,0.00153108744416,-0.00457631889731,-0.997935950756,0.0049806619063,0.0638607740402
1505403908326944368,157,1505403908326804666,0.159639850259,0.0464054867625,0.00373461935669,-0.0049369125627,-0.997882783413,0.00481952726841,0.064671061933
1505403908337181179,158,1505403908337059140,0.159800097346,0.0464854091406,0.0058712195605,-0.00527680898085,-0.99788326025,0.0050484854728,0.0646187439561
1505403908347434560,159,1505403908347328383,0.159936100245,0.0465869940817,0.00798108335584,-0.00507938815281,-0.997884809971,0.00509598990902,0.0646085217595
1505403908357766681,160,1505403908357573826,0.160061120987,0.0466420799494,0.0100811552256,-0.00517262332141,-0.997899949551,0.00510588567704,0.0643649995327
1505403908366942589,161,1505403908366797228,0.160087615252,0.0464870892465,0.012266529724,-0.00500656478107,-0.997878313065,0.00573635147884,0.0646597743034
1505403908377198557,162,1505403908377045127,0.160185471177,0.046492818743,0.0144420256838,-0.00514066964388,-0.997853934765,0.00623123813421,0.0649796500802
1505403908387435131,163,1505403908387275030,0.16029201448,0.0465343259275,0.0166149884462,-0.00509006669745,-0.997835695744,0.0059598274529,0.0652872174978
1505403908397618734,164,1505403908397479868,0.160464644432,0.0466709695756,0.0187879931182,-0.00531875435263,-0.997842133045,0.0058160838671,0.0651834532619
1505403908406881447,165,1505403908406739975,0.160663843155,0.0466111153364,0.0209788810462,-0.00515612447634,-0.997883617878,0.00661117769778,0.064482524991
1505403908417101425,166,1505403908416955759,0.160755842924,0.0468756742775,0.0233331788331,-0.00504649756476,-0.997870862484,0.00486756069586,0.0648435354233
1505403908427309479,167,1505403908427171890,0.160898074508,0.0469520315528,0.0256121382117,-0.00505597796291,-0.997876882553,0.00451461831108,0.064775198698
1505403908437624304,168,1505403908437469654,0.161090970039,0.0469245612621,0.0278520546854,-0.00506658898667,-0.997873425484,0.00454308371991,0.0648261606693
1505403908446796863,169,1505403908446657101,0.161275193095,0.0470598600805,0.0300805978477,-0.00527989678085,-0.997894823551,0.00344181177206,0.0645453110337
1505403908457142026,170,1505403908456857256,0.161463573575,0.0471098162234,0.0322912037373,-0.00525403441861,-0.997920870781,0.00351760280319,0.064140483737
1505403908467226466,171,1505403908467089292,0.161628440022,0.0471311882138,0.034575663507,-0.00512361573055,-0.997942209244,0.0032892646268,0.0638302564621
1505403908477450268,172,1505403908477290267,0.161745563149,0.0470883101225,0.0368481911719,-0.00516995787621,-0.997902214527,0.00387548608705,0.0644159242511
1505403908487630929,173,1505403908487528767,0.161848425865,0.0471433885396,0.0391912832856,-0.00560484547168,-0.997875869274,0.00375014590099,0.0647950172424
1505403908497001616,174,1505403908496768707,0.161897242069,0.0471938438714,0.0414171405137,-0.00563886249438,-0.997843146324,0.00315231806599,0.0653240531683
1505403908507178953,175,1505403908506979597,0.162006512284,0.047274723649,0.0436657443643,-0.00522494222969,-0.997859299183,0.00314006861299,0.0651129260659
1505403908517278885,176,1505403908517170557,0.162150546908,0.0471397154033,0.0458468943834,-0.00518384343013,-0.997890710831,0.00363893411122,0.0646059215069
1505403908527821960,177,1505403908527500977,0.16228158772,0.0473225936294,0.0481297969818,-0.00525522464886,-0.997888445854,0.00315012433566,0.0646617934108
1505403908536887112,178,1505403908536749248,0.162418961525,0.0472539402544,0.0503855422139,-0.00526378536597,-0.997858405113,0.00431023119017,0.0650562718511
1505403908547147627,179,1505403908546987908,0.162549510598,0.047197651118,0.0526889711618,-0.0052437405102,-0.997838497162,0.00455874716863,0.0653454065323
1505403908557361033,180,1505403908557251903,0.162697792053,0.0472474470735,0.0549068078399,-0.00509728491306,-0.997853338718,0.00422579748556,0.0651529580355
1505403908567751334,181,1505403908567532981,0.162904649973,0.0472969152033,0.0570844337344,-0.00498627731577,-0.997893810272,0.00387709145434,0.064560495317
1505403908576894438,182,1505403908576751134,0.163173422217,0.0473127327859,0.0594043545425,-0.00505822105333,-0.997923374176,0.00360869709402,0.0641117691994
1505403908597451399,183,1505403908597187934,0.163331955671,0.0474601984024,0.0617605745792,-0.00529860286042,-0.997914791107,0.00288487831131,0.0642629042268
1505403908597468996,184,1505403908597205836,0.163539230824,0.047397069633,0.0640552267432,-0.00506743276492,-0.997891485691,0.00299226958305,0.0646372810006
1505403908607665135,185,1505403908607505055,0.163656666875,0.0474818944931,0.0664317756891,-0.00513665191829,-0.997875094414,0.00314480881207,0.0648769065738
1505403908627419729,186,1505403908627002023,0.163818001747,0.0474834442139,0.0687424167991,-0.00497312983498,-0.997884988785,0.00336250732653,0.0647274926305
1505403908627435678,187,1505403908627084994,0.164024665952,0.0475771166384,0.0710409060121,-0.00489871203899,-0.997894644737,0.0022056333255,0.0646323412657
1505403908637542784,188,1505403908637386781,0.164197728038,0.0476532094181,0.0734350085258,-0.00508302636445,-0.997891068459,0.00250736484304,0.0646633580327
1505403908657076337,189,1505403908656909490,0.164338707924,0.0476551875472,0.0756963193417,-0.00537167722359,-0.997880578041,0.00286687654443,0.0647867098451
1505403908657083691,190,1505403908656933355,0.16450124979,0.0475140176713,0.0779834985733,-0.00501541839913,-0.997871220112,0.00316435005516,0.0649451166391
1505403908667400625,191,1505403908667241289,0.164631187916,0.0475368537009,0.0801783874631,-0.00495761167258,-0.997895300388,0.00317397154868,0.0645777285099
1505403908686764409,192,1505403908686666831,0.164831295609,0.0476233586669,0.0824875608087,-0.0050478563644,-0.997916936874,0.00247081625275,0.0642662122846
1505403908686959254,193,1505403908686887693,0.16497041285,0.0476173013449,0.084721557796,-0.0050793508999,-0.997937977314,0.00301551120356,0.0639137253165
1505403908697242371,194,1505403908697115145,0.165139570832,0.0476475842297,0.0869770273566,-0.00498491991311,-0.997953355312,0.003023667261,0.0636805295944
1505403908717695586,195,1505403908717552123,0.165248006582,0.0475732125342,0.0893259942532,-0.00495528103784,-0.997946500778,0.00320611707866,0.0637790039182
1505403908717721456,196,1505403908717575600,0.165424242616,0.0474632717669,0.0916218757629,-0.00483414297923,-0.997968316078,0.00397361209616,0.0634038820863
1505403908727052047,197,1505403908726843752,0.165534704924,0.0475000403821,0.0939808785915,-0.00491560949013,-0.997961401939,0.0037634272594,0.0635190159082
1505403908747472927,198,1505403908747310509,0.165705412626,0.0475008115172,0.0963312909007,-0.00514420541003,-0.997961938381,0.00363456155173,0.0635000169277
1505403908747476895,199,1505403908747333234,0.165878802538,0.0476696044207,0.0987454131246,-0.00530014466494,-0.997967004776,0.00261028436944,0.063458673656
1505403908756899566,200,1505403908756749537,0.166074454784,0.0478782095015,0.101082600653,-0.00542345410213,-0.997982263565,0.00145617220551,0.0632456243038
1505403908777397843,201,1505403908777206473,0.166071265936,0.0474113970995,0.103763349354,-0.00462138839066,-0.997960746288,0.00284345913678,0.0635991096497
1505403908777402334,202,1505403908777218549,0.166247159243,0.0473376847804,0.106113709509,-0.0046755624935,-0.99795871973,0.00284503935836,0.0636272132397
1505403908787581090,203,1505403908787484337,0.166368037462,0.0474342256784,0.108484767377,-0.00447968812659,-0.997949540615,0.00226823915727,0.0638076663017
1505403908807262071,204,1505403908807017719,0.166504904628,0.0474951304495,0.110820919275,-0.00460295053199,-0.99793869257,0.00209322338924,0.0639750808477
1505403908807265138,205,1505403908807033653,0.166638746858,0.0473316349089,0.113169588149,-0.00476645072922,-0.997956931591,0.0028460023459,0.063647814095
1505403908817413531,206,1505403908817318611,0.166802421212,0.0472800992429,0.115431383252,-0.00448859855533,-0.997964978218,0.00296221557073,0.0635379552841
1505403908836884724,207,1505403908836691304,0.167008310556,0.0472761616111,0.117611035705,-0.0046208659187,-0.99797296524,0.00285978894681,0.063406072557
1505403908836888214,208,1505403908836731795,0.167122349143,0.0471235588193,0.119900152087,-0.00477169966325,-0.997973978519,0.00408483529463,0.0633131563663
1505403908847161207,209,1505403908846994257,0.167247578502,0.0471118167043,0.122328229249,-0.00469938013703,-0.997954010963,0.00410383287817,0.0636297613382
1505403908867651417,210,1505403908867433169,0.16742810607,0.0469648428261,0.124472804368,-0.00447546644136,-0.99799489975,0.00462950253859,0.0629654303193
1505403908867661980,211,1505403908867453113,0.167605653405,0.0469447821379,0.126754701138,-0.00464183976874,-0.998022735119,0.00462583452463,0.0625113770366
1505403908876808992,212,1505403908876640459,0.167791694403,0.0469186529517,0.12894590199,-0.00492400350049,-0.998036980629,0.00423023663461,0.0622908361256
1505403908897226584,213,1505403908897070209,0.167963162065,0.046846576035,0.131228625774,-0.00519151985645,-0.998027920723,0.00515611330047,0.062343981117
1505403908897235319,214,1505403908897104773,0.16807346046,0.0469105876982,0.133570805192,-0.00511136138812,-0.998001277447,0.00518264668062,0.0627736002207
1505403908907508707,215,1505403908907301020,0.168171450496,0.0466918684542,0.135867416859,-0.00479162530974,-0.997977435589,0.0062272218056,0.0630813539028
1505403908926880710,216,1505403908926595324,0.168336436152,0.046529956162,0.138105452061,-0.00431150291115,-0.998002707958,0.00711346976459,0.0626206323504
1505403908926884382,217,1505403908926625380,0.16842250526,0.0466171316803,0.140343502164,-0.00432226713747,-0.998007774353,0.00685848388821,0.0625669285655
1505403908937125634,218,1505403908936989917,0.168491065502,0.0465697050095,0.142587408423,-0.00423284759745,-0.99800658226,0.00703213177621,0.0625743344426
1505403908957632281,219,1505403908957437801,0.168518066406,0.0465555116534,0.144834667444,-0.003803281812,-0.998002290726,0.00694711040705,0.0626790598035
1505403908957636272,220,1505403908957481022,0.168618232012,0.0466403365135,0.147234633565,-0.00353591935709,-0.997987449169,0.00652773166075,0.0629754066467
1505403908966877719,221,1505403908966721466,0.168682903051,0.0466830544174,0.149559348822,-0.00357514386997,-0.998006522655,0.00719511928037,0.06259637326
1505403908987212940,222,1505403908987075006,0.168839082122,0.0466245859861,0.151925832033,-0.00318666920066,-0.998026609421,0.00677438918501,0.0623446144164
1505403908987217285,223,1505403908987102088,0.168926402926,0.0466993451118,0.154267504811,-0.00283947936259,-0.99804276228,0.00656004203483,0.0621258765459
1505403908997537738,224,1505403908997359922,0.16897508502,0.0466477796435,0.15669387579,-0.00285137956962,-0.998060464859,0.00711292028427,0.061778344214
1505403909016956508,225,1505403909016790998,0.169098034501,0.0466074161232,0.159151777625,-0.00287613132969,-0.998048782349,0.00765440566465,0.0619014315307
1505403909016959764,226,1505403909016807564,0.169242665172,0.0465751588345,0.16164842248,-0.00322529138066,-0.998058259487,0.00834469776601,0.0616415068507
1505403909027515563,227,1505403909027089291,0.169425025582,0.0466916710138,0.164097905159,-0.00338860601187,-0.99804186821,0.00753581011668,0.0620021820068
1505403909047749825,228,1505403909047556155,0.169582024217,0.0468095205724,0.166450366378,-0.0032202466391,-0.998063206673,0.00682865036651,0.0617483630776
1505403909047753871,229,1505403909047606902,0.169676095247,0.0468494519591,0.168888688087,-0.00312403100543,-0.998079538345,0.00691073341295,0.0614791102707
1505403909056982293,230,1505403909056881575,0.169833272696,0.0467694252729,0.171320900321,-0.00299961306155,-0.998086571693,0.00665761670098,0.0613991767168
1505403909077480344,231,1505403909077286058,0.17009036243,0.0468235313892,0.173741415143,-0.00314108724706,-0.998112976551,0.00604296801612,0.061025146395
1505403909077487176,232,1505403909077302943,0.170350179076,0.0469095259905,0.176128447056,-0.00316803785972,-0.998130261898,0.00627525011078,0.060716740787
1505403909087741740,233,1505403909087595466,0.170581400394,0.0470670349896,0.178460821509,-0.0034970890265,-0.998136222363,0.0054331952706,0.0606826096773
1505403909107248002,234,1505403909107036301,0.170737728477,0.0470098033547,0.180853396654,-0.00353458151221,-0.998163461685,0.00612789578736,0.0601636469364
1505403909107251661,235,1505403909107087225,0.170932501554,0.0470338389277,0.183265030384,-0.00331853749231,-0.998168826103,0.00620631081983,0.0600797832012
1505403909117497745,236,1505403909117351445,0.171122327447,0.0470726825297,0.185803428292,-0.00371697242372,-0.998134195805,0.00565255759284,0.060682810843
1505403909136985544,237,1505403909136791489,0.171271428466,0.0470629408956,0.18819797039,-0.00384655711241,-0.998168170452,0.00619452493265,0.0600596964359
1505403909136990058,238,1505403909136847856,0.171447113156,0.0471312701702,0.190638437867,-0.00365758594126,-0.998187065125,0.00558333331719,0.0598175004125
1505403909147276652,239,1505403909147134437,0.171587765217,0.0471846982837,0.192949190736,-0.0034437184222,-0.998235523701,0.00463626533747,0.0590969435871
1505403909157603189,240,1505403909157435566,0.171631485224,0.0472970344126,0.195544794202,-0.00350194610655,-0.998199343681,0.00356362201273,0.0597760155797
1505403909166702341,241,1505403909166567217,0.171708583832,0.0474091432989,0.198070213199,-0.00357724144123,-0.998168289661,0.00328878383152,0.0603030398488
1505403909187432638,242,1505403909187229206,0.171848192811,0.0475058369339,0.200553774834,-0.00360059808008,-0.998157203197,0.00264157704078,0.0605164691806
1505403909187436281,243,1505403909187241438,0.171948194504,0.0475602522492,0.202954858541,-0.00375542161055,-0.998170614243,0.00287565705366,0.0602759644389
1505403909197614598,244,1505403909197443868,0.172089979053,0.0476646125317,0.205395430326,-0.00340461870655,-0.998183310032,0.00262394128367,0.0600970052183
1505403909217043728,245,1505403909216857022,0.172191888094,0.0476050637662,0.207840964198,-0.00323206395842,-0.998197317123,0.00357671431266,0.0598237328231
1505403909217160542,246,1505403909216869180,0.172271162271,0.047661896795,0.210251882672,-0.00298695871606,-0.998163878918,0.00356651167385,0.060392845422
1505403909227241122,247,1505403909227064896,0.172425657511,0.0477028414607,0.212652981281,-0.00255765742622,-0.998146414757,0.00362489186227,0.060696080327
1505403909237482615,248,1505403909237318420,0.172633096576,0.047606613487,0.215134292841,-0.00351587100886,-0.998178958893,0.00508301053196,0.0600053519011
1505403909247707354,249,1505403909247539101,0.172769099474,0.0476256236434,0.217418208718,-0.00377018656582,-0.99817609787,0.00515716336668,0.0600306615233
1505403909256883248,250,1505403909256739889,0.173001617193,0.0474437624216,0.219771668315,-0.00359106366523,-0.998207330704,0.00592819834128,0.0594477877021
1505403909277388136,251,1505403909277132953,0.173102498055,0.0473664477468,0.222170293331,-0.00339217158034,-0.998188436031,0.00610457267612,0.0597577020526
1505403909277398644,252,1505403909277172667,0.173227146268,0.0472841560841,0.22468239069,-0.00337671930902,-0.998208045959,0.00657548103482,0.0593804940581
1505403909287609597,253,1505403909287389538,0.173399016261,0.0474280416965,0.227157816291,-0.00328147108667,-0.998228013515,0.00590867828578,0.0591198652983
1505403909297791152,254,1505403909297620756,0.173521518707,0.0474664121866,0.229655727744,-0.00335293239914,-0.99822050333,0.00496140960604,0.0593287162483
1505403909306985201,255,1505403909306840992,0.173565685749,0.0475705787539,0.232218891382,-0.00334529299289,-0.998209536076,0.00377176958136,0.0596021637321
1505403909317261135,256,1505403909317097629,0.173698917031,0.047698520124,0.234840720892,-0.00356662226841,-0.998201131821,0.00312656164169,0.0597674436867
1505403909327416658,257,1505403909327309931,0.173753634095,0.0478528104722,0.237423509359,-0.00308418925852,-0.998192548752,0.00211350573227,0.0599807649851
1505403909337700016,258,1505403909337549938,0.173900768161,0.0478646680713,0.239923745394,-0.00324226589873,-0.99820536375,0.00197213352658,0.0597626641393
1505403909346934855,259,1505403909346763261,0.174049139023,0.0479815006256,0.242359668016,-0.00311245559715,-0.998203217983,0.00155460042879,0.0598180182278
1505403909357088354,260,1505403909356970328,0.174068421125,0.0479934625328,0.244825035334,-0.00290405144915,-0.998188614845,0.00245593325235,0.0600403882563
1505403909367464533,261,1505403909367322714,0.174164041877,0.0478038676083,0.24718002975,-0.00294073205441,-0.998191058636,0.00304396962747,0.0599714294076
1505403909377755783,262,1505403909377542685,0.174227625132,0.047536727041,0.24951569736,-0.00247141509317,-0.998177111149,0.00372075778432,0.0601870529354
1505403909386923380,263,1505403909386768153,0.174405843019,0.0475005656481,0.251768618822,-0.00246947212145,-0.998193502426,0.00404338911176,0.0598945729434
1505403909397218722,264,1505403909397057126,0.174544095993,0.0475974828005,0.254075944424,-0.00262834853493,-0.998184084892,0.0041487426497,0.0600373595953
1505403909407377279,265,1505403909407252310,0.174606412649,0.0476254075766,0.256431013346,-0.00272669154219,-0.99816429615,0.00470200181007,0.0603189989924
1505403909417626170,266,1505403909417493627,0.174707844853,0.0474975071847,0.258753567934,-0.00252347323112,-0.998161077499,0.00551304826513,0.0603136233985
1505403909426879981,267,1505403909426748630,0.174809932709,0.0474953986704,0.261209189892,-0.00227445340715,-0.998160541058,0.0055121970363,0.0603333003819
1505403909437125973,268,1505403909436977020,0.174989834428,0.0476336181164,0.263688713312,-0.00268416269682,-0.998180568218,0.00504008214921,0.0600252188742
1505403909447371145,269,1505403909447183139,0.175207182765,0.0476641170681,0.266117662191,-0.00294911116362,-0.998205184937,0.00433525256813,0.0596575737
1505403909457577763,270,1505403909457398511,0.175383582711,0.0478302463889,0.268628716469,-0.00269462331198,-0.9982162714,0.00364534556866,0.0595296919346
1505403909467766065,271,1505403909467618287,0.175503328443,0.0477733463049,0.271149218082,-0.00243934011087,-0.998217463493,0.00351048726588,0.059526860714
1505403909477013976,272,1505403909476837972,0.175675138831,0.0477127432823,0.273679733276,-0.00294575095177,-0.998219549656,0.00387087650597,0.0594468936324
1505403909487240531,273,1505403909487070551,0.175900548697,0.0477364659309,0.276186943054,-0.00306395278312,-0.998218178749,0.00349397794344,0.059488851577
1505403909497431982,274,1505403909497270783,0.17612683773,0.0477211475372,0.278659105301,-0.0034469855018,-0.998227715492,0.00355352903716,0.0593023076653
1505403909507636898,275,1505403909507503250,0.176257118583,0.0477814674377,0.281139433384,-0.00358800869435,-0.998228430748,0.00381568493322,0.0592672936618
1505403909516938536,276,1505403909516802718,0.176396533847,0.0477032698691,0.283566534519,-0.00315188406967,-0.998234987259,0.00443928549066,0.0591375753284
1505403909527188772,277,1505403909527006940,0.176503628492,0.0476070046425,0.286004334688,-0.00311047723517,-0.998223602772,0.00484928302467,0.0592990592122
1505403909537010160,278,1505403909536811818,0.176655352116,0.0475219339132,0.288433253765,-0.00323164975271,-0.998223364353,0.00484582735226,0.0592980720103
1505403909547170077,279,1505403909547022968,0.176834046841,0.0475651808083,0.290917187929,-0.00310188229196,-0.998232245445,0.00440577371046,0.0591893307865
1505403909557422446,280,1505403909557253750,0.176999226213,0.0476367138326,0.293257981539,-0.00358925573528,-0.998256921768,0.00457848981023,0.0587303265929
1505403909567597720,281,1505403909567495497,0.177107140422,0.0477439202368,0.295752495527,-0.00377266830765,-0.998267233372,0.00411588512361,0.0585780702531
1505403909576921380,282,1505403909576740823,0.177222177386,0.0476217158139,0.298079639673,-0.00366331078112,-0.998282253742,0.00426759757102,0.0583172142506
1505403909587085644,283,1505403909586966808,0.177335098386,0.0476875007153,0.300583839417,-0.00300507573411,-0.998280405998,0.00348373223096,0.058437500149
1505403909597397269,284,1505403909597242717,0.177441343665,0.047716435045,0.303126096725,-0.00345119345002,-0.998287975788,0.00385093642399,0.0582617372274
1505403909607645067,285,1505403909607475449,0.177625000477,0.0480911694467,0.305626213551,-0.0041769403033,-0.99829775095,0.00257969461381,0.0581154674292
1505403909616764347,286,1505403909616668157,0.177732691169,0.0481076389551,0.308037847281,-0.00400250637904,-0.998306930065,0.00259787542745,0.0579701848328
1505403909627136265,287,1505403909626908821,0.177923902869,0.0480003394186,0.310497283936,-0.00422215554863,-0.998302459717,0.00255180522799,0.0580329596996
1505403909637346728,288,1505403909637169595,0.178040161729,0.0478223748505,0.312973797321,-0.0043730372563,-0.998292982578,0.00314473849721,0.0581548288465
1505403909647555964,289,1505403909647403111,0.178437620401,0.0473259948194,0.315363496542,-0.00298642809503,-0.998322665691,0.00417942041531,0.0576672367752
1505403909657187910,290,1505403909656585430,0.178617030382,0.047257322818,0.31776496768,-0.00255154888146,-0.998328745365,0.00380783085711,0.0576084591448
1505403909667714211,291,1505403909667493172,0.17875868082,0.0472638532519,0.320239931345,-0.00289770890959,-0.998313724995,0.00331146013923,0.0578825064003
1505403909676871577,292,1505403909676727533,0.178837746382,0.0472945012152,0.322662383318,-0.00312087894417,-0.998307228088,0.00346831348725,0.057974267751
1505403909687082039,293,1505403909686950219,0.178998634219,0.0474864430726,0.325094550848,-0.00309005985036,-0.99830186367,0.00246851774864,0.0581178292632
1505403909697326965,294,1505403909697128104,0.179070606828,0.047518864274,0.32757088542,-0.00299653969705,-0.998294711113,0.00187653035391,0.0582676008344
1505403909707610479,295,1505403909707393048,0.179261237383,0.0473256222904,0.32991874218,-0.00310052838176,-0.998289942741,0.00190855015535,0.0583425834775
1505403909717778687,296,1505403909717616714,0.179402813315,0.0474283024669,0.332230955362,-0.00287152756937,-0.998310089111,0.00175169832073,0.0580136850476
1505403909727117288,297,1505403909726845537,0.17946305871,0.0475019961596,0.334406495094,-0.00277568539605,-0.998317539692,0.00193967705127,0.0578855872154
1505403909737326227,298,1505403909737185505,0.17952555418,0.0474547930062,0.336621880531,-0.00261026085354,-0.998319327831,0.00256153522059,0.0578370839357
1505403909747613633,299,1505403909747454735,0.179520219564,0.0472228489816,0.338722646236,-0.00250442582183,-0.998324334621,0.00424323696643,0.0576563440263
1505403909757392564,300,1505403909756581182,0.179624825716,0.0471429675817,0.34079632163,-0.00272463681176,-0.998342096806,0.00514862965792,0.0572648979723
1505403909766932849,301,1505403909766786010,0.179774954915,0.0469858311117,0.342833518982,-0.0030374978669,-0.9983741045,0.00648508919403,0.05654938519
1505403909777169307,302,1505403909777025519,0.180153667927,0.0471827089787,0.345574349165,-0.00272616301663,-0.998309314251,0.0044286265038,0.0578913353384
1505403909787379723,303,1505403909787248974,0.180277839303,0.0470656827092,0.347742676735,-0.00220078718849,-0.998328983784,0.00497580040246,0.0575293526053
1505403909797642164,304,1505403909797436783,0.180526554585,0.0470532439649,0.34981456399,-0.00203950819559,-0.998370349407,0.00491035031155,0.0568196848035
1505403909806776297,305,1505403909806618543,0.180672258139,0.0470489114523,0.352168977261,-0.00221405061893,-0.998379528522,0.00549123808742,0.0565976016223
1505403909816967415,306,1505403909816829289,0.180815503001,0.0471284948289,0.354306399822,-0.00274484162219,-0.998382508755,0.00552668143064,0.0565184690058
1505403909827222846,307,1505403909827081561,0.180868059397,0.0470717698336,0.356789976358,-0.00257281283848,-0.998351514339,0.00510917324573,0.0571106411517
1505403909837501817,308,1505403909837356643,0.180891111493,0.0469852983952,0.359148979187,-0.00270088016987,-0.998332977295,0.00576636660844,0.0573652051389
1505403909847755639,309,1505403909847613621,0.180996626616,0.0470756143332,0.361563324928,-0.00274975295179,-0.998347342014,0.0057242247276,0.0571161434054
1505403909857054700,310,1505403909856909123,0.181169018149,0.0471544004977,0.363904237747,-0.00219150818884,-0.998364806175,0.00568357622251,0.0568389855325
1505403909867387918,311,1505403909867207035,0.181253984571,0.0471175648272,0.366304129362,-0.00209213537164,-0.998380243778,0.00486845429987,0.056646194309
1505403909877617925,312,1505403909877448920,0.181288719177,0.0471098087728,0.368687331676,-0.00230091065168,-0.998368740082,0.00492998864502,0.0568360090256
1505403909886730582,313,1505403909886616098,0.181455761194,0.0471925027668,0.371191471815,-0.00262735574506,-0.99837064743,0.00486253760755,0.0567940883338
1505403909896956038,314,1505403909896829454,0.181592166424,0.0470736995339,0.37351551652,-0.00235673529096,-0.998402714729,0.0054434412159,0.0561855323613
1505403909907234044,315,1505403909907067613,0.181137502193,0.0473531708121,0.376663655043,-0.00194051640574,-0.998284220695,0.00162877689581,0.0585000365973
1505403909917465350,316,1505403909917299548,0.181257173419,0.0474113374949,0.379066377878,-0.00150754093193,-0.998280704021,0.000648252433166,0.0585907995701
1505403909927687174,317,1505403909927543278,0.181295007467,0.0474321506917,0.381446421146,-0.00142484414391,-0.998263716698,0.0012580153998,0.0588731616735
1505403909936938035,318,1505403909936754721,0.181419834495,0.0474358052015,0.383885413408,-0.00138453277759,-0.998264253139,0.00169652095065,0.0588534995914
1505403909947074648,319,1505403909946969174,0.181559309363,0.0474630109966,0.386118710041,-0.00206009182148,-0.998277664185,0.00111658370588,0.0586188584566
1505403909957290594,320,1505403909957155465,0.181775763631,0.0474686473608,0.388468891382,-0.00222821207717,-0.99829351902,0.000729141000193,0.0583485886455
1505403909967512187,321,1505403909967365844,0.181882917881,0.0474029704928,0.390815973282,-0.00184702733532,-0.99829107523,0.00105000520125,0.0583990029991
1505403909976767649,322,1505403909976633060,0.182238742709,0.0477932989597,0.392775177956,-0.00210521742702,-0.998336315155,0.000545112590771,0.0576174370944
1505403909987015450,323,1505403909986892211,0.182244539261,0.0477953143418,0.395154953003,-0.00213730335236,-0.998327851295,0.000369986519217,0.0577649921179
1505403909997320128,324,1505403909997163965,0.182398766279,0.0478344447911,0.397505819798,-0.00195757602341,-0.998345792294,-0.000211716731428,0.0574618205428
1505403910007505178,325,1505403910007361927,0.182522147894,0.0481440909207,0.399863034487,-0.00224782968871,-0.9983330369,-0.00156874558888,0.0576508827507
1505403910016848036,326,1505403910016696986,0.18264849484,0.0482633858919,0.402212888002,-0.00256315199658,-0.998328983784,-0.00225661089644,0.0576854385436
1505403910027083545,327,1505403910026930928,0.18270406127,0.0482144244015,0.404512882233,-0.00247715390287,-0.998314201832,-0.00174354191404,0.0579618476331
1505403910037314408,328,1505403910037172436,0.182828322053,0.0480434671044,0.40671569109,-0.0021322676912,-0.998328089714,-0.00111997919157,0.057752110064
1505403910047573626,329,1505403910047436282,0.182863086462,0.0481097027659,0.408990859985,-0.00213098735549,-0.998322248459,-0.00153624359518,0.0578421577811
1505403910056761715,330,1505403910056608179,0.182950764894,0.048165269196,0.411306381226,-0.00219782465138,-0.998323440552,-0.0019052263815,0.0578083246946
1505403910067051655,331,1505403910066910521,0.183076158166,0.0481429547071,0.413545519114,-0.00198826636188,-0.998324155807,-0.0018519514706,0.0578059926629
1505403910077337787,332,1505403910077127620,0.183113828301,0.0481265932322,0.415870130062,-0.00173134240322,-0.998314499855,-0.00119096599519,0.0579978004098
1505403910087530053,333,1505403910087381253,0.183129757643,0.0481540188193,0.418020009995,-0.00157407368533,-0.998303830624,-0.000493917323183,0.0581959933043
1505403910097682469,334,1505403910097554500,0.183101534843,0.0483435802162,0.420201957226,-0.00117399229202,-0.998283565044,-0.00154652493075,0.0585333742201
1505403910106970652,335,1505403910106781260,0.183128356934,0.0493213683367,0.422222048044,-0.00263514346443,-0.998236358166,-0.00418144324794,0.0591594800353
1505403910117180414,336,1505403910117018826,0.183563426137,0.0487362965941,0.424735546112,-0.00364756165072,-0.998335540295,-0.00219703745097,0.0575155690312
1505403910127363594,337,1505403910127225641,0.183946222067,0.0478042215109,0.427664548159,-0.00545356841758,-0.998438060284,2.77565413853e-05,0.0556025356054
1505403910137692016,338,1505403910137465760,0.184145867825,0.0485096201301,0.429667681456,-0.00556429475546,-0.998428702354,-0.00231554638594,0.0557118058205
1505403910146778043,339,1505403910146605687,0.184281095862,0.0485461950302,0.431901156902,-0.00545153208077,-0.998437464237,-0.00262257806025,0.0555519647896
1505403910156882235,340,1505403910156782289,0.184439405799,0.0481719188392,0.434064477682,-0.00526874000207,-0.998475372791,-4.03513513447e-05,0.0549468956888
1505403910167179095,341,1505403910167020662,0.184285596013,0.0482349991798,0.436297297478,-0.00524076493457,-0.998440802097,6.74389229971e-05,0.0555746778846
1505403910187581989,342,1505403910187454763,0.184305772185,0.048117030412,0.438490509987,-0.00456024101004,-0.998442053795,-0.000166365702171,0.0556115657091
1505403910187587761,343,1505403910187484680,0.184429556131,0.0481085069478,0.440645366907,-0.00403769500554,-0.998420059681,-0.00127834663726,0.056031383574
1505403910196998922,344,1505403910196816939,0.184498131275,0.0479506738484,0.443021655083,-0.0043499567546,-0.99842441082,-0.000380070327083,0.0559438467026
1505403910207274798,345,1505403910207081248,0.184835731983,0.0482279397547,0.444998174906,-0.0057502030395,-0.998440921307,5.91737043578e-05,0.0555214993656
1505403910217401645,346,1505403910217324686,0.184890940785,0.0481788814068,0.447185993195,-0.00556064676493,-0.998440265656,0.000219783221837,0.0555535405874
1505403910227768958,347,1505403910227595441,0.18487995863,0.0480618625879,0.449385017157,-0.00420977547765,-0.998447060585,0.000203266637982,0.0555493980646
1505403910247141915,348,1505403910246996131,0.184893608093,0.0480057299137,0.451609671116,-0.00397411035374,-0.998425364494,2.88542614726e-05,0.0559547282755
1505403910257438243,349,1505403910257243062,0.184913337231,0.0478993058205,0.454007446766,-0.00401361472905,-0.998412430286,0.000432562781498,0.0561808981001
1505403910257443328,350,1505403910257255286,0.185088485479,0.04773568362,0.456278562546,-0.00408936478198,-0.998398780823,0.000615904224105,0.0564163289964
1505403910267677751,351,1505403910267480259,0.185107886791,0.0478278808296,0.458665132523,-0.00388717884198,-0.998383998871,-0.000316314690281,0.0566936731339
1505403910287137962,352,1505403910286905001,0.185266450047,0.0483173541725,0.460771709681,-0.00420054607093,-0.998384594917,-0.00158105615992,0.0566402152181
1505403910287163866,353,1505403910286917796,0.185318112373,0.0480889342725,0.463137507439,-0.00398152600974,-0.998382270336,-0.00143781257793,0.0567008629441
1505403910297308288,354,1505403910297192007,0.185385808349,0.0479601621628,0.465311229229,-0.00317884190008,-0.998394668102,-0.00116655684542,0.0565385371447
1505403910316851793,355,1505403910316666390,0.185452997684,0.0478527545929,0.467649817467,-0.00298102200031,-0.998374342918,-0.00116546975914,0.0569064058363
1505403910316857746,356,1505403910316684622,0.185650914907,0.0478839762509,0.469944924116,-0.0032507525757,-0.998377144337,-0.00201171939261,0.0568189285696
1505403910327062179,357,1505403910326923520,0.185730531812,0.0478404760361,0.472110927105,-0.00329660461284,-0.998377919197,-0.00146911956836,0.0568191856146
1505403910347641291,358,1505403910347488706,0.185840025544,0.0479473844171,0.474278837442,-0.00333037576638,-0.998383522034,-0.00270401290618,0.0566747970879
1505403910356933643,359,1505403910356736724,0.186013698578,0.0480549000204,0.476229518652,-0.00339843379334,-0.998407125473,-0.00284288148396,0.0562448240817
1505403910356948564,360,1505403910356794470,0.186132892966,0.0481875538826,0.478233009577,-0.00330712087452,-0.998413980007,-0.0027488367632,0.0561342015862
1505403910367196140,361,1505403910367044189,0.186147674918,0.0479177795351,0.480250895023,-0.00330220954493,-0.998393058777,-0.00107968843076,0.0565610527992
1505403910387779378,362,1505403910387523050,0.186166390777,0.047702729702,0.482262700796,-0.00316467136145,-0.998366653919,0.000457692774944,0.057042427361
1505403910387787138,363,1505403910387536186,0.186215862632,0.0476154983044,0.484376460314,-0.00340988300741,-0.998347342014,0.000447846745374,0.0573655664921
1505403910396872569,364,1505403910396739303,0.186354339123,0.0475401058793,0.486349642277,-0.00351963867433,-0.998366594315,0.000773020205088,0.0570187158883
1505403910407262753,365,1505403910407059798,0.186411976814,0.0474333651364,0.488287448883,-0.0035656245891,-0.998372733593,0.00195133395027,0.0568793751299
1505403910417484515,366,1505403910417273146,0.186484768987,0.0473005957901,0.490375041962,-0.00337648903951,-0.99836820364,0.00225308118388,0.0569600500166
1505403910436795506,367,1505403910436620832,0.186582565308,0.0472881048918,0.49242991209,-0.00335135729983,-0.998364090919,0.00224859407172,0.0570333302021
1505403910436799735,368,1505403910436681606,0.186518415809,0.0474747233093,0.494597196579,-0.00320028280839,-0.998343467712,0.0014900037786,0.057427033782
1505403910447172225,369,1505403910447021130,0.186581045389,0.0474798455834,0.496820449829,-0.0030280794017,-0.998332023621,0.00192760059144,0.0576214045286
1505403910467635765,370,1505403910467420046,0.186746507883,0.0474737435579,0.498990505934,-0.00291042891331,-0.998358011246,0.00157701165881,0.0571879222989
1505403910467641850,371,1505403910467466321,0.186862781644,0.0475316345692,0.501126646996,-0.00272987107746,-0.998370051384,0.0006004255265,0.0570029430091
1505403910476879582,372,1505403910476730209,0.187020510435,0.0475492216647,0.503282129765,-0.00265060644597,-0.998386859894,0.000134460467962,0.0567156337202
1505403910487020520,373,1505403910486905362,0.187106356025,0.0476167164743,0.505308508873,-0.00287179253064,-0.998396515846,-0.000635809206869,0.0565310902894
1505403910497300004,374,1505403910497107881,0.187308371067,0.0474401935935,0.507341444492,-0.00296099903062,-0.998420059681,0.000513602804858,0.0561096072197
1505403910507683599,375,1505403910507375131,0.187412217259,0.0475477539003,0.50919342041,-0.00252560270019,-0.998428165913,0.000477235356811,0.0559878870845
1505403910527162869,376,1505403910526927410,0.187463238835,0.0475090369582,0.511001110077,-0.00253148423508,-0.998424887657,0.000337133096764,0.0560461878777
1505403910527167313,377,1505403910526940965,0.187598139048,0.0473322384059,0.512846469879,-0.00291807064787,-0.998428940773,0.000974642927758,0.0559469386935
1505403910537302780,378,1505403910537151304,0.187777623534,0.0471638739109,0.514783024788,-0.00351379485801,-0.998444974422,0.00227067735977,0.0555886253715
1505403910557835746,379,1505403910557633808,0.187974497676,0.0463247820735,0.51732301712,-0.00220838258974,-0.998381018639,0.00453672325239,0.0566553920507
1505403910557861240,380,1505403910557665814,0.188048526645,0.0463112965226,0.51922160387,-0.00151522667147,-0.998397350311,0.00495577510446,0.0563539974391
