%time,field.transforms0.header.seq,field.transforms0.header.stamp,field.transforms0.header.frame_id,field.transforms0.child_frame_id,field.transforms0.transform.translation.x,field.transforms0.transform.translation.y,field.transforms0.transform.translation.z,field.transforms0.transform.rotation.x,field.transforms0.transform.rotation.y,field.transforms0.transform.rotation.z,field.transforms0.transform.rotation.w
1505403906767592207,0,1505403906767324492,-0.0725420776457,0.607945816467,0.907,0.00904138179236,-0.0107538441825,0.998834393153,-0.046178602239
1505403906767713090,0,1505403906767427140,0.0269480273128,0.982871115208,0.0532565414906,0.012141126208,0.00455825682729,-0.0073847444728,0.999888598919
1505403906767718018,0,1505403906767456741,0.143430277705,0.0453532077372,-0.224138081074,-0.00418471358716,-0.997897028923,0.0033640768379,0.0645972266793
1505403906767723325,0,1505403906767464032,0.0274027511477,0.982161462307,0.0547774843872,0.0109349610284,0.00423856638372,-0.00784828141332,0.999900400639
1505403906767733956,0,1505403906767469057,0.143407255411,0.0452652648091,-0.223674446344,-0.00424611661583,-0.997882127762,0.00406216643751,0.0647827610373
1505403906775653293,0,1505403906775402252,-0.0728600805605,0.608536950156,0.907,0.00883992617876,-0.0119295127625,0.998799685826,-0.046676868186
1505403906776827250,0,1505403906776688335,0.0279483217746,0.981432378292,0.0554255880415,0.0107741588727,0.00440026307479,-0.0074675232172,0.999904334545
1505403906776838437,0,1505403906776698378,0.143432885408,0.0452514141798,-0.223277926445,-0.00431813718751,-0.997879743576,0.00433474220335,0.0647968873382
1505403906777972810,0,1505403906777686349,-0.0729392690421,0.608740181924,0.907,0.00882619569199,-0.0130907965166,0.998779171787,-0.0468070007673
1505403906783166571,0,1505403906782993494,-0.0731017657953,0.609292310486,0.907,0.00861707599941,-0.0147598360802,0.998755346306,-0.0468577791318
1505403906786302277,0,1505403906786141319,-0.0732091246221,0.609638430691,0.907,0.00844068964214,-0.0162313191535,0.998761244036,-0.0462739283808
1505403906791471174,0,1505403906791303380,-0.0734022630021,0.610235427627,0.907,0.00841207211564,-0.0171681829813,0.998751773982,-0.0461452544101
1505403906797259919,0,1505403906797110545,0.0284092817456,0.980678677559,0.0566100627184,0.00987405143678,0.0044235647656,-0.00774471228942,0.999911427498
1505403906797266978,0,1505403906797130519,0.143460601568,0.0451764687896,-0.22283180058,-0.00433297408745,-0.997881829739,0.00446475390345,0.064753703773
1505403906797275973,0,1505403906797139426,0.0288861431181,0.979860246181,0.0577724277973,0.00921800080687,0.00442805094644,-0.00798789318651,0.999915838242
1505403906797288968,0,1505403906797178237,0.143465444446,0.0451206490397,-0.222308143973,-0.00423621293157,-0.997870385647,0.00458187051117,0.0649277865887
1505403906799572244,0,1505403906799352391,-0.0737268328462,0.611193064005,0.907,0.00824954238576,-0.0180003306861,0.99876066387,-0.0456625607102
1505403906801485267,0,1505403906801265118,-0.0738101069497,0.611393726687,0.907,0.00834363454849,-0.0180590440631,0.998770451041,-0.0454074973727
1505403906807638895,0,1505403906807493498,0.0294426977634,0.979041695595,0.0582549870014,0.00903147645295,0.00350898271427,-0.00797624047846,0.999921262264
1505403906807647014,0,1505403906807520899,0.143473267555,0.0451268143952,-0.221781209111,-0.004099952057,-0.997866392136,0.00434615137056,0.0650149434805
1505403906808162792,0,1505403906807996060,-0.0741162793561,0.612014612637,0.908,0.00832055714892,-0.0184253625128,0.998754522557,-0.0456144496461
1505403906812609622,0,1505403906812402433,0.21,0.0,0.0,-0.499999999999,0.500000836553,-0.499999999999,0.499999163447
1505403906812652472,0,1505403906812402611,0.0,-0.02,0.0,0.707106189653,0.707107372717,-1.18306495402e-06,-1.18306297463e-06
1505403906819172532,0,1505403906818936726,-0.0746302627498,0.612909028052,0.908,0.00843244616835,-0.0186805901313,0.998739053064,-0.0458283022787
1505403906820651597,0,1505403906774132966,base_footprint,-0.756999999991,0.0,0.0,0.0,0.0,0.0,1.0
1505403906821488889,0,1505403906820994378,-0.0747289037646,0.613059935523,0.907,0.00864359844143,-0.0188817403598,0.998689267659,-0.0467815642123
1505403906822005106,0,1505403906821842544,-0.0747618515917,0.613140484839,0.907,0.00876571945688,-0.0197270327132,0.998642692487,-0.0474002013129
1505403906826217827,0,1505403906825985174,-0.0748906641355,0.613615978225,0.907,0.00899512854253,-0.0204540976938,0.998600314243,-0.0479388145784
1505403906827042999,0,1505403906826904920,0.029801633209,0.978340029716,0.0597442351282,0.00819464214146,0.00300351902843,-0.00873382762074,0.999923825264
1505403906827049085,0,1505403906826915034,0.14354595542,0.0452989041805,-0.221146762371,-0.00403615785763,-0.997854173183,0.00394271314144,0.0652319565415
1505403906827051949,0,1505403906826933464,0.030305845663,0.977543830872,0.0605435296893,0.00855410378426,0.0038837029133,-0.0083819841966,0.999920725822
1505403906827054609,0,1505403906826938776,0.143587723374,0.0453753657639,-0.220604673028,-0.00413615163416,-0.997845172882,0.00377298821695,0.0653735771775
1505403906831398854,0,1505403906831228810,-0.0750157812353,0.614269660256,0.907,0.00905711384642,-0.0219062784101,0.99854855886,-0.0483617540384
1505403906837292184,0,1505403906837149917,0.0308102015406,0.976803779602,0.0614813454449,0.00838643498719,0.00424433127046,-0.00834823865443,0.999920964241
1505403906837366354,0,1505403906837172212,0.143608242273,0.0453930869699,-0.220030516386,-0.00407813629135,-0.997813284397,0.00338591984473,0.0658829882741
1505403906843197507,0,1505403906842975478,-0.0752291455968,0.615823930755,0.907,0.00901853051151,-0.0230102890308,0.998534145903,-0.0481534232707
1505403906846400855,0,1505403906846215548,-0.0752720226262,0.616266913452,0.907,0.00885940022532,-0.0236993577689,0.998519944022,-0.0481432535122
1505403906847219368,0,1505403906847052836,-0.0752803110277,0.616382969803,0.904,0.00853790554622,-0.0241640185117,0.998534810728,-0.0476595860504
1505403906851795693,0,1505403906851405370,-0.0753140377317,0.616867513828,0.903,0.00817582808296,-0.0237566004879,0.998568173911,-0.0472269183847
1505403906856264783,0,1505403906856125502,-0.0753396903169,0.61726658891,0.903,0.00776570057553,-0.0236636964324,0.998580966829,-0.0470720304682
1505403906857730766,0,1505403906857584081,0.0311926752329,0.976092398167,0.062669634819,0.00795435719192,0.00377662153915,-0.009008012712,0.999920725822
1505403906857736739,0,1505403906857595127,0.143577963114,0.0453713834286,-0.219391271472,-0.00415278179571,-0.99777919054,0.00368185318075,0.0663762241602
1505403906857739881,0,1505403906857604146,0.0315942056477,0.975471735001,0.0632496699691,0.00857681501657,0.00323753501289,-0.00950563233346,0.999912798405
1505403906857757760,0,1505403906857609835,0.143538787961,0.0454679206014,-0.218773603439,-0.00406956207007,-0.997753441334,0.00354542210698,0.0667745023966
1505403906865775973,0,1505403906865535566,-0.0754126124798,0.617982054034,0.903,0.00740834305136,-0.0232543489249,0.998605061267,-0.0468218252611
1505403906866645859,0,1505403906866468884,-0.0754212593863,0.618044714185,0.903,0.00712641849009,-0.0228905677362,0.998603206488,-0.0470836708372
1505403906866913097,0,1505403906866795769,0.0319733656943,0.974824905396,0.0643106102943,0.00809128861874,0.00244975835085,-0.0103065641597,0.999911189079
1505403906866919265,0,1505403906866805098,0.14358663559,0.0454383417964,-0.218131497502,-0.00397333689034,-0.99777173996,0.0034879737068,0.0665098875761
1505403906874970458,0,1505403906874743611,-0.0755112845708,0.618527762161,0.903,0.00699053884777,-0.0225469813392,0.998606384889,-0.0472022675173
1505403906876556914,0,1505403906876379040,-0.0755318062561,0.6186101612,0.903,0.00686226785396,-0.0219314835513,0.998608686879,-0.0474616666162
1505403906883328144,0,1505403906882957892,-0.0756229737245,0.618889283963,0.902,0.00687478692219,-0.0214833939528,0.998601594697,-0.0478127196216
1505403906887286685,0,1505403906887179817,0.0323817692697,0.974137187004,0.065387122333,0.0080033345148,0.00234629679471,-0.0106920078397,0.999908089638
1505403906887335453,0,1505403906887191129,0.143739953637,0.0453164465725,-0.217450067401,-0.00390671472996,-0.997806608677,0.00368316425011,0.0659777745605
1505403906887339397,0,1505403906887209676,0.0328579172492,0.97346585989,0.0661881789565,0.00880056619644,0.00314022577368,-0.0107138976455,0.999898910522
1505403906887347891,0,1505403906887215959,0.143846809864,0.0452647432685,-0.216773599386,-0.00378869613633,-0.997827529907,0.00361906341277,0.0656719952822
1505403906891894814,0,1505403906891709481,-0.0757576067321,0.619208074821,0.901,0.00673948920203,-0.0209207581632,0.998602445436,-0.0480630537184
1505403906894244290,0,1505403906893310211,-0.0757834359869,0.619256900183,0.901,0.00664102781495,-0.0206696059007,0.998585816798,-0.0485286578353
1505403906897302562,0,1505403906897087618,-0.0758362923018,0.61935771054,0.901,0.0065353901912,-0.0205069171636,0.998573132192,-0.0488718189613
1505403906897502539,0,1505403906897393841,0.0331976152956,0.972830355167,0.0670545697212,0.0090923961252,0.0031331544742,-0.0113992560655,0.999888837337
1505403906897509114,0,1505403906897402831,0.143850296736,0.0452276580036,-0.21599560976,-0.00383051810786,-0.997798919678,0.00390084064566,0.0660864114761
1505403906907412148,0,1505403906907039233,-0.075956668919,0.619587901614,0.901,0.00639569619991,-0.0202418643413,0.998568966593,-0.0490854454497
1505403906907430371,0,1505403906907075125,-0.0759570349285,0.619588616074,0.901,0.00637725675872,-0.019997574235,0.99856834586,-0.0492004701927
1505403906911770360,0,1505403906911541127,-0.0759974386835,0.619663971255,0.9,0.00621405931011,-0.0195960462085,0.998586068711,-0.0490228907353
1505403906912491081,0,1505403906912398882,0.21,0.0,0.0,-0.499999999999,0.500000836553,-0.499999999999,0.499999163447
1505403906912525439,0,1505403906912398980,0.0,-0.02,0.0,0.707106189653,0.707107372717,-1.18306495402e-06,-1.18306297463e-06
1505403906916913511,0,1505403906916779376,0.0336206480861,0.97209829092,0.0681958720088,0.00959456618875,0.00327627663501,-0.0114173348993,0.999883413315
1505403906916920965,0,1505403906916790894,0.143844649196,0.0453039966524,-0.215233653784,-0.00404089968652,-0.997761368752,0.00357745634392,0.0666565150023
1505403906916928491,0,1505403906916799636,0.0340383797884,0.971425235271,0.0686752647161,0.0106560969725,0.00310690398328,-0.011398371309,0.999873399734
1505403906916933446,0,1505403906916805379,0.143906876445,0.0453765168786,-0.214496716857,-0.00420032022521,-0.997754871845,0.00342705380172,0.0667514428496
1505403906919457925,0,1505403906919200368,-0.0760972409021,0.619706060909,0.9,0.00612894663096,-0.0192084597812,0.998606321946,-0.048773813223
1505403906920935854,0,1505403906840842008,base_footprint,-0.753999999991,0.0,0.0,0.0,0.0,0.0,1.0
1505403906923842433,0,1505403906923591027,-0.0761729347448,0.619686289465,0.9,0.00607831142367,-0.0187662032673,0.998622107982,-0.0486288925884
1505403906927140487,0,1505403906927036615,0.0344256199896,0.970789432526,0.0696764439344,0.0109587600455,0.00254710065201,-0.0118271149695,0.999866783619
1505403906927147102,0,1505403906927046535,0.144036263227,0.0454478822649,-0.213749051094,-0.00415460811928,-0.997786581516,0.00360909360461,0.0662693306804
1505403906931599065,0,1505403906931368545,-0.07633027789,0.619571356128,0.906,0.00597068989824,-0.0182837890566,0.998645875898,-0.0483370300317
1505403906934277371,0,1505403906934102999,-0.0763941818964,0.619511992234,0.906,0.00609139631989,-0.0176481093601,0.998648503681,-0.0485036619597
1505403906937397363,0,1505403906937274943,0.034861035645,0.970090091228,0.0706324726343,0.0113776167855,0.00231940555386,-0.0118000460789,0.999862968922
1505403906937404982,0,1505403906937286680,0.144140377641,0.0455094799399,-0.213023856282,-0.00389561685733,-0.997811734676,0.0035777608864,0.065907433629
1505403906940676711,0,1505403906940414222,-0.0765347314932,0.619362346468,0.906,0.00605011146488,-0.0171077911483,0.998651199643,-0.0486466965558
1505403906942153868,0,1505403906941913913,-0.0765659630695,0.61932565108,0.906,0.00609886569883,-0.0167101377367,0.998637534659,-0.0490576141372
1505403906947122365,0,1505403906946886276,-0.0766635417402,0.619204182399,0.906,0.00611823299825,-0.0166791899474,0.998602572512,-0.0497722213673
1505403906947706497,0,1505403906947515357,0.0353040471673,0.969305038452,0.0713012441993,0.0116769177839,0.00206622900441,-0.0118703451008,0.999859213829
1505403906947714352,0,1505403906947526668,0.144219562411,0.0454615987837,-0.212200939655,-0.00361593719572,-0.997799932957,0.00405546603724,0.066073089838
1505403906951707621,0,1505403906951571365,-0.076742331308,0.619118336843,0.906,0.00599807314805,-0.0168921726027,0.998573466002,-0.050296228676
1505403906956834898,0,1505403906956690343,0.0356363318861,0.96863502264,0.0725381970406,0.0113914040849,0.00257718632929,-0.0121147623286,0.999858379364
1505403906956842711,0,1505403906956699586,0.144265800714,0.045404471457,-0.211344107985,-0.00356623344123,-0.997763454914,0.00409118784592,0.0666217878461
1505403906957484493,0,1505403906957269563,-0.0768253772846,0.619048024433,0.906,0.00604704711285,-0.0172349565475,0.998526288145,-0.0511042207451
1505403906962647186,0,1505403906962375399,-0.0769108021553,0.61897168676,0.906,0.00586701956866,-0.0176702666119,0.998498646275,-0.0515149798167
1505403906967102489,0,1505403906966966330,0.0361216291785,0.967929363251,0.0732604563236,0.0118376323953,0.00282763387077,-0.0117085399106,0.99985742569
1505403906967114074,0,1505403906966978179,0.144330695271,0.0454280041158,-0.210517138243,-0.0037923597265,-0.997750341892,0.00389921478927,0.0668184682727
1505403906967919617,0,1505403906967695266,-0.0770136073143,0.618888428964,0.897,0.00593719430766,-0.0178235897654,0.99849246313,-0.0515739318341
1505403906977303581,0,1505403906977172211,0.0365448631346,0.967257916927,0.0741737857461,0.0115789808333,0.00249281246215,-0.0119501892477,0.999858438969
1505403906977316919,0,1505403906977181295,0.144464686513,0.0455411411822,-0.209667339921,-0.00404371507466,-0.997762918472,0.00328473211266,0.0666485726833
1505403906980838010,0,1505403906980607199,-0.0772939362203,0.618651724595,0.897,0.00585003414244,-0.0180029295253,0.998490621948,-0.0515572449893
1505403906983124652,0,1505403906982898388,-0.0773496188352,0.618602328414,0.897,0.00579300630315,-0.017938666676,0.998520243252,-0.0510095004132
1505403906987527356,0,1505403906987362739,0.0368616804481,0.966582238674,0.0751959532499,0.0117039568722,0.00189154257532,-0.0122950486839,0.99985408783
1505403906987543198,0,1505403906987372784,0.144563451409,0.0455594807863,-0.208737939596,-0.00420696800575,-0.997758626938,0.00323164975271,0.0667054504156
1505403906990176764,0,1505403906989903665,-0.0775379503744,0.61839383675,0.896,0.00575376362381,-0.0178887233901,0.998526209922,-0.0509145939566
1505403906997786998,0,1505403906997620054,0.0372969247401,0.965879380703,0.0758476629853,0.0117210671306,0.000934257230256,-0.0125105241314,0.999852597713
1505403906997796710,0,1505403906997631614,0.144677728415,0.0454602055252,-0.207815423608,-0.00424616225064,-0.99775737524,0.00361500889994,0.0667015016079
1505403907006974455,0,1505403907006842100,0.0376199781895,0.965158164501,0.0770137608051,0.011089399457,0.000699151365552,-0.0128844445571,0.999855279922
1505403907007012994,0,1505403907006855006,0.144711136818,0.0453456752002,-0.206877738237,-0.0039560184814,-0.997734189034,0.00413745921105,0.0670352131128
1505403907008761395,0,1505403907008534612,-0.0780847577459,0.617689766002,0.896,0.00559976557568,-0.0178184648785,0.998533506793,-0.0508131946049
1505403907012565428,0,1505403907012402302,0.21,0.0,0.0,-0.499999999999,0.500000836553,-0.499999999999,0.499999163447
1505403907012584142,0,1505403907012402442,0.0,-0.02,0.0,0.707106189653,0.707107372717,-1.18306495402e-06,-1.18306297463e-06
1505403907014180647,0,1505403907013995504,-0.0782388837467,0.617491152666,0.896,0.00566454703091,-0.0175708679555,0.998541076566,-0.050743432255
1505403907015716278,0,1505403907015533256,-0.0782806164284,0.617437031099,0.896,0.00560583587872,-0.0174846875999,0.998523281469,-0.0511284330768
1505403907016484055,0,1505403907016331437,-0.0783008471381,0.617409929193,0.895,0.00562180311299,-0.0174311173167,0.99852055742,-0.0511981238686
1505403907017199857,0,1505403907017059964,0.0380476228893,0.964598476887,0.0778614133596,0.0109177110717,0.00109488540329,-0.0128278806806,0.999857485294
1505403907017207237,0,1505403907017072014,0.144723832607,0.0454246029258,-0.205982655287,-0.00388030172326,-0.997724890709,0.00389890279621,0.0671918913722
1505403907018149696,0,1505403907017972293,-0.0783395519318,0.61735205032,0.907,0.00553418564372,-0.01759054439,0.998492157212,-0.0517045212963
1505403907021216309,0,1505403906974175930,base_footprint,-0.743999999991,0.0,0.0,0.0,0.0,0.0,1.0
1505403907021663328,0,1505403907021437483,-0.0784225552398,0.617237109759,0.907,0.00540358014914,-0.0177964814082,0.998468303942,-0.0521069342314
1505403907024454514,0,1505403907024172276,-0.0784892217189,0.617149526262,0.907,0.00536235377525,-0.0177892066364,0.998460414426,-0.0522646162606
1505403907024459623,0,1505403907024193615,-0.0784897578094,0.617148840258,0.907,0.00532437218702,-0.0176238134703,0.998447002022,-0.0525798099385
1505403907027497068,0,1505403907027341185,0.0384923815727,0.963958799839,0.0787890180945,0.010648063384,0.00111640582327,-0.012718484737,0.999861836433
1505403907027508617,0,1505403907027354509,0.144805774093,0.0455404631793,-0.205043882132,-0.00372135429643,-0.997735023499,0.00413450505584,0.0670358911157
1505403907027658608,0,1505403907027422686,-0.0785774659518,0.617018475944,0.907,0.00539823403632,-0.0172536482163,0.998461304591,-0.0524232193485
1505403907037782046,0,1505403907037590137,0.0388453640044,0.963292717934,0.0798574388027,0.0100259901956,0.0011148522608,-0.0129970638081,0.999864697456
1505403907037820562,0,1505403907037600316,0.144863978028,0.0454493127763,-0.204052090645,-0.00372957973741,-0.997732043266,0.00450892234221,0.0670563355088
1505403907038141090,0,1505403907037869361,-0.0788884659613,0.616516490625,0.907,0.00545490011652,-0.0169529182124,0.998458339731,-0.0525717267244
1505403907047024620,0,1505403907046819018,0.0393524728715,0.962642371655,0.0807351619005,0.0102286133915,0.000770276761614,-0.0127520803362,0.999866127968
1505403907047034488,0,1505403907046830454,0.144899591804,0.0455053411424,-0.203049972653,-0.00402104668319,-0.997713029385,0.00444353744388,0.0673248097301
1505403907048167642,0,1505403907047118521,-0.0791835661895,0.616010213608,0.907,0.00540170000575,-0.016772241545,0.998461588119,-0.0525734781109
1505403907048174082,0,1505403907047721293,-0.0792041078257,0.615973546562,0.907,0.005446437439,-0.0166655875521,0.998469564038,-0.0524511601441
1505403907048178712,0,1505403907047760778,-0.0792053933512,0.615971379233,0.901,0.00521573883964,-0.0167562650506,0.998467713931,-0.0524809287955
1505403907052592583,0,1505403907052408200,-0.0793494903803,0.615736488632,0.901,0.00519216669269,-0.0168719577871,0.998476409268,-0.0522803842819
1505403907057403453,0,1505403907057120251,0.0397813245654,0.961950957775,0.0815242379904,0.00976662430912,0.00029540565447,-0.0126466657966,0.999872326851
1505403907057407292,0,1505403907057133146,0.144963636994,0.0456729196012,-0.20201434195,-0.00411343853921,-0.997701346874,0.00374189205468,0.0675361976027
1505403907057442320,0,1505403907057178445,-0.0795157030326,0.615486863376,0.901,0.00506383439398,-0.0170706620683,0.998470419587,-0.052342824603
1505403907063049534,0,1505403907062626398,-0.0797228128128,0.615194665271,0.901,0.00503226994081,-0.017255228749,0.99846009669,-0.0524820793905
1505403907067750789,0,1505403907067307679,-0.0799141725012,0.61493753172,0.9,0.00520817171725,-0.0173673062567,0.998445506338,-0.0527050518885
1505403907067754816,0,1505403907067340981,0.0401706807315,0.961188673973,0.0825128927827,0.00927504524589,0.000109595930553,-0.0127092581242,0.999876201153
1505403907067794914,0,1505403907067353662,0.145057216287,0.0455952174962,-0.200991213322,-0.00421341462061,-0.997696995735,0.003488792805,0.0676077455282
1505403907075291376,0,1505403907075104863,-0.0802526343522,0.61449765324,0.9,0.00527352299669,-0.0173273394017,0.998426984408,-0.0530613802205
1505403907076966531,0,1505403907076861517,0.0405892953277,0.960412502289,0.0835365280509,0.00889143161476,8.00510024419e-05,-0.0126964282244,0.999879896641
1505403907077080673,0,1505403907076872338,0.145205810666,0.0455850325525,-0.19995123148,-0.0041793291457,-0.997707009315,0.00307006156072,0.0674820244312
1505403907078689982,0,1505403907078509094,-0.0804074227361,0.614301500546,0.9,0.00565302718908,-0.0171397327029,0.998413139134,-0.0533430075158
1505403907082933337,0,1505403907082496873,-0.0805986313692,0.614048354234,0.9,0.00581611480636,-0.01697200093,0.998396494972,-0.0536895038165
1505403907087367390,0,1505403907087264863,0.0410203412175,0.959635555744,0.0842595100403,0.00829478725791,0.000377168238629,-0.0123256826773,0.999889552593
1505403907087373353,0,1505403907087276964,0.145412310958,0.0455787479877,-0.198882088065,-0.004267339129,-0.997735917568,0.00301662320271,0.067050755024
1505403907087999926,0,1505403907087793911,-0.0808633202262,0.613684773504,0.9,0.00608260949094,-0.016798851489,0.998382536859,-0.0539732391675
1505403907094334822,0,1505403907094084013,-0.0811510569364,0.613278848459,0.9,0.00636066750809,-0.0167039848403,0.998371305832,-0.0541779889933
1505403907097643782,0,1505403907097540629,0.0414869375527,0.958882749081,0.0855623632669,0.0074600270018,0.00042151575326,-0.0120155885816,0.999899923801
1505403907097654753,0,1505403907097561068,0.145570114255,0.0455562286079,-0.19791251421,-0.00403532106429,-0.997765660286,0.00351261743344,0.0665968433022
1505403907099658907,0,1505403907099022927,-0.0813572421619,0.612977530906,0.9,0.00643138367794,-0.0166642175708,0.998362099828,-0.0543512537532
1505403907106982707,0,1505403907106813002,0.0419570244849,0.958169281483,0.0862102434039,0.00724037736654,5.56212980882e-05,-0.011755601503,0.999904692173
1505403907106996504,0,1505403907106825627,0.145594924688,0.045594766736,-0.197015568614,-0.00397777976468,-0.997756421566,0.00368418591097,0.0667296648026
1505403907107992659,0,1505403907107610444,-0.0816856038164,0.612481548857,0.9,0.00670590748674,-0.0165705758081,0.998362086149,-0.0543469572474
1505403907108107738,0,1505403907107643726,-0.0816867783593,0.61247972036,0.899,0.00670456603348,-0.0165622145277,0.998365074951,-0.0542947415668
1505403907112597629,0,1505403907112405411,0.21,0.0,0.0,-0.499999999999,0.500000836553,-0.499999999999,0.499999163447
1505403907112607908,0,1505403907112405603,0.0,-0.02,0.0,0.707106189653,0.707107372717,-1.18306495402e-06,-1.18306297463e-06
1505403907112777903,0,1505403907112615758,-0.0818440492261,0.612210493943,0.899,0.00671125487085,-0.0165625590672,0.998371658338,-0.0541726178276
1505403907117153384,0,1505403907117041185,0.0423892699182,0.957363784313,0.0871288105845,0.00683625927195,-0.000221489259275,-0.0116965249181,0.999908208847
1505403907117161894,0,1505403907117057089,0.145617902279,0.0456302724779,-0.196109190583,-0.00423781340942,-0.99772053957,0.00392875308171,0.0672328025103
1505403907118853872,0,1505403907118571017,-0.0820165478306,0.61189430068,0.899,0.00663804405691,-0.016662665868,0.998370443346,-0.0541733309958
1505403907120451975,0,1505403907074177980,base_footprint,-0.733999999991,0.0,0.0,0.0,0.0,0.0,1.0
1505403907126113253,0,1505403907125919876,-0.0822147255163,0.611509697622,0.899,0.00638952547668,-0.0168943189465,0.998364690455,-0.054237448355
1505403907127435001,0,1505403907127339284,0.042790196836,0.956666767597,0.0883300602436,0.00607560155913,-0.000468588114018,-0.0119527159259,0.999910056591
1505403907127445504,0,1505403907127358697,0.145671740174,0.0455359183252,-0.195144325495,-0.00430535199121,-0.997699022293,0.00449259532616,0.0675121173263
1505403907129597945,0,1505403907129223457,-0.0823000393331,0.611345395227,0.893,0.00626766660572,-0.0171265258997,0.998344838226,-0.0545433997155
1505403907133098594,0,1505403907132795946,-0.0823876510928,0.611173471052,0.892,0.0059301379674,-0.017693549358,0.998314849595,-0.0549475463754
1505403907137714725,0,1505403907137573982,0.0431958958507,0.955915987492,0.0886915549636,0.00603918544948,-0.00078797590686,-0.0119283404201,0.99991029501
1505403907137818442,0,1505403907137584038,0.14574855566,0.0454588010907,-0.194128215313,-0.00442105671391,-0.997694551945,0.00506168138236,0.0675309672952
1505403907140465000,0,1505403907140196863,-0.0825603616143,0.610832100082,0.892,0.00583053104465,-0.0181074794479,0.998282009747,-0.0554179854446
1505403907144085041,0,1505403907143921039,-0.0826728292786,0.610665041851,0.892,0.00572772656879,-0.0187131830467,0.998235965551,-0.056053251546
1505403907147026076,0,1505403907146863150,0.0435780733824,0.955211758614,0.0899937227368,0.0047664954327,-0.000737917493097,-0.0123580247164,0.999912083149
1505403907147032977,0,1505403907146882815,0.145774409175,0.0454467721283,-0.193100214005,-0.0045221131295,-0.997687697411,0.00502455048263,0.0676280483603
1505403907147988223,0,1505403907147686206,-0.0828067519354,0.610501063346,0.892,0.00582080859943,-0.0191784272828,0.998210142473,-0.0563455195957
1505403907153013677,0,1505403907152731390,-0.0830391120006,0.61024886981,0.891,0.00611718943071,-0.0194230631097,0.998195672176,-0.0564864998215
1505403907157225386,0,1505403907157089664,0.0440581813455,0.954425513744,0.0908388346434,0.00418139249086,-0.000671725312714,-0.0120318597183,0.999918699265
1505403907157236377,0,1505403907157099929,0.145860552788,0.0454490110278,-0.191965505481,-0.00440517952666,-0.997685492039,0.00514318840578,0.0676606148481
1505403907158318694,0,1505403907158139001,-0.0833341077153,0.609946664125,0.891,0.00634081746638,-0.0197524091042,0.998201452955,-0.056244961443
1505403907165458798,0,1505403907165205604,-0.0837735244786,0.609516620771,0.891,0.00670738587742,-0.0196387768358,0.998233928208,-0.0556628600938
1505403907167502675,0,1505403907167362719,0.0444731079042,0.953738808632,0.0914642289281,0.00314181880094,-0.000883242464624,-0.012239526026,0.999919831753
1505403907167510097,0,1505403907167374019,0.145958080888,0.0454490222037,-0.190810963511,-0.0042913230136,-0.997680842876,0.00465623708442,0.0677703544497
1505403907168296918,0,1505403907168097103,-0.0839744369148,0.609334579345,0.883,0.00682548049238,-0.0196599297469,0.998247880382,-0.0553901551748
1505403907174739888,0,1505403907174499384,-0.0844600666967,0.608911946345,0.882,0.00695087146157,-0.0195505406698,0.998272393642,-0.0549698993857
1505403907177713138,0,1505403907177560082,0.0448756106198,0.953081667423,0.0927454829216,0.00226375134662,-0.00163058540784,-0.0125143704936,0.999917805195
1505403907177719394,0,1505403907177581790,0.146043583751,0.0455414913595,-0.18957875669,-0.00397418020293,-0.997697293758,0.00398737378418,0.0675895735621
1505403907178053046,0,1505403907177889953,-0.0846656945403,0.608707877864,0.882,0.00689499467471,-0.0194658941135,0.998270984051,-0.0550325396179
1505403907184529071,0,1505403907184309145,-0.0849646207696,0.608358868241,0.881,0.0066143176673,-0.0196811554529,0.998255893567,-0.0552636759662
1505403907186935284,0,1505403907186820382,0.0453322418034,0.952475488186,0.0931145846844,0.00198235898279,-0.00238828198053,-0.0124560501426,0.999917566776
1505403907186943440,0,1505403907186829797,0.146177172661,0.0457483381033,-0.188423812389,-0.0041583343409,-0.997717559338,0.00299812038429,0.0673300251365
1505403907188281730,0,1505403907188123094,-0.0851113102102,0.608213739074,0.881,0.00642580908776,-0.0199521562105,0.998234676128,-0.0555711419283
1505403907193592064,0,1505403907193268589,-0.0852703894744,0.608097651917,0.881,0.0059328770578,-0.0206217148964,0.998169398793,-0.0565455317252
1505403907197190184,0,1505403907197026340,0.0456880144775,0.951907157898,0.0940559878945,0.00143894250505,-0.00199021608569,-0.0129237389192,0.999913454056
1505403907197196328,0,1505403907197036205,0.146380320191,0.0457935705781,-0.187268182635,-0.00467910245061,-0.99772632122,0.00280490587465,0.0671748667955
1505403907198019789,0,1505403907197768183,-0.0853799335208,0.608059201464,0.88,0.00576508212189,-0.0216251259141,0.998119942155,-0.0570587314064
1505403907207479968,0,1505403907207319989,0.0460180267692,0.951472520828,0.095140054822,0.00109039491508,-0.00130493671168,-0.0134646557271,0.999907851219
1505403907207486229,0,1505403907207341373,0.146476790309,0.0457671955228,-0.185957089067,-0.00488108070567,-0.997714102268,0.00328638940118,0.0673200711608
1505403907207618596,0,1505403907207128817,-0.085554631666,0.60808879564,0.88,0.00553456066122,-0.0225180777903,0.998062331205,-0.0577398288872
1505403907208662564,0,1505403907208455599,-0.0855920418306,0.608099651527,0.874,0.0053029399843,-0.0235530449085,0.998025984874,-0.0579764298632
1505403907212620299,0,1505403907212404099,0.21,0.0,0.0,-0.499999999999,0.500000836553,-0.499999999999,0.499999163447
1505403907212629839,0,1505403907212404326,0.0,-0.02,0.0,0.707106189653,0.707107372717,-1.18306495402e-06,-1.18306297463e-06
1505403907213435336,0,1505403907213218504,-0.0857671509744,0.608146131953,0.874,0.00530107456481,-0.0240784719037,0.998028220715,-0.0577217156344
1505403907217791057,0,1505403907217578914,0.0464828424156,0.951011538506,0.0955468937755,0.00076539121801,-0.0010948049603,-0.0135898562148,0.999906778336
1505403907217801924,0,1505403907217601084,0.146557211876,0.0456770546734,-0.184634506702,-0.00466896127909,-0.997693300247,0.00384488934651,0.0676122903824
1505403907218455567,0,1505403907218165035,-0.0859864754815,0.608193386627,0.873,0.00495469776543,-0.0245527008591,0.998013506836,-0.0578070585998
1505403907220780784,0,1505403907140808105,base_footprint,-0.726999999991,0.0,0.0,0.0,0.0,0.0,1.0
1505403907223758350,0,1505403907223559696,-0.0862560249285,0.608118775473,0.873,0.00494105837265,-0.0249217344966,0.99802461165,-0.0574575289552
1505403907226963432,0,1505403907226833027,0.0468146391213,0.95067358017,0.0966690704226,-0.000188758043805,-0.00156350911129,-0.0144304549322,0.999894678593
1505403907226970704,0,1505403907226847645,0.146615788341,0.0456497557461,-0.183366432786,-0.0046307775192,-0.997671961784,0.0036827956792,0.0679394155741
1505403907233343499,0,1505403907233017247,-0.0867809095114,0.607777478374,0.872,0.00474466704867,-0.0248192451651,0.998023793666,-0.0575326036316
1505403907237253931,0,1505403907237114631,0.0472631119192,0.950425386429,0.0972528457642,-0.00109953992069,-0.00242409296334,-0.0148151153699,0.99988669157
1505403907237262997,0,1505403907237125675,0.146694719791,0.045676972717,-0.182074561715,-0.0044135726057,-0.997664988041,0.0031376357656,0.068082511425
1505403907241665132,0,1505403907240875040,-0.0871928043693,0.607373859485,0.872,0.00464821462416,-0.0248249053634,0.998025473253,-0.0575088942014
1505403907241668496,0,1505403907240925853,-0.0871953234174,0.607370529415,0.872,0.00478312677904,-0.0244590093231,0.998037008896,-0.0574543943925
1505403907243765707,0,1505403907243538230,-0.0873180950403,0.607165559721,0.871,0.00471056049837,-0.0241389201726,0.998028384222,-0.0577448477367
1505403907247502390,0,1505403907247331249,0.0477094240487,0.9501106143,0.0978224352002,-0.0016100400826,-0.00277202250436,-0.0146451164037,0.999887645245
1505403907247514188,0,1505403907247342916,0.146779581904,0.0458049289882,-0.180806145072,-0.00456996448338,-0.997666358948,0.00256054103374,0.0680768936872
1505403907248959716,0,1505403907248651942,-0.0875423659557,0.606763619704,0.867,0.00497282165892,-0.0239750200219,0.998029387783,-0.0577737880171
1505403907253952755,0,1505403907253745626,-0.0877523561493,0.606355686371,0.866,0.00504602994635,-0.0236894342335,0.998009041663,-0.0582348782581
1505403907257614895,0,1505403907257513450,0.0480854809284,0.950060784817,0.0986962839961,-0.00253417319618,-0.00263338140212,-0.0152179095894,0.999877512455
1505403907257624493,0,1505403907257524564,0.146867871284,0.0457405745983,-0.179521724582,-0.00442509306595,-0.997671484947,0.00262211589143,0.068009108305
1505403907258573781,0,1505403907258322343,-0.0879287996972,0.605983382902,0.866,0.00509540278832,-0.0235194330114,0.997996024291,-0.0585218646434
1505403907263623802,0,1505403907263378679,-0.0881123038776,0.605564631109,0.865,0.00525900022329,-0.0232027154083,0.997984306672,-0.0588328186466
1505403907267043900,0,1505403907266715198,0.0485464446247,0.949857234955,0.0993103086948,-0.00229606591165,-0.00244220881723,-0.0150099443272,0.999881744385
1505403907267052727,0,1505403907266726659,0.146997615695,0.0457282140851,-0.178272813559,-0.00463303225115,-0.997662365437,0.00283903162926,0.0681193321943
1505403907273921180,0,1505403907273722632,-0.0884645523057,0.604694392598,0.865,0.00516431679377,-0.0229448365139,0.997970479874,-0.0591758870649
1505403907275199013,0,1505403907274968634,-0.0885015286106,0.60458468488,0.865,0.00527300971813,-0.0228243807758,0.997967110713,-0.0592696292051
1505403907277120951,0,1505403907276981191,0.0489883199334,0.949723243713,0.0997667089105,-0.00227409857325,-0.00249281339347,-0.0150678232312,0.99988079071
1505403907277128174,0,1505403907276991628,0.147078052163,0.0457844510674,-0.177084192634,-0.00490133464336,-0.997650384903,0.00275292480364,0.0682796239853
1505403907278927815,0,1505403907278640651,-0.0885965144361,0.60424755406,0.864,0.00529410290608,-0.0226738952472,0.99796057796,-0.0594352739294
1505403907283836243,0,1505403907283537230,-0.0887142794313,0.603804746948,0.864,0.00524552558637,-0.0227556251632,0.997961519011,-0.0593925294771
1505403907287382364,0,1505403907287200039,0.0494538061321,0.949700832367,0.100460417569,-0.00197792402469,-0.00257453718223,-0.0150854159147,0.999880969524
1505403907287393132,0,1505403907287225981,0.147200405598,0.0458180904388,-0.175783663988,-0.00504077551886,-0.997646212578,0.00303728785366,0.068317823112
1505403907290582496,0,1505403907290297755,-0.0888677966943,0.603195340794,0.864,0.00531027458899,-0.0228393990318,0.997963000927,-0.0593296857991
1505403907295663984,0,1505403907295382268,-0.0889777073614,0.602739254574,0.863,0.0050669837775,-0.0228802875333,0.997965586664,-0.059291702221
1505403907297652620,0,1505403907297508797,0.0498808473349,0.94968110323,0.101006880403,-0.00180834752973,-0.00285352161154,-0.0152100240812,0.999878644943
1505403907297662699,0,1505403907297520962,0.147338911891,0.0456450693309,-0.174513399601,-0.00485455011949,-0.997650623322,0.00326127163135,0.0682572498918
1505403907299451152,0,1505403907299124266,-0.089056165117,0.602404646797,0.863,0.00491471364846,-0.0229856827345,0.997966839948,-0.0592426395769
1505403907304039081,0,1505403907303718412,-0.0891509077757,0.601995419372,0.863,0.0046666227229,-0.0228776623725,0.997962375528,-0.0593795606779
1505403907306872778,0,1505403907306771897,0.0502702891827,0.949731647968,0.101204626262,-0.00170858576894,-0.00342333852313,-0.0154997007921,0.999872565269
1505403907306880158,0,1505403907306783312,0.147457584739,0.0456919521093,-0.173251748085,-0.00443958258256,-0.997683823109,0.00287899654359,0.0678168535233
1505403907309027689,0,1505403907308807906,-0.0892619578248,0.601506436349,0.862,0.0044228288497,-0.0227259882243,0.997963470641,-0.0594380291521
1505403907312578982,0,1505403907312402990,0.21,0.0,0.0,-0.499999999999,0.500000836553,-0.499999999999,0.499999163447
1505403907312588427,0,1505403907312403174,0.0,-0.02,0.0,0.707106189653,0.707107372717,-1.18306495402e-06,-1.18306297463e-06
1505403907314200020,0,1505403907313962544,-0.0894274664034,0.600973169704,0.862,0.00445602802842,-0.0224963353515,0.997960217159,-0.0595773755515
1505403907317140560,0,1505403907317010093,0.0507006309927,0.949866056442,0.101956933737,-0.00193623895757,-0.00357062462717,-0.0156879425049,0.999868690968
1505403907317185328,0,1505403907317019684,0.14755924046,0.0456804446876,-0.171892598271,-0.00437639839947,-0.997694671154,0.0027912450023,0.0676641464233
1505403907320588938,0,1505403907320354950,-0.0896899832841,0.600276277624,0.862,0.00431984106166,-0.0221892449316,0.997955464458,-0.0597818311933
1505403907321015288,0,1505403907274152994,base_footprint,-0.710999999991,0.0,0.0,0.0,0.0,0.0,1.0
1505403907324602864,0,1505403907324413733,-0.0898876598982,0.599816591946,0.862,0.00442012263833,-0.0220604301349,0.997949633684,-0.0599193505316
1505403907327377311,0,1505403907327242666,0.0511880964041,0.949972689152,0.102511033416,-0.00204723631032,-0.00313196261413,-0.0153570994735,0.99987500906
1505403907327392231,0,1505403907327262167,0.147627711296,0.045726723969,-0.170643299818,-0.0044528786093,-0.997667074203,0.00244887615554,0.0680788382888
1505403907329111640,0,1505403907328840199,-0.0901332008059,0.599303264966,0.863,0.00437743000652,-0.022105744302,0.997929886289,-0.0602338461831
1505403907334164231,0,1505403907333838349,-0.0904397507955,0.598716301099,0.863,0.00432357290802,-0.0223359664486,0.997919172438,-0.060330229569
1505403907337687564,0,1505403907337513123,0.0517122931778,0.950111985207,0.102710269392,-0.00212825182825,-0.00325048784725,-0.0149713158607,0.999880373478
1505403907337694766,0,1505403907337525539,0.147630661726,0.0456903502345,-0.169354334474,-0.00439638551325,-0.997630774975,0.00218604062684,0.0686202868819
1505403907344525305,0,1505403907344271370,-0.0910741151324,0.597536955307,0.863,0.0045007397547,-0.022499874593,0.997911821907,-0.0603779320912
1505403907344534906,0,1505403907344307748,-0.0910762980713,0.597533017394,0.863,0.00454360623415,-0.0226636183458,0.997913281192,-0.0602892964507
1505403907346903679,0,1505403907346782137,0.0521821603179,0.95026165247,0.103536650538,-0.00273839780129,-0.00344738317654,-0.0148773277178,0.999879658222
1505403907346912748,0,1505403907346793340,0.147660657763,0.0456482246518,-0.168058097363,-0.00454692123458,-0.997614681721,0.00212196563371,0.0688457041979
1505403907349100436,0,1505403907348731257,-0.0913639702713,0.597029582404,0.863,0.00489800335759,-0.0226778540693,0.997924393256,-0.0600718723116
1505403907354786824,0,1505403907354528741,-0.0917652362978,0.59635036797,0.863,0.00514398883036,-0.0225934804644,0.997931684489,-0.0599618804987
1505403907357176560,0,1505403907357057054,0.0527029447258,0.950409591198,0.103641428053,-0.0023750429973,-0.00323932874016,-0.0141451060772,0.999891877174
1505403907357183260,0,1505403907357068233,0.14778868854,0.0455251522362,-0.166783362627,-0.00457532284781,-0.997621655464,0.00279672420584,0.068718649447
1505403907359121746,0,1505403907358831885,-0.0920790591914,0.595834494481,0.862,0.00546829505978,-0.0225398015596,0.997943635408,-0.0597541265873
1505403907364206136,0,1505403907363930402,-0.0924650951708,0.595217757911,0.862,0.00589647453829,-0.0222696381121,0.997951438176,-0.0596843517918
1505403907374825529,0,1505403907374534807,-0.0932071681959,0.594029066375,0.862,0.00621725270987,-0.022117878294,0.997936031033,-0.0599651831948
1505403907374832499,0,1505403907374567201,-0.093209259369,0.594025741755,0.862,0.00667232334417,-0.0220966575641,0.997905809273,-0.0604252732325
1505403907377504930,0,1505403907377381190,0.053190112114,0.950720787048,0.104145683348,-0.00253201578744,-0.00345458253287,-0.0139363352209,0.999893724918
1505403907377512010,0,1505403907377391358,0.147909030318,0.045488640666,-0.165443539619,-0.00431103585288,-0.997633159161,0.00376410596073,0.0685222148895
1505403907377515433,0,1505403907377398394,0.0536530278623,0.951019883156,0.104587748647,-0.00252111419104,-0.0035257008858,-0.0136267496273,0.999897778034
1505403907377525466,0,1505403907377403151,0.148003101349,0.0454452261329,-0.164075404406,-0.00434710690752,-0.99764662981,0.00409932853654,0.0683050900698
1505403907379253858,0,1505403907379054950,-0.0934765417629,0.593610865201,0.862,0.00699890172141,-0.0223686227038,0.997840114848,-0.0613658316423
1505403907385946186,0,1505403907385667671,-0.093789901138,0.593140744029,0.862,0.00717943555057,-0.0233924789477,0.997760393305,-0.0622530737018
1505403907387726418,0,1505403907387589956,0.0542222186923,0.951280832291,0.104548282921,-0.00189336983021,-0.00307464459911,-0.0128946928307,0.999910354614
1505403907387733355,0,1505403907387602019,0.148153215647,0.0455113351345,-0.162740707397,-0.00444723991677,-0.997645616531,0.00382876046933,0.0683284178376
1505403907389357966,0,1505403907389210493,-0.0939178893671,0.592959026402,0.862,0.00740529542696,-0.0243532225885,0.997692730427,-0.0629388417581
1505403907396870055,0,1505403907396774749,0.0546448491514,0.951697051525,0.105405598879,-0.00246836268343,-0.00254146661609,-0.0130708524957,0.999908268452
1505403907396878742,0,1505403907396786524,0.148265182972,0.0454522110522,-0.161400005221,-0.00439083436504,-0.997626245022,0.00352556095459,0.068630695343
1505403907398584893,0,1505403907398246073,-0.094156390744,0.592648369512,0.862,0.0074020783422,-0.0258091314313,0.997611915803,-0.0636361801044
1505403907399747055,0,1505403907399491731,-0.094178314367,0.592622857219,0.862,0.00750227748194,-0.0268430727188,0.997586101446,-0.0636013795483
1505403907407155068,0,1505403907406979597,0.055066537112,0.952075660229,0.105298124254,-0.00226784590632,-0.00247115618549,-0.0127677842975,0.999912858009
1505403907407165125,0,1505403907406990726,0.148373857141,0.0453425720334,-0.160015195608,-0.00424919649959,-0.997618377209,0.0034762241412,0.0687562525272
1505403907407796797,0,1505403907407539707,-0.0942588619147,0.592547548779,0.862,0.00760887188831,-0.0275706952398,0.997568130864,-0.063559311807
1505403907409642813,0,1505403907409452609,-0.0942808907045,0.592526103257,0.864,0.00752626273303,-0.0283577152035,0.997588795769,-0.0628950706704
1505403907412496636,0,1505403907412399368,0.21,0.0,0.0,-0.499999999999,0.500000836553,-0.499999999999,0.499999163447
1505403907412506202,0,1505403907412399473,0.0,-0.02,0.0,0.707106189653,0.707107372717,-1.18306495402e-06,-1.18306297463e-06
1505403907414518373,0,1505403907414244984,-0.0943691484078,0.59236545136,0.864,0.00763329194778,-0.0283469377197,0.997639237346,-0.0620816887974
1505403907417341166,0,1505403907417237710,0.0555395781994,0.952695846558,0.105576753616,-0.00303303566761,-0.00312756304629,-0.0130460131913,0.999905407429
1505403907417386517,0,1505403907417249052,0.148464336991,0.045313000679,-0.158667981625,-0.00399384647608,-0.997613012791,0.00354750920087,0.0688459351659
1505403907420262211,0,1505403907419659225,-0.0945040565989,0.592066426925,0.865,0.00733153009808,-0.0287173469105,0.997652110072,-0.0617400188002
1505403907420287378,0,1505403907374186038,base_footprint,-0.697999999991,0.0,0.0,0.0,0.0,0.0,1.0
1505403907426239748,0,1505403907425830724,-0.094694155235,0.591594328535,0.865,0.00715426164492,-0.0285996269284,0.997683281371,-0.0613102597621
1505403907427542438,0,1505403907427430743,0.0559682510793,0.953295111656,0.105993919075,-0.00388888083398,-0.00438019819558,-0.0135937780142,0.999890446663
1505403907427552714,0,1505403907427454455,0.148585900664,0.0453802607954,-0.157238543034,-0.0042362161912,-0.99759632349,0.00391440605745,0.0690528601408
1505403907431131819,0,1505403907430891960,-0.0948790893579,0.591105946105,0.865,0.00695423454061,-0.0284351973648,0.997665342551,-0.0617004249963
1505403907434650833,0,1505403907434416671,-0.0950094024729,0.590729127835,0.865,0.00670354994531,-0.0283621281131,0.997652998576,-0.0619608468324
1505403907436738479,0,1505403907436585279,0.056488852948,0.953819930553,0.106045722961,-0.00411193212494,-0.004693957977,-0.0134630752727,0.999889850616
1505403907436746504,0,1505403907436596507,0.148663416505,0.0453935675323,-0.155883163214,-0.00433298852295,-0.997576713562,0.00379752600566,0.0693368464708
1505403907440665885,0,1505403907440314664,-0.0952312273207,0.590042265712,0.865,0.00686951641947,-0.0279040683273,0.997641062411,-0.0623416658941
1505403907444603932,0,1505403907444376873,-0.0954214761363,0.589530678164,0.865,0.00674765167151,-0.027637714102,0.997610704892,-0.0629563931718
1505403907446973184,0,1505403907446813052,0.0569809228182,0.954540193081,0.106361657381,-0.0042778281495,-0.00404759403318,-0.0134499035776,0.999892175198
1505403907446985772,0,1505403907446822841,0.148807272315,0.0452735982835,-0.154467746615,-0.00435573142022,-0.997572958469,0.0046671316959,0.0693359971046
1505403907450923248,0,1505403907450747615,-0.0957724552987,0.588676912917,0.863,0.00686840773236,-0.0272090272517,0.99760356116,-0.0632426167461
1505403907455117860,0,1505403907454947254,-0.0960357886419,0.588076989519,0.863,0.00690189691415,-0.0267929927807,0.997576782457,-0.0638362158969
1505403907457233881,0,1505403907457092354,0.0573934465647,0.955404639244,0.106483332813,-0.00433277152479,-0.00333415041678,-0.0134787615389,0.99989426136
1505403907457245459,0,1505403907457103803,0.148924291134,0.045276992023,-0.153027027845,-0.0042710150592,-0.997567355633,0.00478328205645,0.0694141387939
1505403907459869996,0,1505403907459503227,-0.0963517251678,0.587386834222,0.863,0.00685204385025,-0.0264539815757,0.997569775036,-0.0640919674287
1505403907464682229,0,1505403907464423732,-0.0967213810248,0.586602861788,0.863,0.00715134946666,-0.0258565752901,0.997570206114,-0.0642960308893
1505403907467502329,0,1505403907467349731,0.0579041913152,0.956149995327,0.10675316304,-0.00342975580133,-0.00289779435843,-0.0129718557,0.999905765057
1505403907467508566,0,1505403907467361396,0.148936346173,0.0454166680574,-0.1515725106,-0.00441293558106,-0.997566699982,0.00441073440015,0.0694383904338
1505403907475197489,0,1505403907474918171,-0.0975069543637,0.584841308101,0.863,0.00716714286989,-0.025460823569,0.997564409396,-0.0645416736074
1505403907475201399,0,1505403907474955885,-0.0975097612394,0.584834705157,0.864,0.00748364986495,-0.0250729356974,0.997570618752,-0.0645616254599
1505403907479715305,0,1505403907479467935,-0.0978431135962,0.584016818422,0.864,0.00767268628989,-0.0246570248437,0.997563895567,-0.0648030498663
1505403907486901027,0,1505403907486760464,0.0583941824734,0.956891477108,0.106613896787,-0.00231879972853,-0.00315521215089,-0.0126697421074,0.999912023544
1505403907486908863,0,1505403907486770708,0.149022385478,0.0454490855336,-0.150234118104,-0.00422476744279,-0.997557640076,0.00402412051335,0.0696030855179
1505403907486939969,0,1505403907486777389,0.0588444806635,0.957636773586,0.106389388442,-0.00112093624193,-0.003661878407,-0.0122837880626,0.999917149544
1505403907486946027,0,1505403907486781911,0.149118512869,0.0454146675766,-0.148812457919,-0.00382315344177,-0.997553944588,0.00371039379388,0.0696976929903
1505403907489145161,0,1505403907488943037,-0.0985382563778,0.582246381763,0.864,0.0078181524128,-0.0243326980754,0.997569713045,-0.0648187003282
1505403907492112152,0,1505403907491878507,-0.0987520600235,0.58168147393,0.865,0.00813763489351,-0.023848147063,0.997575789972,-0.0648659235766
1505403907495189404,0,1505403907494953922,-0.0989758005211,0.5810751409,0.865,0.00819765663019,-0.023397832546,0.997580766956,-0.0649457716658
1505403907497127931,0,1505403907496972831,0.0593111366034,0.958524227142,0.106618389487,-0.000471754203318,-0.00394203141332,-0.011994172819,0.999920189381
1505403907497135368,0,1505403907496984063,0.149166330695,0.0453570298851,-0.147403642535,-0.00359504157677,-0.997563481331,0.00416782870889,0.0695473626256
1505403907497676072,0,1505403908474102973,base_link,0.0,0.13,0.015,0.0,0.0,0.0,1.0,0,1505403908474102973,base_link,0.0,-0.13,0.015,0.0,0.0,0.0,1.0
1505403907499992586,0,1505403907499722651,-0.0993152822692,0.580108385524,0.865,0.00843261639387,-0.0229625108538,0.997586272549,-0.0649864824201
1505403907507345755,0,1505403907507205815,0.0598019696772,0.959273099899,0.10628773272,0.000387967709685,-0.00435550883412,-0.011567694135,0.999923467636
1505403907507353534,0,1505403907507215997,0.14924095571,0.0452370047569,-0.146003365517,-0.00364309409633,-0.99755525589,0.00482840556651,0.0696191638708
1505403907507812943,0,1505403907507652610,-0.0998715295114,0.578460569255,0.865,0.00853806724112,-0.0224817723038,0.99758035732,-0.0652311429516
1505403907510006033,0,1505403907509783324,-0.100017540029,0.578006943099,0.865,0.00852305125137,-0.0219486952505,0.997585249423,-0.0653397467623
1505403907512554449,0,1505403907512401532,0.21,0.0,0.0,-0.499999999999,0.500000836553,-0.499999999999,0.499999163447
1505403907512560517,0,1505403907512401724,0.0,-0.02,0.0,0.707106189653,0.707107372717,-1.18306495402e-06,-1.18306297463e-06
1505403907515254964,0,1505403907515102078,-0.100372772307,0.576851054219,0.866,0.00867399075036,-0.0212554614235,0.997586868898,-0.0655240890616
1505403907517588634,0,1505403907517488254,0.060282189399,0.960109770298,0.106479249895,0.0006107360241,-0.0042492649518,-0.0112635102123,0.999927341938
1505403907517614580,0,1505403907517498490,0.149264335632,0.0450744405389,-0.144547969103,-0.00366068142466,-0.99752676487,0.00581256439909,0.0699512138963
1505403907520543654,0,1505403907440825939,base_footprint,-0.689999999992,0.0,0.0,0.0,0.0,0.0,1.0
1505403907523778912,0,1505403907523541885,-0.100922546813,0.574984456306,0.866,0.00857640329745,-0.0205712369595,0.997602162618,-0.0655224744388
1505403907524977239,0,1505403907524800365,-0.101002334683,0.574702456286,0.866,0.00872247705712,-0.0198530506579,0.997612452441,-0.065568052494
1505403907526864946,0,1505403907526697960,0.0607798583806,0.96097689867,0.106523402035,0.000747031008359,-0.00431843008846,-0.010931818746,0.999930679798
1505403907526871717,0,1505403907526708962,0.149219065905,0.0450655966997,-0.143039613962,-0.00357728963718,-0.997480750084,0.00591210275888,0.0706004872918
1505403907531270393,0,1505403907531020009,-0.101386505887,0.573293167787,0.867,0.00883179072888,-0.0192153009535,0.99761522428,-0.0657011108434
1505403907537116995,0,1505403907536967600,0.0612563826144,0.961780250072,0.106307014823,0.000668925291393,-0.00451053958386,-0.0109396763146,0.999929845333
1505403907537125155,0,1505403907536978515,0.149278104305,0.0451318472624,-0.141640722752,-0.00346769974567,-0.997465729713,0.00552979204804,0.0708487406373
1505403907541817643,0,1505403907541302369,-0.102053342791,0.570936410194,0.868,0.00878900274912,-0.0186754220752,0.997620365756,-0.0657844044564
1505403907541821227,0,1505403907541383246,-0.102058807564,0.570917698982,0.868,0.00899116085925,-0.0182139188198,0.997608717833,-0.066062533195
1505403907545006033,0,1505403907544787504,-0.102294095868,0.570127835513,0.868,0.00886376621903,-0.0179407724656,0.997598904497,-0.0663022479167
1505403907547331964,0,1505403907547208620,0.0616977289319,0.962573766708,0.10645840317,0.000960455858149,-0.00439661042765,-0.0105102295056,0.999934613705
1505403907547371655,0,1505403907547225116,0.149363175035,0.0449847988784,-0.140204846859,-0.00317845214158,-0.997470319271,0.0062588378787,0.0707371234894
1505403907550990232,0,1505403907550821003,-0.102719304484,0.568724682437,0.868,0.00905250297283,-0.0176992429369,0.997588313065,-0.0665007264984
1505403907555113798,0,1505403907554961612,-0.103017229276,0.56775948528,0.869,0.00920974734126,-0.0174852082374,0.997570957537,-0.0667954543727
1505403907557532549,0,1505403907557431510,0.0621734559536,0.963410675526,0.10627759248,0.0014999085106,-0.00461048679426,-0.0102917607874,0.999935269356
1505403907557539749,0,1505403907557469601,0.149448215961,0.0448809638619,-0.138654708862,-0.00297274929471,-0.997453272343,0.00668501434848,0.0709471106529
1505403907560481750,0,1505403907560087164,-0.103384321969,0.566538696561,0.869,0.00930841703464,-0.017223839717,0.997565235692,-0.0669349927721
1505403907565320208,0,1505403907565074279,-0.103740260601,0.565327273805,0.869,0.00955235996391,-0.0169268334591,0.997562311408,-0.0670199193283
1505403907566911147,0,1505403907566782930,0.0625738203526,0.964219093323,0.106099672616,0.00193198374473,-0.00456582987681,-0.0102812442929,0.999934911728
1505403907566917870,0,1505403907566794989,0.149551764131,0.0448340140283,-0.137143164873,-0.00274865725078,-0.997457742691,0.00696272961795,0.0708659365773
1505403907573953993,0,1505403907573713313,-0.104351472972,0.563178931687,0.876,0.00949113049931,-0.0166415814354,0.997561020161,-0.067119201906
1505403907577101118,0,1505403907576861438,-0.104562913131,0.562397502704,0.876,0.0095647053496,-0.0163495029622,0.997576775887,-0.0669461453409
1505403907577104314,0,1505403907577000325,0.0629853010178,0.965111255646,0.106177054346,0.00255659990944,-0.00457414984703,-0.0100407609716,0.999935805798
1505403907577121542,0,1505403907577010192,0.149556398392,0.0449676811695,-0.135620951653,-0.00242824782617,-0.997447371483,0.00613777572289,0.0711003690958
1505403907581462215,0,1505403907581132531,-0.104837700446,0.561339320672,0.877,0.00954830171672,-0.0160876708577,0.997576345662,-0.067018291211
1505403907585817060,0,1505403907585477667,-0.105105903831,0.560264066375,0.877,0.00944265892744,-0.0158511078822,0.997590230354,-0.066882814486
1505403907587365152,0,1505403907587276413,0.0634594038129,0.965874791145,0.105795875192,0.00283383275382,-0.00500448979437,-0.00972662866116,0.999936163425
1505403907587372248,0,1505403907587286424,0.149573490024,0.0448801219463,-0.134084492922,-0.001947029843,-0.997434437275,0.00597843155265,0.0713100507855
1505403907590637818,0,1505403907590413444,-0.105400167914,0.559045815113,0.878,0.0094536581954,-0.0156048495625,0.997588627292,-0.06696303244
1505403907595906039,0,1505403907595167585,-0.105674124172,0.5578763968,0.878,0.00931831718186,-0.0154715963146,0.997571828606,-0.0672625114273
1505403907597616963,0,1505403907597492209,0.0638124272227,0.966650784016,0.105838760734,0.00272500189021,-0.00505781359971,-0.0097758192569,0.999935686588
1505403907597624319,0,1505403907597505460,0.149624094367,0.04486393556,-0.132558956742,-0.00196988880634,-0.997416257858,0.00566831603646,0.0715879127383
1505403907606909602,0,1505403907606783301,0.0642891451716,0.967531323433,0.105826884508,0.00257864780724,-0.00513336108997,-0.00960878655314,0.999937355518
1505403907606916653,0,1505403907606795932,0.149684652686,0.0446766912937,-0.130930259824,-0.0019667991437,-0.99742013216,0.00685214949772,0.0714303851128
1505403907607681109,0,1505403907607444739,-0.106397427336,0.554893153136,0.879,0.00929621279076,-0.0152447076881,0.99756715045,-0.0673866430248
1505403907607707644,0,1505403907607476862,-0.106399357752,0.554885447719,0.879,0.0092920781874,-0.0150658979305,0.997535559915,-0.0678931712865
1505403907610856566,0,1505403907610679226,-0.106606054151,0.554113252261,0.872,0.0092557090023,-0.0148653638822,0.997523320562,-0.0681217861038
1505403907612453501,0,1505403907612363245,0.21,0.0,0.0,-0.499999999999,0.500000836553,-0.499999999999,0.499999163447
1505403907612808369,0,1505403907612363344,0.0,-0.02,0.0,0.707106189653,0.707107372717,-1.18306495402e-06,-1.18306297463e-06
1505403907615999546,0,1505403907615732680,-0.106950132871,0.552883167599,0.872,0.00935545609855,-0.0146027118615,0.997508363131,-0.0683834901892
1505403907617237158,0,1505403907617085255,0.0647107884288,0.968277871609,0.105508446693,0.00250474084169,-0.00512530095875,-0.00926085934043,0.999940872192
1505403907617243312,0,1505403907617094797,0.149734288454,0.0445877201855,-0.129250511527,-0.00176136393566,-0.997399032116,0.00744219822809,0.0716702491045
1505403907620832921,0,1505403907574126005,base_footprint,-0.668999999992,0.0,0.0,0.0,0.0,0.0,1.0
1505403907621916654,0,1505403907621696785,-0.107373860232,0.551417503479,0.872,0.0093714204172,-0.0143801851997,0.997488601906,-0.0687159066043
1505403907626185734,0,1505403907625957042,-0.107687393113,0.550360857388,0.873,0.00953046287192,-0.0140283109538,0.997493876779,-0.0686901925899
1505403907627427977,0,1505403907627292406,0.0650425106287,0.969063520432,0.10565469414,0.00201936927624,-0.00495924707502,-0.00949108507484,0.999940633774
1505403907627434441,0,1505403907627305262,0.149838805199,0.0446379743516,-0.127723753452,-0.00183721270878,-0.997392416,0.00715110264719,0.0717898905277
1505403907630647035,0,1505403907630376972,-0.108011537224,0.549253434557,0.873,0.00961321500272,-0.013689554527,0.997492281078,-0.0687701343923
1505403907637702892,0,1505403907637556649,0.0655211061239,0.969717502594,0.105345413089,0.0025566641707,-0.00515622226521,-0.00898943096399,0.99994301796
1505403907637719912,0,1505403907637568178,0.149902522564,0.0447753332555,-0.126188769937,-0.00175067700911,-0.997397899628,0.00602976512164,0.0718203708529
1505403907641356915,0,1505403907641044385,-0.108792636164,0.54655395329,0.873,0.00973594206918,-0.0133503185605,0.997508204308,-0.0685883573473
1505403907641359958,0,1505403907641081256,-0.108795208701,0.546544638165,0.873,0.00977330823799,-0.0130434035905,0.997525501856,-0.0683902421143
1505403907646958055,0,1505403907646807051,0.0658208653331,0.970500528812,0.105128675699,0.00249284435995,-0.00548899592832,-0.00905890669674,0.999940812588
1505403907646966560,0,1505403907646817095,0.149948731065,0.0447350740433,-0.124637424946,-0.00136662484147,-0.997383892536,0.00622862577438,0.0720053613186
1505403907647230913,0,1505403907646923917,-0.109186952225,0.545069085606,0.874,0.00975447212561,-0.0127738018744,0.997530784114,-0.0683667682746
1505403907655118591,0,1505403907654954527,-0.109707239638,0.543050470252,0.87,0.00977759684458,-0.0124932688896,0.997541119203,-0.068264429473
1505403907656350580,0,1505403907656207669,-0.109785906009,0.542736053225,0.87,0.00966821776455,-0.0122628632357,0.997531075911,-0.068468243318
1505403907657230508,0,1505403907657128977,0.0661743804812,0.97132819891,0.105080030859,0.00283379340544,-0.00586380111054,-0.00898013170809,0.999938488007
1505403907657236811,0,1505403907657141444,0.150008574128,0.0447293557227,-0.122980825603,-0.001345492783,-0.997371792793,0.00663283420727,0.0721368938684
1505403907660991670,0,1505403907660720021,-0.110060021114,0.541607007257,0.871,0.00976103884384,-0.0120537486253,0.997520717786,-0.0686428936768
1505403907666590933,0,1505403907666387078,-0.110404323293,0.540201102531,0.871,0.0097466531622,-0.0117988367048,0.997506332104,-0.0688978055972
1505403907667501507,0,1505403907667355930,0.0666021108627,0.971979916096,0.104714728892,0.00340458936989,-0.00602204771712,-0.00856065936387,0.999939441681
1505403907667507897,0,1505403907667375797,0.150086909533,0.0446491837502,-0.121350973845,-0.00148679385893,-0.997362732887,0.00712003791705,0.0722131952643
1505403907674684710,0,1505403907674442925,-0.110892840541,0.538217583707,0.871,0.0098554762738,-0.0116564667681,0.997479212064,-0.0692980365556
1505403907676765342,0,1505403907676482316,-0.111021966304,0.537718102485,0.871,0.0100412144361,-0.0115004287112,0.997455603467,-0.0696364363285
1505403907677687395,0,1505403907677570345,0.0669112876058,0.972730875015,0.104446560144,0.00340477214195,-0.00566978519782,-0.00846060086042,0.999942362309
1505403907677694342,0,1505403907677579980,0.150193706155,0.0446010529995,-0.119830660522,-0.00150346127339,-0.997380375862,0.00761789781973,0.0719171315432
1505403907684144465,0,1505403907683940305,-0.111513083014,0.535896474469,0.871,0.0101538466461,-0.0112966750233,0.997431174417,-0.0700024059072
1505403907686906912,0,1505403907686771004,0.0673198103905,0.973469913006,0.104655854404,0.00349399354309,-0.00536766508594,-0.00809197314084,0.999946773052
1505403907686918796,0,1505403907686780253,0.150277525187,0.0446824617684,-0.118338182569,-0.00173093483318,-0.997405529022,0.0073166154325,0.071594171226
1505403907688530003,0,1505403907688187646,-0.111801297274,0.534862206013,0.872,0.0104603038839,-0.0111233551746,0.997408084415,-0.0703133426565
1505403907692972308,0,1505403907692764527,-0.112122295101,0.533751760681,0.868,0.0106135644566,-0.0109095214353,0.997395920506,-0.0704961867759
1505403907696121848,0,1505403907695890997,-0.112336612638,0.532997544236,0.869,0.010883412763,-0.0106362656592,0.99739294268,-0.0705389188404
1505403907697079243,0,1505403907696979407,0.0676463544369,0.974247992039,0.104122914374,0.00350007577799,-0.00536391371861,-0.00781622435898,0.999948978424
