%time,field.header.seq,field.header.stamp,field.header.frame_id,field.vector.x,field.vector.y,field.vector.z
1505403906767576723,8724,1505403906767324492,0.977777898312,0.0454780422151,-0.204651176929
1505403906775705678,8725,1505403906775402252,0.977777898312,0.0454780422151,-0.204651176929
1505403906777959733,8726,1505403906777686349,0.97417640686,0.0442807450891,-0.221403717995
1505403906783145544,8727,1505403906782993494,0.97417640686,0.0442807450891,-0.221403717995
1505403906786287836,8728,1505403906786141319,0.969017744064,0.0319456383586,-0.244916573167
1505403906791433791,8729,1505403906791303380,0.969017744064,0.0319456383586,-0.244916573167
1505403906799559915,8730,1505403906799352391,0.976876854897,0.086833499372,-0.1953753829
1505403906801462959,8731,1505403906801265118,0.976876854897,0.086833499372,-0.1953753829
1505403906808150225,8732,1505403906807996060,0.972779512405,0.0801112502813,-0.217444822192
1505403906819154141,8733,1505403906818936726,0.972779512405,0.0801112502813,-0.217444822192
1505403906821479213,8734,1505403906820994378,0.97417640686,0.0442807450891,-0.221403717995
1505403906821994236,8735,1505403906821842544,0.97417640686,0.0442807450891,-0.221403717995
1505403906826206164,8736,1505403906825985174,0.972021520138,0.0111726615578,-0.234625890851
1505403906831387830,8737,1505403906831228810,0.972021520138,0.0111726615578,-0.234625890851
1505403906843180473,8738,1505403906842975478,0.973688185215,0.0,-0.227884471416
1505403906846391601,8739,1505403906846215548,0.973688185215,0.0,-0.227884471416
1505403906847209548,8740,1505403906847052836,0.971536576748,0.0335012599826,-0.234508827329
1505403906851782846,8741,1505403906851405370,0.971536576748,0.0335012599826,-0.234508827329
1505403906856333963,8742,1505403906856125502,0.968506157398,0.103032574058,-0.226671651006
1505403906865772694,8743,1505403906865535566,0.968506157398,0.103032574058,-0.226671651006
1505403906866650492,8744,1505403906866468884,0.972806274891,0.0,-0.231620535254
1505403906874965194,8745,1505403906874743611,0.972806274891,0.0,-0.231620535254
1505403906876546647,8746,1505403906876379040,0.982478499413,0.0323893986642,-0.183539941907
1505403906883143351,8747,1505403906882957892,0.982478499413,0.0323893986642,-0.183539941907
1505403906891845598,8748,1505403906891709481,0.983130097389,0.0,-0.182907924056
1505403906894227452,8749,1505403906893310211,0.983130097389,0.0,-0.182907924056
1505403906897286780,8750,1505403906897087618,0.970466136932,0.0693190097809,-0.231063365936
1505403906907265482,8751,1505403906907039233,0.970466136932,0.0693190097809,-0.231063365936
1505403906907269836,8752,1505403906907075125,0.970466136932,0.0693190097809,-0.231063365936
1505403906911759550,8753,1505403906911541127,0.970466136932,0.0693190097809,-0.231063365936
1505403906919395572,8754,1505403906919200368,0.978405416012,0.0526024438441,-0.199889287353
1505403906923818608,8755,1505403906923591027,0.978405416012,0.0526024438441,-0.199889287353
1505403906931576845,8756,1505403906931368545,0.966763317585,0.0543125458062,-0.249837711453
1505403906934264622,8757,1505403906934102999,0.966763317585,0.0543125458062,-0.249837711453
1505403906940628418,8758,1505403906940414222,0.968027055264,0.0660018473864,-0.242006763816
1505403906942145561,8759,1505403906941913913,0.968027055264,0.0660018473864,-0.242006763816
1505403906947109441,8760,1505403906946886276,0.980515420437,0.0115354750305,-0.196103081107
1505403906951699309,8761,1505403906951571365,0.980515420437,0.0115354750305,-0.196103081107
1505403906957471353,8762,1505403906957269563,0.983883440495,0.0565450228751,-0.169635072351
1505403906962577060,8763,1505403906962375399,0.983883440495,0.0565450228751,-0.169635072351
1505403906967909244,8764,1505403906967695266,0.979044258595,0.09107388556,-0.18214777112
1505403906980815667,8765,1505403906980607199,0.979044258595,0.09107388556,-0.18214777112
1505403906983089818,8766,1505403906982898388,0.974758505821,0.0906752049923,-0.204019218683
1505403906990117319,8767,1505403906989903665,0.974758505821,0.0906752049923,-0.204019218683
1505403907008753445,8768,1505403907008534612,0.967797935009,0.0860264822841,-0.236572816968
1505403907014174673,8769,1505403907013995504,0.967797935009,0.0860264822841,-0.236572816968
1505403907015725076,8770,1505403907015533256,0.976490199566,0.0548590011895,-0.208464205265
1505403907016476384,8771,1505403907016331437,0.976490199566,0.0548590011895,-0.208464205265
1505403907018110596,8772,1505403907017972293,0.979881346226,0.0563150197268,-0.19147105515
1505403907021652593,8773,1505403907021437483,0.979881346226,0.0563150197268,-0.19147105515
1505403907024444348,8774,1505403907024172276,0.97526961565,0.0433453172445,-0.216726586223
1505403907024456366,8775,1505403907024193615,0.97526961565,0.0433453172445,-0.216726586223
1505403907027639552,8776,1505403907027422686,0.986163854599,0.032510895282,-0.162554472685
1505403907038127165,8777,1505403907037869361,0.986163854599,0.032510895282,-0.162554472685
1505403907048096139,8778,1505403907047118521,0.974958479404,0.0314502716064,-0.220151916146
1505403907048145210,8779,1505403907047721293,0.974958479404,0.0314502716064,-0.220151916146
1505403907048150898,8780,1505403907047760778,0.967677175999,0.0326183289289,-0.250073879957
1505403907052576203,8781,1505403907052408200,0.967677175999,0.0326183289289,-0.250073879957
1505403907057420911,8782,1505403907057178445,0.985853433609,0.053002871573,-0.159008622169
1505403907063015226,8783,1505403907062626398,0.985853433609,0.053002871573,-0.159008622169
1505403907067585426,8784,1505403907067307679,0.979323685169,0.0770254582167,-0.187061831355
1505403907075274329,8785,1505403907075104863,0.979323685169,0.0770254582167,-0.187061831355
1505403907078677782,8786,1505403907078509094,0.985548555851,0.0332207381725,-0.166103690863
1505403907082917417,8787,1505403907082496873,0.985548555851,0.0332207381725,-0.166103690863
1505403907087954768,8788,1505403907087793911,0.97695595026,0.0212381724268,-0.212381735444
1505403907094320973,8789,1505403907094084013,0.97695595026,0.0212381724268,-0.212381735444
1505403907099197779,8790,1505403907099022927,0.978381514549,0.0322543345392,-0.204277455807
1505403907107919938,8791,1505403907107610444,0.978381514549,0.0322543345392,-0.204277455807
1505403907107926870,8792,1505403907107643726,0.979472160339,0.0222607310861,-0.200346589088
1505403907112764581,8793,1505403907112615758,0.979472160339,0.0222607310861,-0.200346589088
1505403907118786728,8794,1505403907118571017,0.988955676556,0.0113673061132,-0.147774979472
1505403907126080656,8795,1505403907125919876,0.988955676556,0.0113673061132,-0.147774979472
1505403907129581215,8796,1505403907129223457,0.9849858284,0.0214127358049,-0.171301886439
1505403907133075943,8797,1505403907132795946,0.9849858284,0.0214127358049,-0.171301886439
1505403907140430837,8798,1505403907140196863,0.977477967739,0.0537075810134,-0.204088807106
1505403907144073996,8799,1505403907143921039,0.977477967739,0.0537075810134,-0.204088807106
1505403907147976545,8800,1505403907147686206,0.974734604359,0.082956135273,-0.207390338182
1505403907152933182,8801,1505403907152731390,0.974734604359,0.082956135273,-0.207390338182
1505403907158303957,8802,1505403907158139001,0.969368457794,0.0646245628595,-0.236956730485
1505403907165449104,8803,1505403907165205604,0.969368457794,0.0646245628595,-0.236956730485
1505403907168284632,8804,1505403907168097103,0.979957938194,0.0890870839357,-0.178174167871
1505403907174687935,8805,1505403907174499384,0.979957938194,0.0890870839357,-0.178174167871
1505403907178028469,8806,1505403907177889953,0.978031098843,0.0720654502511,-0.195606216788
1505403907184523105,8807,1505403907184309145,0.978031098843,0.0720654502511,-0.195606216788
1505403907188270756,8808,1505403907188123094,0.982936918736,-0.0108015043661,-0.18362557888
1505403907193585152,8809,1505403907193268589,0.982936918736,-0.0108015043661,-0.18362557888
1505403907197980016,8810,1505403907197768183,0.986586809158,0.0448448546231,-0.156956985593
1505403907207608283,8811,1505403907207128817,0.986586809158,0.0448448546231,-0.156956985593
1505403907208638685,8812,1505403907208455599,0.985902965069,0.0793255269527,-0.147318825126
1505403907213415575,8813,1505403907213218504,0.985902965069,0.0793255269527,-0.147318825126
1505403907218326595,8814,1505403907218165035,0.97585183382,0.0114806098863,-0.218131586909
1505403907223741371,8815,1505403907223559696,0.97585183382,0.0114806098863,-0.218131586909
1505403907233330805,8816,1505403907233017247,0.98034799099,0.0217855107039,-0.196069598198
1505403907241552607,8817,1505403907240875040,0.98034799099,0.0217855107039,-0.196069598198
1505403907241557393,8818,1505403907240925853,0.98156362772,0.0539320670068,-0.183369025588
1505403907243756649,8819,1505403907243538230,0.98156362772,0.0539320670068,-0.183369025588
1505403907248844360,8820,1505403907248651942,0.981703937054,0.0330911427736,-0.187516480684
1505403907253938328,8821,1505403907253745626,0.981703937054,0.0330911427736,-0.187516480684
1505403907258509709,8822,1505403907258322343,0.97695595026,0.0212381724268,-0.212381735444
1505403907263575562,8823,1505403907263378679,0.97695595026,0.0212381724268,-0.212381735444
1505403907273874131,8824,1505403907273722632,0.969385385513,0.0116793420166,-0.245266184211
1505403907275114045,8825,1505403907274968634,0.969385385513,0.0116793420166,-0.245266184211
1505403907278906132,8826,1505403907278640651,0.980749726295,0.0550982989371,-0.187334224582
1505403907283747058,8827,1505403907283537230,0.980749726295,0.0550982989371,-0.187334224582
1505403907290468506,8828,1505403907290297755,0.98019605875,0.0753996968269,-0.183113545179
1505403907295659043,8829,1505403907295382268,0.98019605875,0.0753996968269,-0.183113545179
1505403907299388962,8830,1505403907299124266,0.97651642561,0.068129055202,-0.204387158155
1505403907303926165,8831,1505403907303718412,0.97651642561,0.068129055202,-0.204387158155
1505403907309006858,8832,1505403907308807906,0.98820233345,0.0101876528934,-0.152814790606
1505403907314224532,8833,1505403907313962544,0.98820233345,0.0101876528934,-0.152814790606
1505403907320571050,8834,1505403907320354950,0.983130097389,0.0,-0.182907924056
1505403907324577664,8835,1505403907324413733,0.983130097389,0.0,-0.182907924056
1505403907329105729,8836,1505403907328840199,0.988390564919,0.0214867517352,-0.150407254696
1505403907334134084,8837,1505403907333838349,0.988390564919,0.0214867517352,-0.150407254696
1505403907344479233,8838,1505403907344271370,0.979472160339,0.0222607310861,-0.200346589088
1505403907344485490,8839,1505403907344307748,0.979472160339,0.0222607310861,-0.200346589088
1505403907348917816,8840,1505403907348731257,0.983883440495,0.0565450228751,-0.169635072351
1505403907354687236,8841,1505403907354528741,0.983883440495,0.0565450228751,-0.169635072351
1505403907359028629,8842,1505403907358831885,0.981014847755,0.073839828372,-0.179325297475
1505403907364093138,8843,1505403907363930402,0.981014847755,0.073839828372,-0.179325297475
1505403907374759006,8844,1505403907374534807,0.985238611698,0.0541339889169,-0.162401974201
1505403907374761939,8845,1505403907374567201,0.985238611698,0.0541339889169,-0.162401974201
1505403907379212856,8846,1505403907379054950,0.975957453251,0.0216879434884,-0.216879442334
1505403907385928117,8847,1505403907385667671,0.975957453251,0.0216879434884,-0.216879442334
1505403907389346683,8848,1505403907389210493,0.975436866283,0.0560595914721,-0.213026449084
1505403907398533500,8849,1505403907398246073,0.975436866283,0.0560595914721,-0.213026449084
1505403907399739529,8850,1505403907399491731,0.962922513485,0.0529078319669,-0.264539152384
1505403907407701760,8851,1505403907407539707,0.962922513485,0.0529078319669,-0.264539152384
1505403907409632744,8852,1505403907409452609,0.979881346226,0.0563150197268,-0.19147105515
1505403907414403930,8853,1505403907414244984,0.979881346226,0.0563150197268,-0.19147105515
1505403907420244299,8854,1505403907419659225,0.973968744278,0.078365303576,-0.212705820799
1505403907426207568,8855,1505403907425830724,0.973968744278,0.078365303576,-0.212705820799
1505403907431118515,8856,1505403907430891960,0.975337743759,0.103271052241,-0.195067539811
1505403907434628231,8857,1505403907434416671,0.975337743759,0.103271052241,-0.195067539811
1505403907440579591,8858,1505403907440314664,0.987331628799,0.0224393550307,-0.157075494528
1505403907444587159,8859,1505403907444376873,0.987331628799,0.0224393550307,-0.157075494528
1505403907450914394,8860,1505403907450747615,0.978790581226,0.0,-0.204863145947
1505403907455088642,8861,1505403907454947254,0.978790581226,0.0,-0.204863145947
1505403907459855312,8862,1505403907459503227,0.977431952953,0.0329471454024,-0.208665251732
1505403907464671661,8863,1505403907464423732,0.977431952953,0.0329471454024,-0.208665251732
1505403907475154212,8864,1505403907474918171,0.980580687523,0.0,-0.196116134524
1505403907475158189,8865,1505403907474955885,0.980580687523,0.0,-0.196116134524
1505403907479702205,8866,1505403907479467935,0.991227865219,0.0,-0.132163718343
1505403907489131746,8867,1505403907488943037,0.991227865219,0.0,-0.132163718343
1505403907492085902,8868,1505403907491878507,0.983182311058,0.0719401687384,-0.167860388756
1505403907495127093,8869,1505403907494953922,0.983182311058,0.0719401687384,-0.167860388756
1505403907499984844,8870,1505403907499722651,0.983184337616,0.0641207173467,-0.170988574624
1505403907507799737,8871,1505403907507652610,0.983184337616,0.0641207173467,-0.170988574624
1505403907509977201,8872,1505403907509783324,0.978834211826,0.0107564199716,-0.204371973872
1505403907515216247,8873,1505403907515102078,0.978834211826,0.0107564199716,-0.204371973872
1505403907523762943,8874,1505403907523541885,0.983621239662,0.0437164977193,-0.174865990877
1505403907524950621,8875,1505403907524800365,0.983621239662,0.0437164977193,-0.174865990877
1505403907531229497,8876,1505403907531020009,0.98458313942,0.09956458956,-0.143815517426
1505403907541706701,8877,1505403907541302369,0.98458313942,0.09956458956,-0.143815517426
1505403907541724849,8878,1505403907541383246,0.979323685169,0.0770254582167,-0.187061831355
1505403907544980546,8879,1505403907544787504,0.979323685169,0.0770254582167,-0.187061831355
1505403907550967811,8880,1505403907550821003,0.981014847755,0.073839828372,-0.179325297475
1505403907555105726,8881,1505403907554961612,0.981014847755,0.073839828372,-0.179325297475
1505403907560426287,8882,1505403907560087164,0.990909457207,0.0556690692902,-0.122471950948
1505403907565263137,8883,1505403907565074279,0.990909457207,0.0556690692902,-0.122471950948
1505403907573885949,8884,1505403907573713313,0.97526961565,0.0433453172445,-0.216726586223
1505403907577089362,8885,1505403907576861438,0.97526961565,0.0433453172445,-0.216726586223
1505403907581409648,8886,1505403907581132531,0.985246598721,0.0811379551888,-0.150684773922
1505403907585663190,8887,1505403907585477667,0.985246598721,0.0811379551888,-0.150684773922
1505403907590554260,8888,1505403907590413444,0.98458313942,0.0553136579692,-0.165940985084
1505403907595882520,8889,1505403907595167585,0.98458313942,0.0553136579692,-0.165940985084
1505403907607666803,8890,1505403907607444739,0.982338607311,0.0,-0.187112107873
1505403907607677168,8891,1505403907607476862,0.982338607311,0.0,-0.187112107873
1505403907610856062,8892,1505403907610679226,0.978381514549,0.0322543345392,-0.204277455807
1505403907615929066,8893,1505403907615732680,0.978381514549,0.0322543345392,-0.204277455807
1505403907621911174,8894,1505403907621696785,0.973968744278,0.078365303576,-0.212705820799
1505403907626175596,8895,1505403907625957042,0.973968744278,0.078365303576,-0.212705820799
1505403907630607679,8896,1505403907630376972,0.978834211826,0.0107564199716,-0.204371973872
1505403907641317193,8897,1505403907641044385,0.978834211826,0.0107564199716,-0.204371973872
1505403907641328013,8898,1505403907641081256,0.97049498558,0.10783277452,-0.21566554904
1505403907647129094,8899,1505403907646923917,0.97049498558,0.10783277452,-0.21566554904
1505403907655100601,8900,1505403907654954527,0.978790581226,0.0,-0.204863145947
1505403907656341944,8901,1505403907656207669,0.978790581226,0.0,-0.204863145947
1505403907660950789,8902,1505403907660720021,0.986163854599,0.032510895282,-0.162554472685
1505403907666564255,8903,1505403907666387078,0.986163854599,0.032510895282,-0.162554472685
1505403907674648423,8904,1505403907674442925,0.988022089005,0.097716473043,-0.119431242347
1505403907676662569,8905,1505403907676482316,0.988022089005,0.097716473043,-0.119431242347
1505403907684118971,8906,1505403907683940305,0.969200611115,0.110136426985,-0.220272853971
1505403907688348720,8907,1505403907688187646,0.969200611115,0.110136426985,-0.220272853971
1505403907692911078,8908,1505403907692764527,0.98034799099,0.0217855107039,-0.196069598198
1505403907696019809,8909,1505403907695890997,0.98034799099,0.0217855107039,-0.196069598198
1505403907701437790,8910,1505403907701260521,0.97651642561,0.068129055202,-0.204387158155
1505403907707602180,8911,1505403907707298864,0.97651642561,0.068129055202,-0.204387158155
1505403907713831500,8912,1505403907713638717,0.980877220631,0.0338233523071,-0.191665664315
1505403907717392908,8913,1505403907717115151,0.980877220631,0.0338233523071,-0.191665664315
1505403907721611145,8914,1505403907721438743,0.980825483799,0.0684296861291,-0.182479158044
1505403907726560982,8915,1505403907726401392,0.980825483799,0.0684296861291,-0.182479158044
1505403907731788244,8916,1505403907731552336,0.982873141766,0.0228575151414,-0.182860121131
1505403907742987088,8917,1505403907742730338,0.982873141766,0.0228575151414,-0.182860121131
1505403907742997253,8918,1505403907742763624,0.97651642561,0.068129055202,-0.204387158155
1505403907748925827,8919,1505403907748792205,0.97651642561,0.068129055202,-0.204387158155
1505403907751695855,8920,1505403907751524976,0.978834211826,0.0107564199716,-0.204371973872
1505403907756337787,8921,1505403907756160048,0.978834211826,0.0107564199716,-0.204371973872
1505403907761498896,8922,1505403907761258681,0.981376409531,0.011280188337,-0.191763207316
1505403907766523215,8923,1505403907766332101,0.981376409531,0.011280188337,-0.191763207316
1505403907777726517,8924,1505403907777530022,0.977176368237,0.0,-0.212429642677
1505403907778073609,8925,1505403907777920491,0.977176368237,0.0,-0.212429642677
1505403907783258331,8926,1505403907783034214,0.98034799099,0.0217855107039,-0.196069598198
1505403907786403330,8927,1505403907786208882,0.98034799099,0.0217855107039,-0.196069598198
1505403907791395595,8928,1505403907791264289,0.973215341568,0.0984150394797,-0.207765072584
1505403907796584118,8929,1505403907796423143,0.973215341568,0.0984150394797,-0.207765072584
1505403907801860779,8930,1505403907801639897,0.97049498558,0.043133109808,-0.237232103944
1505403907809956674,8931,1505403907809754242,0.97049498558,0.043133109808,-0.237232103944
1505403907811923591,8932,1505403907811745730,0.971766889095,0.06779769063,-0.225992307067
1505403907818074165,8933,1505403907817871315,0.971766889095,0.06779769063,-0.225992307067
1505403907822157959,8934,1505403907821774702,0.983623981476,-0.0223550908267,-0.178840726614
1505403907830234335,8935,1505403907830097453,0.983623981476,-0.0223550908267,-0.178840726614
1505403907831742020,8936,1505403907831502369,0.972021520138,0.100553952157,-0.212280571461
1505403907843060682,8937,1505403907842852253,0.972021520138,0.100553952157,-0.212280571461
1505403907843063632,8938,1505403907842888946,0.97049498558,0.10783277452,-0.21566554904
1505403907849570400,8939,1505403907849378690,0.97049498558,0.10783277452,-0.21566554904
1505403907851942751,8940,1505403907851821229,0.968027055264,0.0660018473864,-0.242006763816
1505403907857082359,8941,1505403907856879034,0.968027055264,0.0660018473864,-0.242006763816
1505403907864083003,8942,1505403907863887129,0.963174760342,0.0724970251322,-0.258917957544
1505403907867543076,8943,1505403907867381090,0.963174760342,0.0724970251322,-0.258917957544
1505403907877723026,8944,1505403907877479018,0.981014847755,0.073839828372,-0.179325297475
1505403907877729187,8945,1505403907877526650,0.981014847755,0.073839828372,-0.179325297475
1505403907884382955,8946,1505403907884172838,0.981265544891,0.0467269308865,-0.186907723546
1505403907887372165,8947,1505403907887177691,0.981265544891,0.0467269308865,-0.186907723546
1505403907892374048,8948,1505403907892200592,0.978537142277,0.0227566771209,-0.204810097814
1505403907898962224,8949,1505403907898788007,0.978537142277,0.0227566771209,-0.204810097814
1505403907902547072,8950,1505403907902324665,0.955919265747,0.0575855001807,-0.287927478552
1505403907909679130,8951,1505403907909440321,0.955919265747,0.0575855001807,-0.287927478552
1505403907914736842,8952,1505403907914503593,0.957211434841,0.0,-0.289389520884
1505403907917207706,8953,1505403907917050441,0.957211434841,0.0,-0.289389520884
1505403907922688556,8954,1505403907922352252,0.96268337965,0.0656375065446,-0.262550026178
1505403907927254645,8955,1505403907927049618,0.96268337965,0.0656375065446,-0.262550026178
1505403907932350974,8956,1505403907932167066,0.981940805912,0.0208923574537,-0.188031226397
1505403907940314440,8957,1505403907940117107,0.981940805912,0.0208923574537,-0.188031226397
1505403907943698005,8958,1505403907943516604,0.974126398563,0.0649417638779,-0.216472536325
1505403907949827303,8959,1505403907949683341,0.974126398563,0.0649417638779,-0.216472536325
1505403907952344906,8960,1505403907952177818,0.968593657017,0.0979476720095,-0.228544577956
1505403907957278357,8961,1505403907957153773,0.968593657017,0.0979476720095,-0.228544577956
1505403907962418166,8962,1505403907962276912,0.970434427261,0.076326303184,-0.228978917003
1505403907974149864,8963,1505403907973964326,0.970434427261,0.076326303184,-0.228978917003
1505403907981755826,8964,1505403907981533777,0.955393612385,0.0868539661169,-0.282275378704
1505403907981759893,8965,1505403907981571579,0.955393612385,0.0868539661169,-0.282275378704
1505403907982482734,8966,1505403907982360352,0.979323685169,0.0770254582167,-0.187061831355
1505403907989416429,8967,1505403907989270024,0.979323685169,0.0770254582167,-0.187061831355
1505403907992730451,8968,1505403907992530390,0.971508026123,0.081934414804,-0.222393408418
1505403908000232039,8969,1505403907999925358,0.971508026123,0.081934414804,-0.222393408418
1505403908008940774,8970,1505403908008726452,0.976419270039,0.0336696319282,-0.213240996003
1505403908010033200,8971,1505403908009864245,0.976419270039,0.0336696319282,-0.213240996003
1505403908015490797,8972,1505403908015262780,0.97651642561,0.068129055202,-0.204387158155
1505403908017811391,8973,1505403908017668540,0.97651642561,0.068129055202,-0.204387158155
1505403908024022587,8974,1505403908023841938,0.978744924068,0.0444884076715,-0.200197830796
1505403908027795862,8975,1505403908027537922,0.978744924068,0.0444884076715,-0.200197830796
1505403908032630342,8976,1505403908032464924,0.969385385513,0.0116793420166,-0.245266184211
1505403908040877012,8977,1505403908040679761,0.969385385513,0.0116793420166,-0.245266184211
1505403908045816333,8978,1505403908045641431,0.960517644882,0.0457389354706,-0.274433612823
1505403908048649137,8979,1505403908048512984,0.960517644882,0.0457389354706,-0.274433612823
1505403908055468108,8980,1505403908055329270,0.975132882595,0.0,-0.221621111035
1505403908059287001,8981,1505403908059128147,0.975132882595,0.0,-0.221621111035
1505403908063286231,8982,1505403908063019177,0.965397357941,0.0759301260114,-0.249484717846
1505403908074229395,8983,1505403908073834640,0.965397357941,0.0759301260114,-0.249484717846
1505403908074238513,8984,1505403908073865487,0.948624014854,0.0711468011141,-0.308302819729
1505403908078138079,8985,1505403908077994584,0.948624014854,0.0711468011141,-0.308302819729
1505403908083110596,8986,1505403908082948469,0.971536576748,0.0335012599826,-0.234508827329
1505403908088189371,8987,1505403908088058760,0.971536576748,0.0335012599826,-0.234508827329
1505403908093315939,8988,1505403908093185922,0.956935286522,0.0345880202949,-0.2882335186
1505403908098190224,8989,1505403908098082701,0.956935286522,0.0345880202949,-0.2882335186
1505403908109122487,8990,1505403908108932305,0.956974327564,-0.0222552176565,-0.289317816496
1505403908112686426,8991,1505403908112483143,0.956974327564,-0.0222552176565,-0.289317816496
1505403908113606722,8992,1505403908113346238,0.95297306776,0.0232432466,-0.302162200212
1505403908119171686,8993,1505403908118980213,0.95297306776,0.0232432466,-0.302162200212
1505403908124231572,8994,1505403908124054342,0.962064325809,0.0579556822777,-0.266596138477
1505403908128528674,8995,1505403908128144384,0.962064325809,0.0579556822777,-0.266596138477
1505403908139933543,8996,1505403908139535606,0.966249227524,0.0333189405501,-0.255445212126
1505403908141323471,8997,1505403908140393117,0.966249227524,0.0333189405501,-0.255445212126
1505403908143453911,8998,1505403908143292006,0.973010063171,0.0452562831342,-0.226281404495
1505403908149701108,8999,1505403908149500197,0.973010063171,0.0452562831342,-0.226281404495
1505403908153586650,9000,1505403908153442383,0.963619172573,0.0116098690778,-0.267026990652
1505403908158639840,9001,1505403908158469105,0.963619172573,0.0116098690778,-0.267026990652
1505403908164892032,9002,1505403908164686324,0.955285847187,0.113724507391,-0.272938817739
1505403908175120001,9003,1505403908174797644,0.955285847187,0.113724507391,-0.272938817739
1505403908175122983,9004,1505403908174821652,0.952201783657,0.046448867768,-0.301917642355
1505403908178920560,9005,1505403908178552390,0.952201783657,0.046448867768,-0.301917642355
1505403908183867253,9006,1505403908183625734,0.955038845539,0.0227390211076,-0.29560726881
1505403908188827587,9007,1505403908188553910,0.955038845539,0.0227390211076,-0.29560726881
1505403908195638687,9008,1505403908195409461,0.957211434841,0.0,-0.289389520884
1505403908199486633,9009,1505403908199247281,0.957211434841,0.0,-0.289389520884
1505403908206697425,9010,1505403908206493102,0.950887441635,0.0114564755931,-0.30932483077
1505403908209136467,9011,1505403908208927142,0.950887441635,0.0114564755931,-0.30932483077
1505403908214003404,9012,1505403908213852063,0.958245098591,0.0771001800895,-0.275357782841
1505403908219417719,9013,1505403908219193941,0.958245098591,0.0771001800895,-0.275357782841
1505403908223808832,9014,1505403908223634796,0.960714221001,0.0,-0.277539670467
1505403908228811690,9015,1505403908228629885,0.960714221001,0.0,-0.277539670467
1505403908234170353,9016,1505403908234014076,0.966726303101,0.0111117968336,-0.255571335554
1505403908240952836,9017,1505403908240615129,0.966726303101,0.0111117968336,-0.255571335554
1505403908244839369,9018,1505403908244649755,0.962232470512,0.0324348025024,-0.270290017128
1505403908250760767,9019,1505403908250576518,0.962232470512,0.0324348025024,-0.270290017128
1505403908254300277,9020,1505403908254158981,0.96104735136,0.0110465213656,-0.276163041592
1505403908259891744,9021,1505403908259600033,0.96104735136,0.0110465213656,-0.276163041592
1505403908272005587,9022,1505403908271700471,0.95063906908,-0.0221078842878,-0.30951038003
1505403908275927134,9023,1505403908275691442,0.95063906908,-0.0221078842878,-0.30951038003
1505403908283446190,9024,1505403908283250607,0.955285847187,0.0,-0.295683711767
1505403908286743949,9025,1505403908286539482,0.955285847187,0.0,-0.295683711767
1505403908286765686,9026,1505403908286561164,0.941505253315,0.0224167909473,-0.336251884699
1505403908289238913,9027,1505403908289097670,0.941505253315,0.0224167909473,-0.336251884699
1505403908294346210,9028,1505403908294168804,0.968556880951,-0.0225245784968,-0.247770369053
1505403908300489865,9029,1505403908300276156,0.968556880951,-0.0225245784968,-0.247770369053
1505403908309220916,9030,1505403908309052502,0.972545385361,0.0231558419764,-0.231558427215
1505403908311323607,9031,1505403908311175729,0.972545385361,0.0231558419764,-0.231558427215
1505403908314509059,9032,1505403908314323742,0.961272060871,0.0228874310851,-0.274649173021
1505403908319735944,9033,1505403908319430645,0.961272060871,0.0228874310851,-0.274649173021
1505403908324484821,9034,1505403908324306293,0.924921691418,0.0660658404231,-0.374373078346
1505403908329472231,9035,1505403908329319737,0.924921691418,0.0660658404231,-0.374373078346
1505403908338962235,9036,1505403908338733216,0.963099956512,0.0348108410835,-0.266883134842
1505403908340221247,9037,1505403908340015094,0.963099956512,0.0348108410835,-0.266883134842
1505403908345891508,9038,1505403908345701194,0.958465397358,0.103929981589,-0.265598833561
1505403908349589594,9039,1505403908349428763,0.958465397358,0.103929981589,-0.265598833561
1505403908354750378,9040,1505403908354588843,0.947276413441,0.0544411726296,-0.315758794546
1505403908364417704,9041,1505403908364173806,0.947276413441,0.0544411726296,-0.315758794546
1505403908366283034,9042,1505403908366097132,0.960517644882,0.0457389354706,-0.274433612823
1505403908375711190,9043,1505403908375255132,0.960517644882,0.0457389354706,-0.274433612823
1505403908375718003,9044,1505403908375290280,0.950150728226,0.0782477110624,-0.301812589169
1505403908380000839,9045,1505403908379752266,0.950150728226,0.0782477110624,-0.301812589169
1505403908385197846,9046,1505403908385036933,0.955038845539,0.0227390211076,-0.29560726881
1505403908389710983,9047,1505403908389507790,0.955038845539,0.0227390211076,-0.29560726881
1505403908395191194,9048,1505403908395008008,0.929475367069,0.0765450298786,-0.360855132341
1505403908407148116,9049,1505403908406946718,0.929475367069,0.0765450298786,-0.360855132341
1505403908409013923,9050,1505403908408830904,0.957379639149,0.0700521692634,-0.280208677053
1505403908413660691,9051,1505403908413337961,0.957379639149,0.0700521692634,-0.280208677053
1505403908415573666,9052,1505403908414995376,0.971536576748,-0.0335012599826,-0.234508827329
1505403908420077738,9053,1505403908419859772,0.971536576748,-0.0335012599826,-0.234508827329
1505403908424841827,9054,1505403908424598921,0.969385385513,-0.0116793420166,-0.245266184211
1505403908430246816,9055,1505403908430123980,0.969385385513,-0.0116793420166,-0.245266184211
1505403908438757652,9056,1505403908438522197,0.9615239501,0.0,-0.274721115828
1505403908440474467,9057,1505403908440235518,0.9615239501,0.0,-0.274721115828
1505403908445786263,9058,1505403908445572950,0.960517644882,0.0457389354706,-0.274433612823
1505403908451300098,9059,1505403908451169741,0.960517644882,0.0457389354706,-0.274433612823
1505403908457044200,9060,1505403908456841251,0.967820703983,0.0450149141252,-0.247582033277
1505403908460800459,9061,1505403908460119192,0.967820703983,0.0450149141252,-0.247582033277
1505403908466453692,9062,1505403908466244295,0.954925775528,0.0353676192462,-0.29473015666
1505403908474659733,9063,1505403908474415865,0.954925775528,0.0353676192462,-0.29473015666
1505403908475769211,9064,1505403908475560089,0.959474623203,-0.0234018191695,-0.280821830034
1505403908480430880,9065,1505403908480187739,0.959474623203,-0.0234018191695,-0.280821830034
1505403908485719141,9066,1505403908485513139,0.963439881802,0.0704955980182,-0.258483856916
1505403908490454764,9067,1505403908490320723,0.963439881802,0.0704955980182,-0.258483856916
1505403908497144090,9068,1505403908496944568,0.948098182678,0.0351147465408,-0.316032737494
1505403908501334850,9069,1505403908500958571,0.948098182678,0.0351147465408,-0.316032737494
1505403908506902917,9070,1505403908506725279,0.95087146759,0.0,-0.309586048126
1505403908512136061,9071,1505403908511964383,0.95087146759,0.0,-0.309586048126
1505403908515459230,9072,1505403908515352199,0.949890553951,0.125889107585,-0.286111623049
1505403908520807868,9073,1505403908520597224,0.949890553951,0.125889107585,-0.286111623049
1505403908527644751,9074,1505403908527310516,0.952534198761,0.0336188524961,-0.302569687366
1505403908531684558,9075,1505403908531485495,0.952534198761,0.0336188524961,-0.302569687366
1505403908540093476,9076,1505403908539841223,0.97275018692,0.0327893309295,-0.229525327682
1505403908541213039,9077,1505403908541087949,0.97275018692,0.0327893309295,-0.229525327682
1505403908546701607,9078,1505403908546493710,0.960283458233,0.101677067578,-0.259841412306
1505403908550650017,9079,1505403908550480822,0.960283458233,0.101677067578,-0.259841412306
1505403908561419435,9080,1505403908561111110,0.955038845539,0.0227390211076,-0.29560726881
1505403908591757354,9081,1505403908591263944,0.955038845539,0.0227390211076,-0.29560726881
1505403908591773267,9082,1505403908591317637,0.967820703983,-0.0450149141252,-0.247582033277
1505403908592325910,9083,1505403908592152439,0.967820703983,-0.0450149141252,-0.247582033277
1505403908593774356,9084,1505403908593614939,0.960495352745,0.0213443413377,-0.277476429939
1505403908599118909,9085,1505403908598816997,0.960495352745,0.0213443413377,-0.277476429939
1505403908599122921,9086,1505403908598843597,0.955038845539,0.0227390211076,-0.29560726881
1505403908600891133,9087,1505403908600702828,0.955038845539,0.0227390211076,-0.29560726881
1505403908609107104,9088,1505403908608832411,0.962231218815,0.0447549372911,-0.268529623747
1505403908609116237,9089,1505403908608864760,0.962231218815,0.0447549372911,-0.268529623747
1505403908609127421,9090,1505403908608875576,0.97014683485,0.131748333573,-0.203611060977
1505403908611868774,9091,1505403908611652621,0.97014683485,0.131748333573,-0.203611060977
1505403908616372381,9092,1505403908616148626,0.96472632885,-0.0340491645038,-0.261043608189
1505403908634192582,9093,1505403908634024832,0.96472632885,-0.0340491645038,-0.261043608189
1505403908638139347,9094,1505403908637933308,0.956264138222,-0.0444774031639,-0.289103120565
1505403908643983287,9095,1505403908643606628,0.956264138222,-0.0444774031639,-0.289103120565
1505403908643987031,9096,1505403908643651600,0.959990799427,0.0755048915744,-0.269660353661
1505403908643989979,9097,1505403908643666177,0.959990799427,0.0755048915744,-0.269660353661
1505403908647779700,9098,1505403908647358528,0.96923148632,0.0570136159658,-0.239457190037
1505403908652932583,9099,1505403908652769877,0.96923148632,0.0570136159658,-0.239457190037
1505403908656729390,9100,1505403908656483652,0.956264138222,0.0444774031639,-0.289103120565
1505403908664747626,9101,1505403908664435497,0.956264138222,0.0444774031639,-0.289103120565
1505403908666557657,9102,1505403908666372865,0.97585183382,0.0114806098863,-0.218131586909
1505403908673506971,9103,1505403908673286868,0.97585183382,0.0114806098863,-0.218131586909
1505403908681238801,9104,1505403908681014634,0.945343077183,-0.0461142957211,-0.322800070047
1505403908683684594,9105,1505403908683275463,0.945343077183,-0.0461142957211,-0.322800070047
1505403908686617690,9106,1505403908686323744,0.967820703983,0.0450149141252,-0.247582033277
1505403908691927678,9107,1505403908691732406,0.967820703983,0.0450149141252,-0.247582033277
1505403908696831023,9108,1505403908696652475,0.961272060871,0.0228874310851,-0.274649173021
1505403908707803361,9109,1505403908707516523,0.961272060871,0.0228874310851,-0.274649173021
1505403908707811469,9110,1505403908707561584,0.956974089146,0.0652482360601,-0.282742351294
1505403908711409131,9111,1505403908711230526,0.956974089146,0.0652482360601,-0.282742351294
1505403908717178565,9112,1505403908716949949,0.959737360477,0.0,-0.280898749828
1505403908722081323,9113,1505403908721691309,0.959737360477,0.0,-0.280898749828
1505403908726872450,9114,1505403908726703376,0.966763317585,0.0543125458062,-0.249837711453
1505403908731746252,9115,1505403908731585588,0.966763317585,0.0543125458062,-0.249837711453
1505403908740993201,9116,1505403908740734404,0.978537142277,-0.0227566771209,-0.204810097814
1505403908743193573,9117,1505403908743017045,0.978537142277,-0.0227566771209,-0.204810097814
1505403908747040788,9118,1505403908746903357,0.966347455978,0.0460165478289,-0.253091007471
1505403908755289603,9119,1505403908755040019,0.966347455978,0.0460165478289,-0.253091007471
1505403908758112526,9120,1505403908757882747,0.962954699993,0.0223942957819,-0.268731564283
1505403908763465448,9121,1505403908763322833,0.962954699993,0.0223942957819,-0.268731564283
1505403908768368092,9122,1505403908768185706,0.965071082115,0.0689336508512,-0.252756714821
1505403908774083406,9123,1505403908773921960,0.965071082115,0.0689336508512,-0.252756714821
1505403908779033093,9124,1505403908778777581,0.969122469425,0.0779753699899,-0.23392611742
1505403908785529515,9125,1505403908785287166,0.969122469425,0.0779753699899,-0.23392611742
1505403908790268998,9126,1505403908790116667,0.968856930733,0.0350189246237,-0.245132476091
1505403908792193379,9127,1505403908792052709,0.968856930733,0.0350189246237,-0.245132476091
1505403908800936894,9128,1505403908800509764,0.954546630383,0.0329154022038,-0.296238601208
1505403908807588240,9129,1505403908807372961,0.954546630383,0.0329154022038,-0.296238601208
1505403908808826516,9130,1505403908808662043,0.954546630383,0.0329154022038,-0.296238601208
1505403908814345190,9131,1505403908814174314,0.954546630383,0.0329154022038,-0.296238601208
1505403908827275389,9132,1505403908827091288,0.963099956512,0.0348108410835,-0.266883134842
1505403908832126079,9133,1505403908831972561,0.963099956512,0.0348108410835,-0.266883134842
1505403908832996171,9134,1505403908832754540,0.95638525486,0.0787611380219,-0.2812897861
1505403908833706187,9135,1505403908833605131,0.95638525486,0.0787611380219,-0.2812897861
1505403908840711890,9136,1505403908840377971,0.964532017708,0.0219211820513,-0.263054192066
1505403908844035090,9137,1505403908843799555,0.964532017708,0.0219211820513,-0.263054192066
1505403908847982979,9138,1505403908847818849,0.980580687523,0.0,-0.196116134524
1505403908855404617,9139,1505403908855175409,0.980580687523,0.0,-0.196116134524
1505403908874707761,9140,1505403908874497783,0.955285847187,0.0,-0.295683711767
1505403908885083611,9141,1505403908884903224,0.955285847187,0.0,-0.295683711767
1505403908887184719,9142,1505403908887062390,0.974893450737,-0.0221566688269,-0.221566691995
1505403908888796842,9143,1505403908888646249,0.974893450737,-0.0221566688269,-0.221566691995
1505403908893077318,9144,1505403908892914417,0.952534198761,0.0336188524961,-0.302569687366
1505403908899059306,9145,1505403908898814035,0.952534198761,0.0336188524961,-0.302569687366
1505403908909633959,9146,1505403908909462950,0.965574979782,0.0235506091267,-0.259056717157
1505403908916848178,9147,1505403908916663105,0.965574979782,0.0235506091267,-0.259056717157
1505403908916854116,9148,1505403908916690968,0.96627342701,0.0596465095878,-0.250515341759
1505403908918249827,9149,1505403908918097457,0.96627342701,0.0596465095878,-0.250515341759
1505403908919274167,9150,1505403908919058996,0.96102887392,0.0670485273004,-0.268194109201
1505403908923851185,9151,1505403908923515767,0.96102887392,0.0670485273004,-0.268194109201
1505403908923856512,9152,1505403908923551917,0.97275018692,0.0327893309295,-0.229525327682
1505403908924275661,9153,1505403908924048869,0.97275018692,0.0327893309295,-0.229525327682
1505403908929408961,9154,1505403908929221771,0.962682664394,-0.010816658847,-0.270416468382
1505403908933188151,9155,1505403908933083949,0.962682664394,-0.010816658847,-0.270416468382
1505403908941058627,9156,1505403908940814226,0.962954699993,0.0223942957819,-0.268731564283
1505403908942965467,9157,1505403908942766169,0.962954699993,0.0223942957819,-0.268731564283
1505403908953333542,9158,1505403908953134692,0.947276413441,0.0544411726296,-0.315758794546
1505403908956096528,9159,1505403908955904715,0.947276413441,0.0544411726296,-0.315758794546
1505403908960016715,9160,1505403908959670370,0.968802690506,0.0,-0.247833251953
1505403908963109989,9161,1505403908962924533,0.968802690506,0.0,-0.247833251953
1505403908968148828,9162,1505403908967911469,0.946374177933,0.0111338142306,-0.322880595922
1505403908973734458,9163,1505403908973553655,0.946374177933,0.0111338142306,-0.322880595922
1505403908978620149,9164,1505403908978314542,0.976911664009,0.0112288696691,-0.213348522782
1505403908983870916,9165,1505403908983667938,0.976911664009,0.0112288696691,-0.213348522782
1505403908990761364,9166,1505403908990560754,0.976467251778,0.023816274479,-0.214346468449
1505403908994459923,9167,1505403908994256501,0.976467251778,0.023816274479,-0.214346468449
1505403909000399014,9168,1505403909000037604,0.951578676701,0.0559752136469,-0.302266150713
1505403909007457467,9169,1505403909007201384,0.951578676701,0.0559752136469,-0.302266150713
1505403909008324429,9170,1505403909008152731,0.967820703983,0.0450149141252,-0.247582033277
1505403909016578089,9171,1505403909016427427,0.967820703983,0.0450149141252,-0.247582033277
1505403909018673810,9172,1505403909018510427,0.969906747341,-0.0220433361828,-0.242476686835
1505403909024354380,9173,1505403909024161621,0.969906747341,-0.0220433361828,-0.242476686835
1505403909029921223,9174,1505403909029710688,0.968556880951,-0.0225245784968,-0.247770369053
1505403909033578432,9175,1505403909033381099,0.968556880951,-0.0225245784968,-0.247770369053
1505403909040217689,9176,1505403909039956264,0.95306968689,0.0680764093995,-0.294997751713
1505403909045670579,9177,1505403909045196501,0.95306968689,0.0680764093995,-0.294997751713
1505403909048757641,9178,1505403909048564596,0.948683261871,0.0,-0.316227763891
1505403909055982714,9179,1505403909055812133,0.948683261871,0.0,-0.316227763891
1505403909060060485,9180,1505403909059583962,0.955006599426,0.0109770875424,-0.296381354332
1505403909064189093,9181,1505403909064016429,0.955006599426,0.0109770875424,-0.296381354332
1505403909075490941,9182,1505403909075300772,0.959474623203,0.0234018191695,-0.280821830034
1505403909075497129,9183,1505403909075325759,0.959474623203,0.0234018191695,-0.280821830034
1505403909080508662,9184,1505403909080250217,0.97065192461,0.0510869435966,-0.234999939799
1505403909086008080,9185,1505403909085823337,0.97065192461,0.0510869435966,-0.234999939799
1505403909092742167,9186,1505403909092563207,0.956522464752,0.106280274689,-0.27160513401
1505403909095211525,9187,1505403909094694152,0.956522464752,0.106280274689,-0.27160513401
1505403909099172194,9188,1505403909098739633,0.963099956512,0.0348108410835,-0.266883134842
1505403909107641134,9189,1505403909107451427,0.963099956512,0.0348108410835,-0.266883134842
1505403909108733833,9190,1505403909108641063,0.952201783657,0.046448867768,-0.301917642355
1505403909115156804,9191,1505403909114965821,0.952201783657,0.046448867768,-0.301917642355
1505403909119341425,9192,1505403909119104482,0.968556880951,0.0225245784968,-0.247770369053
1505403909127939170,9193,1505403909127694835,0.968556880951,0.0225245784968,-0.247770369053
1505403909128950418,9194,1505403909128786030,0.962232470512,0.0324348025024,-0.270290017128
1505403909140026188,9195,1505403909139589941,0.962232470512,0.0324348025024,-0.270290017128
1505403909142657854,9196,1505403909142459908,0.974718391895,0.0117435948923,-0.223128303885
1505403909145560106,9197,1505403909145366569,0.974718391895,0.0117435948923,-0.223128303885
1505403909152970528,9198,1505403909152713220,0.956935286522,0.0345880202949,-0.2882335186
1505403909156253080,9199,1505403909156078335,0.956935286522,0.0345880202949,-0.2882335186
1505403909159223691,9200,1505403909158965796,0.943290948868,0.0438739992678,-0.32905498147
1505403909164304147,9201,1505403909164007233,0.943290948868,0.0438739992678,-0.32905498147
1505403909176862750,9202,1505403909176618669,0.970431208611,0.0473381057382,-0.236690536141
1505403909176867466,9203,1505403909176667343,0.970431208611,0.0473381057382,-0.236690536141
1505403909180241505,9204,1505403909180011783,0.966249227524,-0.0333189405501,-0.255445212126
1505403909186740212,9205,1505403909186558470,0.966249227524,-0.0333189405501,-0.255445212126
1505403909191121134,9206,1505403909190960495,0.963874280453,0.077553100884,-0.254817336798
1505403909194804639,9207,1505403909194433246,0.963874280453,0.077553100884,-0.254817336798
1505403909199284366,9208,1505403909199083004,0.95643645525,0.032239433378,-0.290154874325
1505403909206273733,9209,1505403909206096934,0.95643645525,0.032239433378,-0.290154874325
1505403909209487416,9210,1505403909209266457,0.968139886856,0.0531944967806,-0.244694694877
1505403909214791569,9211,1505403909214553089,0.968139886856,0.0531944967806,-0.244694694877
1505403909219804128,9212,1505403909219487621,0.95866382122,0.0828474909067,-0.272213190794
1505403909224816932,9213,1505403909224583309,0.95866382122,0.0828474909067,-0.272213190794
1505403909229960058,9214,1505403909229804797,0.970241248608,-0.0342438071966,-0.239706650376
1505403909234469759,9215,1505403909234287610,0.970241248608,-0.0342438071966,-0.239706650376
1505403909240364726,9216,1505403909239956114,0.96104735136,-0.0110465213656,-0.276163041592
1505403909244978675,9217,1505403909244769810,0.96104735136,-0.0110465213656,-0.276163041592
1505403909250828040,9218,1505403909250631980,0.94057905674,0.0874957293272,-0.328108966351
1505403909255355978,9219,1505403909255199448,0.94057905674,0.0874957293272,-0.328108966351
1505403909260674365,9220,1505403909260402435,0.943571150303,0.0777058601379,-0.321924269199
1505403909264812815,9221,1505403909264632792,0.943571150303,0.0777058601379,-0.321924269199
1505403909274752298,9222,1505403909274560043,0.957444429398,0.0115354750305,-0.288386881351
1505403909275967791,9223,1505403909275708567,0.957444429398,0.0115354750305,-0.288386881351
1505403909282944179,9224,1505403909282696365,0.959990799427,0.0755048915744,-0.269660353661
1505403909285287849,9225,1505403909285118586,0.959990799427,0.0755048915744,-0.269660353661
1505403909289891274,9226,1505403909289733518,0.954641878605,0.0212142635137,-0.296999692917
1505403909295038401,9227,1505403909294848474,0.954641878605,0.0212142635137,-0.296999692917
1505403909300082386,9228,1505403909299759165,0.957551777363,-0.0239387955517,-0.287265539169
1505403909306572292,9229,1505403909306358230,0.957551777363,-0.0239387955517,-0.287265539169
1505403909310206670,9230,1505403909310018756,0.972806274891,0.0,-0.231620535254
1505403909317951288,9231,1505403909317768648,0.972806274891,0.0,-0.231620535254
1505403909320097845,9232,1505403909319846077,0.960714221001,0.0,-0.277539670467
1505403909325001473,9233,1505403909324819431,0.960714221001,0.0,-0.277539670467
1505403909331454944,9234,1505403909331240467,0.952534198761,0.0336188524961,-0.302569687366
1505403909339838049,9235,1505403909339492719,0.952534198761,0.0336188524961,-0.302569687366
1505403909344529512,9236,1505403909344221058,0.95868730545,0.0467652343214,-0.280591398478
1505403909345889162,9237,1505403909345723506,0.95868730545,0.0467652343214,-0.280591398478
1505403909350248858,9238,1505403909350043017,0.956974327564,0.0222552176565,-0.289317816496
1505403909356087029,9239,1505403909355728252,0.956974327564,0.0222552176565,-0.289317816496
1505403909361377338,9240,1505403909361071425,0.953330695629,0.0120674772188,-0.301686912775
1505403909366463017,9241,1505403909366290782,0.953330695629,0.0120674772188,-0.301686912775
1505403909378277440,9242,1505403909378093995,0.961902976036,0.0118753453717,-0.273132950068
1505403909381059382,9243,1505403909380787249,0.961902976036,0.0118753453717,-0.273132950068
1505403909385506940,9244,1505403909385284991,0.959304451942,0.0112859345973,-0.282148361206
1505403909387466726,9245,1505403909387264040,0.959304451942,0.0112859345973,-0.282148361206
1505403909390430855,9246,1505403909390222570,0.975436866283,0.0560595914721,-0.213026449084
1505403909395406147,9247,1505403909395202765,0.975436866283,0.0560595914721,-0.213026449084
1505403909400814236,9248,1505403909400418144,0.963439881802,-0.0704955980182,-0.258483856916
1505403909408161275,9249,1505403909407735616,0.963439881802,-0.0704955980182,-0.258483856916
1505403909410733287,9250,1505403909410563386,0.963099956512,0.0348108410835,-0.266883134842
1505403909416217838,9251,1505403909415969756,0.963099956512,0.0348108410835,-0.266883134842
1505403909422075844,9252,1505403909421889567,0.959264218807,0.0685188695788,-0.274075478315
1505403909425889004,9253,1505403909425688043,0.959264218807,0.0685188695788,-0.274075478315
1505403909434276566,9254,1505403909434124336,0.965842843056,0.0,-0.259128570557
1505403909444682826,9255,1505403909444251796,0.965842843056,0.0,-0.259128570557
1505403909444784702,9256,1505403909444302728,0.960578620434,0.0331234000623,-0.276028335094
1505403909448702236,9257,1505403909448252747,0.960578620434,0.0331234000623,-0.276028335094
1505403909450814802,9258,1505403909450575165,0.961272060871,-0.0228874310851,-0.274649173021
1505403909464696061,9259,1505403909464447554,0.961272060871,-0.0228874310851,-0.274649173021
1505403909468510370,9260,1505403909468319444,0.949960649014,0.0474980324507,-0.30873721838
1505403909477442309,9261,1505403909477257936,0.949960649014,0.0474980324507,-0.30873721838
1505403909478641003,9262,1505403909478207913,0.953865766525,0.0588806010783,-0.294403016567
1505403909481307818,9263,1505403909481070444,0.953865766525,0.0588806010783,-0.294403016567
1505403909493967336,9264,1505403909493683483,0.941415071487,0.0116224084049,-0.337049841881
1505403909494222353,9265,1505403909493720765,0.941415071487,0.0116224084049,-0.337049841881
1505403909494225733,9266,1505403909493754793,0.954925775528,0.0353676192462,-0.29473015666
1505403909496183686,9267,1505403909496008438,0.954925775528,0.0353676192462,-0.29473015666
1505403909501179081,9268,1505403909500944651,0.955285847187,0.0,-0.295683711767
1505403909506610450,9269,1505403909506401931,0.955285847187,0.0,-0.295683711767
1505403909511009081,9270,1505403909510746249,0.950920760632,0.0648355036974,-0.302565693855
1505403909516302016,9271,1505403909516064299,0.950920760632,0.0648355036974,-0.302565693855
1505403909521272807,9272,1505403909520980631,0.970747292042,0.0114205563441,-0.23983168602
1505403909526165066,9273,1505403909525981638,0.970747292042,0.0114205563441,-0.23983168602
1505403909532545025,9274,1505403909532300072,0.946192622185,-0.0119771212339,-0.323382288218
1505403909544333316,9275,1505403909544049685,0.946192622185,-0.0119771212339,-0.323382288218
1505403909547415230,9276,1505403909547137330,0.968856930733,0.0350189246237,-0.245132476091
1505403909547420752,9277,1505403909547168342,0.968856930733,0.0350189246237,-0.245132476091
1505403909552599607,9278,1505403909552234604,0.950388610363,-0.0343513973057,-0.309162557125
1505403909557242785,9279,1505403909556884795,0.950388610363,-0.0343513973057,-0.309162557125
1505403909562045788,9280,1505403909561267725,0.948683321476,0.0,-0.316227793694
1505403909567242936,9281,1505403909567062759,0.948683321476,0.0,-0.316227793694
1505403909577500778,9282,1505403909577339870,0.951578676701,0.0559752136469,-0.302266150713
1505403909578979601,9283,1505403909578367138,0.951578676701,0.0559752136469,-0.302266150713
1505403909582764335,9284,1505403909582481062,0.967375397682,-0.0358287207782,-0.250801026821
1505403909586602231,9285,1505403909586437511,0.967375397682,-0.0358287207782,-0.250801026821
1505403909592556074,9286,1505403909592379267,0.960279345512,0.0592765025795,-0.27267190814
1505403909596563188,9287,1505403909596349404,0.960279345512,0.0592765025795,-0.27267190814
1505403909606950904,9288,1505403909606732856,0.941415071487,-0.0116224084049,-0.337049841881
1505403909609848091,9289,1505403909609668122,0.941415071487,-0.0116224084049,-0.337049841881
1505403909614156297,9290,1505403909613921080,0.971247732639,0.023688968271,-0.236889690161
1505403909617426353,9291,1505403909617238112,0.971247732639,0.023688968271,-0.236889690161
1505403909621932307,9292,1505403909621625089,0.948402762413,-0.0243180207908,-0.316134274006
1505403909627084091,9293,1505403909626716059,0.948402762413,-0.0243180207908,-0.316134274006
1505403909631994039,9294,1505403909631644744,0.966227352619,0.0814890563488,-0.244467169046
1505403909640077050,9295,1505403909639591574,0.966227352619,0.0814890563488,-0.244467169046
1505403909642566445,9296,1505403909642336320,0.966249227524,0.0333189405501,-0.255445212126
1505403909647174278,9297,1505403909646915741,0.966249227524,0.0333189405501,-0.255445212126
1505403909651883859,9298,1505403909651562174,0.965223789215,0.0113555742428,-0.261178195477
1505403909658144766,9299,1505403909657861143,0.965223789215,0.0113555742428,-0.261178195477
1505403909662110561,9300,1505403909661940502,0.965574979782,0.0235506091267,-0.259056717157
1505403909672372202,9301,1505403909672175426,0.965574979782,0.0235506091267,-0.259056717157
1505403909675136368,9302,1505403909674958212,0.961694061756,0.0721270516515,-0.264465868473
1505403909681245199,9303,1505403909680723355,0.961694061756,0.0721270516515,-0.264465868473
1505403909685089625,9304,1505403909684865560,0.958815991879,0.0338405668736,-0.282004714012
1505403909689426250,9305,1505403909689238466,0.958815991879,0.0338405668736,-0.282004714012
1505403909692024403,9306,1505403909691780377,0.967470943928,0.0496138967574,-0.248069480062
1505403909697598917,9307,1505403909697451926,0.967470943928,0.0496138967574,-0.248069480062
1505403909707568444,9308,1505403909707222940,0.972545385361,0.0231558419764,-0.231558427215
1505403909711258128,9309,1505403909711093972,0.972545385361,0.0231558419764,-0.231558427215
1505403909712654775,9310,1505403909712518897,0.95306968689,0.0680764093995,-0.294997751713
1505403909717251819,9311,1505403909717035079,0.95306968689,0.0680764093995,-0.294997751713
1505403909722864133,9312,1505403909722617317,0.95508402586,0.0666337683797,-0.288746327162
1505403909727248987,9313,1505403909726936673,0.95508402586,0.0666337683797,-0.288746327162
1505403909732720559,9314,1505403909732538241,0.96711575985,0.0230265650898,-0.253292232752
1505403909741688056,9315,1505403909741453526,0.96711575985,0.0230265650898,-0.253292232752
1505403909742838398,9316,1505403909742643708,0.966347455978,0.0460165478289,-0.253091007471
1505403909748728683,9317,1505403909748522173,0.966347455978,0.0460165478289,-0.253091007471
1505403909753688167,9318,1505403909753526936,0.963196337223,0.0,-0.268798977137
1505403909757735434,9319,1505403909757263718,0.963196337223,0.0,-0.268798977137
1505403909763761835,9320,1505403909763459717,0.969385385513,-0.0116793420166,-0.245266184211
1505403909773581943,9321,1505403909773170502,0.969385385513,-0.0116793420166,-0.245266184211
1505403909773590167,9322,1505403909773207134,0.955457091331,-0.0117957666516,-0.29489415884
1505403909777426060,9323,1505403909777288308,0.955457091331,-0.0117957666516,-0.29489415884
1505403909783831673,9324,1505403909783616767,0.950765371323,0.0237691346556,-0.308998733759
1505403909787976205,9325,1505403909787821337,0.950765371323,0.0237691346556,-0.308998733759
1505403909792890453,9326,1505403909792713226,0.9615239501,0.0,-0.274721115828
1505403909797688900,9327,1505403909797587294,0.9615239501,0.0,-0.274721115828
1505403909806723170,9328,1505403909806417378,0.932390451431,0.0575549677014,-0.356840789318
1505403909808333409,9329,1505403909808123053,0.932390451431,0.0575549677014,-0.356840789318
1505403909812744404,9330,1505403909812570727,0.948098182678,-0.0351147465408,-0.316032737494
1505403909821522707,9331,1505403909821337689,0.948098182678,-0.0351147465408,-0.316032737494
1505403909826941652,9332,1505403909826720952,0.957826256752,0.0,-0.287347882986
1505403909827529301,9333,1505403909827380509,0.957826256752,0.0,-0.287347882986
1505403909833122446,9334,1505403909832857595,0.941415071487,0.0116224084049,-0.337049841881
1505403909843082002,9335,1505403909842856291,0.941415071487,0.0116224084049,-0.337049841881
1505403909843928591,9336,1505403909843801653,0.945650100708,-0.0359107628465,-0.323196858168
1505403909847832509,9337,1505403909847698059,0.945650100708,-0.0359107628465,-0.323196858168
1505403909854162187,9338,1505403909853978423,0.948626935482,-0.0109037579969,-0.316208988428
1505403909858955300,9339,1505403909858553426,0.948626935482,-0.0109037579969,-0.316208988428
1505403909863563443,9340,1505403909863256120,0.967372179031,0.0,-0.253359377384
1505403909874240766,9341,1505403909873790767,0.967372179031,0.0,-0.253359377384
1505403909874244680,9342,1505403909873823410,0.950887441635,0.0114564755931,-0.30932483077
1505403909877871318,9343,1505403909877717096,0.950887441635,0.0114564755931,-0.30932483077
1505403909883164332,9344,1505403909882967520,0.960578620434,-0.0331234000623,-0.276028335094
1505403909889268952,9345,1505403909889108473,0.960578620434,-0.0331234000623,-0.276028335094
1505403909896117396,9346,1505403909895901465,0.95868730545,0.0467652343214,-0.280591398478
1505403909904872350,9347,1505403909904676193,0.95868730545,0.0467652343214,-0.280591398478
1505403909908348811,9348,1505403909908091427,0.959737360477,0.0,-0.280898749828
1505403909909445118,9349,1505403909909245570,0.959737360477,0.0,-0.280898749828
1505403909913208378,9350,1505403909912997276,0.962954699993,0.0223942957819,-0.268731564283
1505403909918256130,9351,1505403909918083943,0.962954699993,0.0223942957819,-0.268731564283
1505403909923615545,9352,1505403909923140682,0.954298973083,0.0454428084195,-0.295378267765
1505403909929965655,9353,1505403909929783921,0.954298973083,0.0454428084195,-0.295378267765
1505403909940252051,9354,1505403909939519321,0.968802690506,0.0,-0.247833251953
1505403909942377121,9355,1505403909942048330,0.968802690506,0.0,-0.247833251953
1505403909945410376,9356,1505403909945237610,0.950472414494,0.0370313934982,-0.308594942093
1505403909948554860,9357,1505403909948392837,0.950472414494,0.0370313934982,-0.308594942093
1505403909953482812,9358,1505403909953295790,0.959498405457,-0.0364366471767,-0.279347628355
1505403909959861333,9359,1505403909959555480,0.959498405457,-0.0364366471767,-0.279347628355
1505403909967239232,9360,1505403909966995528,0.927038252354,0.0361183732748,-0.373223185539
1505403909973615252,9361,1505403909973429332,0.927038252354,0.0361183732748,-0.373223185539
1505403909973618462,9362,1505403909973458637,0.958093881607,0.0124427778646,-0.286183893681
1505403909978825942,9363,1505403909978527158,0.958093881607,0.0124427778646,-0.286183893681
1505403909983767045,9364,1505403909983580911,0.945343077183,0.0461142957211,-0.322800070047
1505403909991080754,9365,1505403909990859523,0.945343077183,0.0461142957211,-0.322800070047
1505403909994168924,9366,1505403909994035783,0.941194653511,0.0,-0.337864756584
1505403910005951598,9367,1505403910005750494,0.941194653511,0.0,-0.337864756584
1505403910006988418,9368,1505403910006776643,0.938057184219,-0.0246857143939,-0.345600008965
1505403910010169232,9369,1505403910010010139,0.938057184219,-0.0246857143939,-0.345600008965
1505403910013799928,9370,1505403910013608089,0.974718391895,-0.0117435948923,-0.223128303885
1505403910020117757,9371,1505403910019836095,0.974718391895,-0.0117435948923,-0.223128303885
1505403910025489727,9372,1505403910025280834,0.970431208611,-0.0473381057382,-0.236690536141
1505403910029219974,9373,1505403910028990183,0.970431208611,-0.0473381057382,-0.236690536141
1505403910040244324,9374,1505403910040015629,0.950887441635,-0.0114564755931,-0.30932483077
1505403910040263112,9375,1505403910040071460,0.950887441635,-0.0114564755931,-0.30932483077
1505403910048428274,9376,1505403910048208041,0.953330695629,0.0120674772188,-0.301686912775
1505403910049505156,9377,1505403910049338202,0.953330695629,0.0120674772188,-0.301686912775
1505403910053852421,9378,1505403910053717792,0.928226649761,0.0232056677341,-0.371290683746
1505403910059271730,9379,1505403910058988666,0.928226649761,0.0232056677341,-0.371290683746
1505403910066565538,9380,1505403910066364907,0.960065066814,0.0121527230367,-0.279512614012
1505403910080786979,9381,1505403910079140750,0.960065066814,0.0121527230367,-0.279512614012
1505403910080793414,9382,1505403910079195325,0.957551777363,0.0239387955517,-0.287265539169
1505403910080797380,9383,1505403910079248302,0.957551777363,0.0239387955517,-0.287265539169
1505403910084146839,9384,1505403910083934429,0.957551777363,-0.0239387955517,-0.287265539169
