%time,field.linear.x,field.linear.y,field.linear.z,field.angular.x,field.angular.y,field.angular.z
1505403906767794413,0.141134941762,-0.203211529791,0.0263299942017,-0.117415093091,-0.254907008988,-0.0102157413734
1505403906775753953,0.139084715489,-0.204358580587,0.0274027511477,-0.114323357725,-0.257981648975,-0.0102157413734
1505403906778044033,0.13952080871,-0.201496774546,0.0279483217746,-0.114191271815,-0.255769180473,-0.0102157413734
1505403906783402301,0.139008287448,-0.198326892118,0.0279483217746,-0.113646395161,-0.252604699144,-0.0102157413734
1505403906786478165,0.13859091362,-0.195538554595,0.0279483217746,-0.113200558671,-0.249820770826,-0.0102157413734
1505403906791672520,0.138477043877,-0.193752950708,0.0279483217746,-0.11306845392,-0.248036423356,-0.0102157413734
1505403906799924019,0.139067618575,-0.189833077665,0.0288861431181,-0.112705155972,-0.24646701947,-0.0102157413734
1505403906801869100,0.13955028925,-0.189585025836,0.0288861431181,-0.112886807026,-0.246351033906,-0.00900387955542
1505403906808565252,0.140030591854,-0.188400616919,0.0294426977634,-0.112804238791,-0.245649899197,-0.00900387955542
1505403906819387620,0.140216733404,-0.187902467197,0.0294426977634,-0.112985887577,-0.245150093693,-0.00900387955542
1505403906821453496,0.149018568589,-0.207133570515,0.0294426977634,-0.121960518181,-0.264301167893,-0.00900387955542
1505403906822136500,0.149174876693,-0.205393690503,0.0294426977634,-0.12210115449,-0.262559951045,-0.00900387955542
1505403906826334248,0.149557611118,-0.203887514708,0.0294426977634,-0.122470312159,-0.261050390255,-0.00900387955542
1505403906831577465,0.150412356062,-0.198627529235,0.030305845663,-0.122435155393,-0.258079143574,-0.00900387955542
1505403906843405518,0.150761135141,-0.19544412685,0.0308102015406,-0.122259366182,-0.255835048745,-0.00900387955542
1505403906846720667,0.150386932843,-0.194049208219,0.0308102015406,-0.121872619542,-0.254443555884,-0.00900387955542
1505403906847353062,0.149727116353,-0.19313063486,0.0308102015406,-0.121204559186,-0.253530960586,-0.00900387955542
1505403906851795946,0.140655105492,-0.188160257056,0.0308102015406,-0.111995023541,-0.248684433218,-0.00862931532213
1505403906856534250,0.139893546894,-0.188367060697,0.0308102015406,-0.11123527785,-0.248897800808,-0.00862931532213
1505403906865989055,0.140042855013,-0.187410225222,0.0315942056477,-0.110607608,-0.249714736567,-0.00862931532213
1505403906866751741,0.139524603273,-0.188122859997,0.0315942056477,-0.110095525031,-0.250431816911,-0.00862931532213
1505403906875151710,0.139666731212,-0.187728213868,0.0319733656943,-0.10986425134,-0.251100131699,-0.00862931532213
1505403906876730271,0.139458255205,-0.188913605821,0.0319733656943,-0.109666012089,-0.2522872785,-0.00862931532213
1505403906883329876,0.139500449012,-0.189767510426,0.0319733656943,-0.109715572845,-0.253140787213,-0.00862931532213
1505403906892144173,0.140160871967,-0.188974180219,0.0328579172492,-0.10950080871,-0.254226919351,-0.00862931532213
1505403906894350765,0.139974973187,-0.189456669596,0.0328579172492,-0.109319080353,-0.254710994924,-0.00862931532213
1505403906897511948,0.139773994782,-0.18977170011,0.0328579172492,-0.109120827894,-0.255027747994,-0.00862931532213
1505403906907662346,0.140394240384,-0.189657775799,0.0331976152956,-0.108856482525,-0.256012911755,-0.00647462403863
1505403906911918773,0.140124814408,-0.190440445397,0.0331976152956,-0.108592129652,-0.256797309368,-0.00647462403863
1505403906919657812,0.140822174388,-0.193104783318,0.0340383797884,-0.108476471929,-0.261083180952,-0.00647462403863
1505403906924044052,0.140767091606,-0.193956480411,0.0340383797884,-0.108426904681,-0.26193521683,-0.00647462403863
1505403906931841800,0.140999576094,-0.193889257805,0.0344256199896,-0.108278199187,-0.262870155845,-0.00647462403863
1505403906934460945,0.141272662016,-0.195094733218,0.0344256199896,-0.108559084331,-0.264073837875,-0.00647462403863
1505403906940950305,0.14166833265,-0.195173477682,0.034861035645,-0.108526039863,-0.265108846682,-0.00647462403863
1505403906942293415,0.141779120163,-0.195925782032,0.034861035645,-0.108641695907,-0.265860417961,-0.00647462403863
1505403906947382581,0.141818205865,-0.192441095287,0.034861035645,-0.108658218911,-0.262375551192,-0.00647462403863
1505403906951873697,0.142541459363,-0.191148255597,0.0353040471673,-0.1083938587,-0.261973994729,-0.00441034637712
1505403906957666833,0.142909733695,-0.189243942134,0.0356363318861,-0.108426904681,-0.261306481871,-0.00441034637712
1505403906962826352,0.142516797978,-0.188422534324,0.0356363318861,-0.108030350104,-0.260486815027,-0.00441034637712
1505403906968065396,0.143119081602,-0.187400697808,0.0361216291785,-0.108146014063,-0.260186724758,-0.00441034637712
1505403906981185955,0.143362036419,-0.186151823909,0.0365448631346,-0.107964256815,-0.259851978636,-0.00441034637712
1505403906983221148,0.14327883116,-0.186284719449,0.0365448631346,-0.107881638479,-0.259985239847,-0.00441034637712
1505403906990381453,0.143529112968,-0.185362181889,0.0368616804481,-0.107815543021,-0.260085162265,-0.00441034637712
1505403907009099109,0.144591683052,-0.183452443698,0.0376199781895,-0.107534631713,-0.260234302719,-0.00216218968109
1505403907014455170,0.144739389265,-0.18392092637,0.0376199781895,-0.107683350529,-0.260702464927,-0.00216218968109
1505403907015841087,0.144623359133,-0.184087175776,0.0376199781895,-0.107567680131,-0.260868964824,-0.00216218968109
1505403907016640206,0.144656191444,-0.184187554228,0.0376199781895,-0.107600729402,-0.260969272052,-0.00216218968109
1505403907018297446,0.144886193528,-0.183038131442,0.0380476228893,-0.107402434764,-0.260667929866,-0.00216218968109
1505403907021966287,0.144606102865,-0.182652305815,0.0380476228893,-0.107121510528,-0.26028271075,-0.00216218968109
1505403907024566951,0.144456653549,-0.182985369416,0.0380476228893,-0.106972781708,-0.260616096709,-0.00216218968109
1505403907027831893,0.145081672817,-0.182760159479,0.0384923815727,-0.107154560581,-0.261318100109,-0.00216218968109
1505403907039534460,0.145565627465,-0.182260127332,0.0388453640044,-0.107286761454,-0.261886204154,-0.00216218968109
1505403907048624589,0.146080426589,-0.185468301058,0.0393524728715,-0.10730328617,-0.265972074799,-0.00216218968109
1505403907048632807,0.145634571466,-0.185315393533,0.0393524728715,-0.106857101474,-0.265820131655,-0.00216218968109
1505403907052752077,0.145681259049,-0.185059774271,0.0393524728715,-0.106807524094,-0.265602921033,-0.0018018054844
1505403907057779831,0.14584635637,-0.183901895697,0.0397813245654,-0.106543105639,-0.265234594382,-0.0018018054844
1505403907063065948,0.145764356514,-0.183550771566,0.0397813245654,-0.106460473259,-0.264883618568,-0.0018018054844
1505403907067877869,0.146468130085,-0.182330142043,0.0401706807315,-0.10677447218,-0.264651077696,-0.0018018054844
1505403907075492834,0.1465836896,-0.182397604009,0.0401706807315,-0.106890153062,-0.264718331336,-0.0018018054844
1505403907078855557,0.147728826645,-0.181695404989,0.0405892953277,-0.107617253496,-0.265038458011,-0.0018018054844
1505403907083127442,0.148042237951,-0.181997710417,0.0405892953277,-0.107931208988,-0.265340198243,-0.0018018054844
1505403907088216584,0.148984956157,-0.18157812211,0.0410203412175,-0.10844342713,-0.265642669499,-0.0018018054844
1505403907094481974,0.149513388699,-0.181731358086,0.0410203412175,-0.108972134916,-0.265794953094,-0.0018018054844
1505403907102025136,0.150112035495,-0.180496015422,0.0414869375527,-0.109104306803,-0.265862225618,-0.0018018054844
1505403907108033415,0.144417260888,-0.172347401509,0.0419570244849,-0.10272456201,-0.258452742579,-0.00102251556377
1505403907112947508,0.144432902599,-0.172347478111,0.0419570244849,-0.102740203791,-0.258452803187,-0.00102251556377
1505403907118936782,0.144724555786,-0.171254387543,0.0423892699182,-0.102599433166,-0.258278423649,-0.00102251556377
1505403907126324782,0.14425570794,-0.170856944541,0.0423892699182,-0.102130179173,-0.257881460258,-0.00102251556377
1505403907129619069,0.144406776686,-0.169243449456,0.042790196836,-0.101879899604,-0.257469470532,-0.00102251556377
1505403907133442574,0.14373513094,-0.168243888947,0.042790196836,-0.101207232143,-0.256470597314,-0.00102251556377
1505403907140669694,0.143906926804,-0.167137772804,0.0431958958507,-0.100972567729,-0.255726215449,-0.00102251556377
1505403907144257521,0.14118104706,-0.168550995227,0.0431958958507,-0.0982481344509,-0.257142224387,-0.00102251556377
1505403907148111613,0.141673615131,-0.16639460857,0.0435780733824,-0.0983576514807,-0.256287893074,-0.00102251556377
1505403907153118391,0.142783742986,-0.165686848901,0.0435780733824,-0.0988582843036,-0.255815087943,0.00135831161194
1505403907158490098,0.143638468209,-0.164225352336,0.0440581813455,-0.0992337384597,-0.2551992127,0.00135831161194
1505403907165736589,0.144326996449,-0.16440165739,0.0440581813455,-0.099922026587,-0.255376452827,0.00135831161194
1505403907168476316,0.144960847874,-0.163729444018,0.0444731079042,-0.100141014847,-0.255329931151,0.00135831161194
1505403907174890168,0.149412824206,-0.179280543172,0.0444731079042,-0.10457186384,-0.270887063128,0.00135831161194
1505403907178228305,0.149716426984,-0.178166210363,0.0448756106198,-0.104472737262,-0.271053849821,0.00135831161194
1505403907184757120,0.149154161507,-0.177779874819,0.0448756106198,-0.103910997068,-0.270666750902,0.00135831161194
1505403907191497389,0.149213563513,-0.176907769552,0.0453322418034,-0.103514451492,-0.270163208301,0.00135831161194
1505403907193788948,0.148170860648,-0.175666344323,0.0453322418034,-0.102473435831,-0.268920367903,0.00135831161194
1505403907198175236,0.148077850609,-0.172814990203,0.0456880144775,-0.10202724784,-0.267009809169,0.00135831161194
1505403907207716836,0.148529046775,-0.169772955933,0.0460180267692,-0.101465349318,-0.265315275432,0.00394422311593
1505403907208850168,0.147980273712,-0.173110873595,0.0460180267692,-0.100903415067,-0.268651002653,0.00394422311593
1505403907213628953,0.147926719773,-0.172104452298,0.0460180267692,-0.100853831083,-0.267644377956,0.00394422311593
1505403907218573418,0.147677349266,-0.170824254736,0.0464828424156,-0.100143095198,-0.266768209238,0.00394422311593
1505403907224136347,0.147624979753,-0.170119321813,0.0464828424156,-0.100093506498,-0.266063075242,0.00394422311593
1505403907233533490,0.147593976242,-0.16921484681,0.0468146391213,-0.0997298504417,-0.266279344232,0.00394422311593
1505403907241672427,0.147860612884,-0.168630830529,0.0472631119192,-0.0995480166501,-0.266278386093,0.00394422311593
1505403907241676047,0.148160874852,-0.169319290056,0.0472631119192,-0.0998455608514,-0.266968024563,0.00394422311593
1505403907243922180,0.148071996582,-0.176122379187,0.0472631119192,-0.0997298504417,-0.273770710222,0.00394422311593
1505403907249076581,0.149031860682,-0.175838683592,0.0477094240487,-0.100242270791,-0.274058627396,0.00394422311593
1505403907254115354,0.1496346976,-0.17620810347,0.0477094240487,-0.10039103261,-0.274596318409,0.00559300705847
1505403907258592652,0.150111711882,-0.175652955704,0.0480854809284,-0.100490205945,-0.274915579107,0.00559300705847
1505403907263820741,0.150445568408,-0.176239847471,0.0480854809284,-0.100820774777,-0.275504328947,0.00559300705847
1505403907274196528,0.150744061242,-0.176129054203,0.0485464446247,-0.100655491894,-0.27600664381,0.00559300705847
1505403907275265898,0.146903221197,-0.163228177624,0.0485464446247,-0.0968868662395,-0.263084487278,0.00559300705847
1505403907278957623,0.14739355048,-0.163041640999,0.0489883199334,-0.0969338101147,-0.26335461765,0.00559300705847
1505403907283942412,0.147298861724,-0.162898820407,0.0489883199334,-0.0968399216324,-0.263211269699,0.00559300705847
1505403907290732065,0.147872997505,-0.162046279932,0.0494538061321,-0.0969494578585,-0.263053048042,0.00559300705847
1505403907295774485,0.14743457215,-0.161998912112,0.0494538061321,-0.0965113042879,-0.26300322886,0.00559300705847
1505403907299653426,0.147578950519,-0.161277953831,0.0498808473349,-0.0962296218242,-0.262827155215,0.00559300705847
1505403907304165294,0.147186897776,-0.16148390111,0.0498808473349,-0.0957914304429,-0.263047295529,0.00576405733767
1505403907309200181,0.151129404306,-0.174721586489,0.0502702891827,-0.0992669939341,-0.276502983532,0.00576405733767
1505403907314316398,0.151214572908,-0.17515749158,0.0502702891827,-0.0993496485534,-0.276939372295,0.00576405733767
1505403907321004504,0.151416956347,-0.175009007201,0.0507006309927,-0.0991182135177,-0.277541871403,0.00576405733767
1505403907324788372,0.151616684426,-0.175243492765,0.0507006309927,-0.0993165866979,-0.277777504309,0.00576405733767
1505403907329209583,0.152004479371,-0.174605681026,0.0511880964041,-0.0992174004055,-0.277693219136,0.00576405733767
1505403907334168313,0.151869715849,-0.174169927551,0.0511880964041,-0.0990851508159,-0.277256696119,0.00576405733767
1505403907344962725,0.152770360387,-0.173316370939,0.0517122931778,-0.0994653638477,-0.276604556208,0.00576405733767
1505403907349158647,0.153917579862,-0.172422282191,0.0521821603179,-0.100143095198,-0.276540754008,0.00576405733767
1505403907354890708,0.154732937439,-0.172431641407,0.0521821603179,-0.100622434851,-0.276677222865,0.00697855819922
1505403907359188846,0.155882257225,-0.172392600292,0.0527029447258,-0.101250496182,-0.276747343899,0.00697855819922
1505403907364304985,0.156728396,-0.172860186034,0.0527029447258,-0.102093351306,-0.277220823036,0.00697855819922
1505403907375127632,0.157341588508,-0.173110293867,0.0527029447258,-0.102704783505,-0.277475203944,0.00697855819922
1505403907375174068,0.151507704085,-0.15993006953,0.0527029447258,-0.0969630193531,-0.264254588775,0.00697855819922
1505403907379606465,0.152970251998,-0.158443187291,0.0536530278623,-0.0974792439615,-0.263717616528,0.00697855819922
1505403907386107650,0.153129139542,-0.156553998635,0.0536530278623,-0.0976513113427,-0.26182958267,0.00697855819922
1505403907389598885,0.153951836596,-0.154814281399,0.0542222186923,-0.0979172274249,-0.260052212126,0.00697855819922
1505403907398679591,0.154152595556,-0.151303196096,0.0546448491514,-0.0977138806617,-0.257396959069,0.00697855819922
1505403907399875307,0.154201957837,-0.149410559995,0.0546448491514,-0.0977764495045,-0.255504713529,0.00697855819922
1505403907408020898,0.148698337632,-0.14253709206,0.055066537112,-0.0923545173607,-0.248314018205,0.00514877479999
1505403907409847777,0.148487679687,-0.141120612382,0.055066537112,-0.0921511553105,-0.246896472677,0.00514877479999
1505403907414573991,0.148722413367,-0.141136713525,0.055066537112,-0.0923858029779,-0.246913782192,0.00514877479999
1505403907420292509,0.148629000371,-0.14022087727,0.0555395781994,-0.0918226372231,-0.246273667214,0.00514877479999
1505403907426252528,0.148348628584,-0.140459462164,0.0555395781994,-0.091541040738,-0.24651080538,0.00514877479999
1505403907431209535,0.148419103927,-0.140360428663,0.0559682510793,-0.0911812099666,-0.246827088851,0.00514877479999
1505403907434833165,0.147966195656,-0.140519312135,0.0559682510793,-0.0907274896467,-0.246983638305,0.00514877479999
1505403907440900052,0.140612812033,-0.127537244607,0.056488852948,-0.0829201832457,-0.234013004854,0.00514877479999
1505403907444770492,0.140407606034,-0.12800474772,0.056488852948,-0.0827125729092,-0.234479445215,0.00514877479999
1505403907451203213,0.14185954954,-0.128153788905,0.0569809228182,-0.0829498410825,-0.235204591123,0.00821244420077
1505403907455280343,0.141939514644,-0.128862157659,0.0569809228182,-0.0830239861162,-0.235913592691,0.00821244420077
1505403907460037335,0.142297549478,-0.129328508487,0.0573934465647,-0.082964669963,-0.23650115164,0.00821244420077
1505403907464900057,0.142869208155,-0.130321358936,0.0573934465647,-0.0835281557256,-0.237498663269,0.00821244420077
1505403907475576838,0.14982768599,-0.137835238488,0.0579041913152,-0.0899117488159,-0.24533506162,0.00821244420077
1505403907479981212,0.150209124361,-0.138564541982,0.0579041913152,-0.0902871850277,-0.246067473026,0.00821244420077
1505403907489346938,0.15145131901,-0.139498917811,0.0588444806635,-0.0905843941691,-0.246640534369,0.00821244420077
1505403907492257411,0.15208390354,-0.140338117349,0.0588444806635,-0.0912100655648,-0.247484900613,0.00821244420077
1505403907495372490,0.15224696128,-0.141146845491,0.0588444806635,-0.0913664762465,-0.248294940572,0.00821244420077
1505403907500212678,0.153189088755,-0.141677696695,0.0593111366034,-0.0918356915736,-0.249058671936,0.00821244420077
1505403907508035927,0.157632649062,-0.152614379203,0.0598019696772,-0.0957830732801,-0.259666609829,0.00789710361451
1505403907510254068,0.157673752946,-0.153635563211,0.0598019696772,-0.0958161115702,-0.260688086593,0.00789710361451
1505403907515419000,0.158047482396,-0.154939776024,0.0598019696772,-0.0961795299698,-0.261995210087,0.00789710361451
1505403907523972139,0.158439026118,-0.156070288555,0.060282189399,-0.0960804166383,-0.263316498293,0.00789710361451
1505403907525081039,0.158813132633,-0.157423552802,0.060282189399,-0.0964438247303,-0.26467267467,0.00789710361451
1505403907531383355,0.159601112866,-0.1585819373,0.0607798583806,-0.0967246304722,-0.265877466405,0.00789710361451
1505403907542022229,0.154764759121,-0.145735222519,0.0612563826144,-0.0915150777565,-0.252772815834,0.00789710361451
1505403907542030947,0.155200970403,-0.146585013009,0.0612563826144,-0.0919445646232,-0.253626024595,0.00789710361451
1505403907545283095,0.154990448378,-0.147120164668,0.0612563826144,-0.0917298230587,-0.25415949707,0.00789710361451
1505403907551241653,0.156037846501,-0.14731845615,0.0616977289319,-0.0921097469188,-0.254594867646,0.00877450976064
1505403907555264709,0.156355052281,-0.147700677333,0.0616977289319,-0.0924235867276,-0.254979857405,0.00877450976064
1505403907560632058,0.157049749259,-0.148364288027,0.0621734559536,-0.0926383119754,-0.255464560153,0.00877450976064
1505403907565505107,0.154234696994,-0.140968988259,0.0621734559536,-0.0898882573747,-0.248044844685,0.00877450976064
1505403907574094089,0.15455730464,-0.141697719682,0.0625738203526,-0.0898056705763,-0.248594952772,0.00877450976064
1505403907577243902,0.154743821174,-0.142246987919,0.0625738203526,-0.0899873604322,-0.249145836434,0.00877450976064
1505403907581678324,0.155159690707,-0.142669777186,0.0629853010178,-0.0899873604322,-0.249646026686,0.00877450976064
1505403907585896309,0.154998615637,-0.14313747527,0.0629853010178,-0.0898221877938,-0.250112293429,0.00877450976064
1505403907590768449,0.155526365616,-0.143985084923,0.0634594038129,-0.0898717402667,-0.250579176694,0.00877450976064
1505403907595909506,0.155280944609,-0.14425316955,0.0634594038129,-0.0896239764258,-0.25084509758,0.00877450976064
1505403907607872625,0.147917567378,-0.124439170906,0.0642891451716,-0.081306875438,-0.231096000145,0.0100637976045
1505403907608030368,0.147920742363,-0.124754645957,0.0642891451716,-0.081306875438,-0.231411491173,0.0100637976045
1505403907611007729,0.147877475292,-0.125117746196,0.0642891451716,-0.0812599564529,-0.231774137601,0.0100637976045
1505403907616227112,0.148085386131,-0.125573601908,0.0642891451716,-0.0814632692012,-0.232232062566,0.0100637976045
1505403907622218241,0.148557913638,-0.126285899206,0.0647107884288,-0.0815101872194,-0.232626414184,0.0100637976045
1505403907626449708,0.148892511013,-0.12689833879,0.0647107884288,-0.0818386042859,-0.233242190018,0.0100637976045
1505403907630922867,0.149417919472,-0.127349671417,0.0650425106287,-0.0820262669136,-0.233841689017,0.0100637976045
1505403907641622702,0.147749517176,-0.121298532575,0.0655211061239,-0.0799433867435,-0.227459984626,0.0100637976045
1505403907647295341,0.148054190573,-0.122003557034,0.0658208653331,-0.0799433867435,-0.227948296424,0.0100637976045
1505403907655284015,0.151435194548,-0.128290608547,0.0658208653331,-0.0830570103607,-0.234341436061,0.0109341946196
1505403907656481944,0.151258408886,-0.128741175559,0.0658208653331,-0.0828753087774,-0.234790043168,0.0109341946196
1505403907661182487,0.151814319322,-0.129170534215,0.0661743804812,-0.0830735292507,-0.235172947211,0.0109341946196
1505403907666852160,0.151819591397,-0.129652678943,0.0661743804812,-0.0830735292507,-0.235655120762,0.0109341946196
1505403907674795068,0.152464774114,-0.130265458635,0.0666021108627,-0.0832882626716,-0.235904961313,0.0109341946196
1505403907676890230,0.152831053312,-0.130528228285,0.0666021108627,-0.0836516468576,-0.236171720143,0.0109341946196
1505403907684390294,0.153375459391,-0.131160013892,0.0669112876058,-0.0838828863536,-0.236537887258,0.0109341946196
1505403907688504393,0.154381638204,-0.13122799338,0.0673198103905,-0.084477474951,-0.236821679189,0.0109341946196
1505403907693065114,0.15469960462,-0.131607396532,0.0673198103905,-0.0847912739737,-0.237204536298,0.0109341946196
1505403907696172543,0.152595712053,-0.126807694778,0.0673198103905,-0.0827399870005,-0.232382117547,0.0109341946196
1505403907701618403,0.153429212323,-0.127889430739,0.0676463544369,-0.083301500297,-0.232914763465,0.0106740776497
1505403907707664083,0.154145252445,-0.128854265892,0.0680062100291,-0.0836483027495,-0.233795590134,0.0106740776497
1505403907713946017,0.154667612292,-0.129829217094,0.0680062100291,-0.0841602263324,-0.2347760614,0.0106740776497
1505403907717717138,0.154842658723,-0.130757154357,0.0680062100291,-0.0843253581048,-0.235705814224,0.0106740776497
1505403907721828740,0.155148662517,-0.131344701577,0.0683386847377,-0.0842923323494,-0.236319739335,0.0106740776497
1505403907726677611,0.155151673281,-0.131626753997,0.0683386847377,-0.0842923323494,-0.236601807824,0.0106740776497
1505403907731924391,0.152462615768,-0.123589408495,0.0686374753714,-0.0813988814038,-0.227742603954,0.0106740776497
1505403907743254734,0.152654259873,-0.122931179389,0.0688996016979,-0.0813328238423,-0.227327719692,0.0106740776497
1505403907743298948,0.152344427406,-0.121755697069,0.0688996016979,-0.081035555977,-0.226148997224,0.0106740776497
1505403907749117440,0.152172930512,-0.120724382813,0.069206289947,-0.0805731236303,-0.224670701817,0.0106740776497
1505403907751891043,0.152159139501,-0.118725061177,0.069206289947,-0.0802428033049,-0.222793326302,0.0121910129559
1505403907756562451,0.15154491819,-0.117119438318,0.069206289947,-0.0796482013198,-0.221180334963,0.0121910129559
1505403907761719915,0.158209707915,-0.123106294246,0.0694227293134,-0.0860283009954,-0.226817806389,0.0121910129559
1505403907766731765,0.157966879087,-0.12194062027,0.0694227293134,-0.085799700607,-0.225649258777,0.0121910129559
1505403907777994762,0.158562269101,-0.121844978258,0.0699559822679,-0.0858700407878,-0.224976788229,0.0121910129559
1505403907778186056,0.158801965791,-0.12131152158,0.0699559822679,-0.0861162228819,-0.224446293264,0.0121910129559
1505403907783431194,0.159075529767,-0.120671459081,0.0699559822679,-0.0863975693467,-0.223809613267,0.0121910129559
1505403907786573373,0.159673989547,-0.120718789589,0.0699559822679,-0.0869954076626,-0.223864235909,0.0121910129559
1505403907791561571,0.159995934297,-0.119910346209,0.0700560510159,-0.0872239847549,-0.223315940961,0.0121910129559
1505403907796727792,0.159995934297,-0.119910346209,0.0700560510159,-2000.0,0.0,0.0121910129559
1505403907802081801,0.159995934297,-0.119910346209,0.0702861398458,-2000.0,0.0,0.0139065806366
1505403907810141781,0.159995934297,-0.119910346209,0.0705229267478,-2000.0,0.0,0.0139065806366
1505403907812187481,0.159995934297,-0.119910346209,0.0705229267478,-2000.0,0.0,0.0139065806366
1505403907818238241,0.159995934297,-0.119910346209,0.0706321448088,-2000.0,0.0,0.0139065806366
1505403907824734094,0.159995934297,-0.119910346209,0.0706321448088,-2000.0,0.0,0.0139065806366
1505403907830549216,0.159995934297,-0.119910346209,0.0708714127541,-2000.0,0.0,0.0139065806366
1505403907831913805,0.159995934297,-0.119910346209,0.0708714127541,-2000.0,0.0,0.0139065806366
1505403907843319879,0.159995934297,-0.119910346209,0.0709815770388,-2000.0,0.0,0.0139065806366
1505403907849730262,0.150605171227,-0.0823197825121,0.0711134672165,-0.0769390650008,-0.184097098571,0.0139065806366
1505403907852124426,0.150004655204,-0.0834872429896,0.0711134672165,-0.0767903744136,-0.185062594117,0.0113790172545
1505403907857230304,0.149868282782,-0.0845707420232,0.0711134672165,-0.0766416819317,-0.186144471254,0.0113790172545
1505403907864336092,0.150242755408,-0.0867885289522,0.071306630969,-0.0768068954648,-0.187559917219,0.0113790172545
1505403907867739365,0.150177762289,-0.088336812379,0.071306630969,-0.0767242889904,-0.189107360868,0.0113790172545
1505403907877963889,0.150595450419,-0.0916378795425,0.0714760497212,-0.0769390650008,-0.192052078686,0.0113790172545
1505403907884610520,0.150528739438,-0.0930351196325,0.0714760497212,-0.0768564594626,-0.193448469229,0.0113790172545
1505403907887528575,0.150679085852,-0.0950371617776,0.0716289207339,-0.0768399384816,-0.194678418555,0.0113790172545
1505403907892630150,0.150204571785,-0.0852811941123,0.0716289207339,-0.076476466064,-0.184917683107,0.0113790172545
1505403907899202754,0.150151022909,-0.086313655364,0.0715999081731,-0.0764434230046,-0.185665092819,0.0113790172545
1505403907902825580,0.149692249335,-0.087111178899,0.0715999081731,-0.0760468941149,-0.186428280151,0.0109966489612
1505403907909830002,0.149535394692,-0.0879371986666,0.0717333257198,-0.0757494884412,-0.187075354149,0.0109966489612
1505403907915037466,0.149162136629,-0.0885550022156,0.0717333257198,-0.075369459314,-0.187689015839,0.0109966489612
1505403907917366237,0.148658505691,-0.0893399978132,0.0717333257198,-0.0748572266803,-0.188468425833,0.0109966489612
1505403907922851932,0.148384314848,-0.0907882745757,0.0718001052737,-0.0745102176664,-0.189015661303,0.0109966489612
1505403907927339233,0.147756143928,-0.0772461980935,0.0718001052737,-0.0740309991878,-0.175467495973,0.0109966489612
1505403907932519513,0.147493722506,-0.077887591368,0.071795143187,-0.0737665949653,-0.176097600688,0.0109966489612
1505403907940637386,0.147173645781,-0.079021711576,0.071830406785,-0.073403028909,-0.176843638491,0.0109966489612
1505403907943939997,0.146937257231,-0.0800690968456,0.071830406785,-0.0731551371563,-0.177888361004,0.0109966489612
1505403907950035747,0.146928985042,-0.0823437027367,0.0718073621392,-0.0731551371563,-0.179231747897,0.0109966489612
1505403907952536480,0.146565918569,-0.0837941961175,0.0718073621392,-0.0731551371563,-0.180525041817,0.00889813696706
1505403907957595223,0.152859563853,-0.0796829616493,0.0718073621392,-0.0794851151314,-0.176469971083,0.00889813696706
1505403907962709480,0.152670900453,-0.0792005571419,0.0718125402927,-0.0792915818503,-0.176434464917,0.00889813696706
1505403907974369420,0.152258862688,-0.0795465358186,0.0718645378947,-0.0788341266098,-0.175692925065,0.00889813696706
1505403907982201315,0.150175823702,-0.0752691043853,0.0718254074454,-0.0768281733658,-0.171418411532,0.00889813696706
1505403907982754604,0.149315267473,-0.0734914188771,0.0718254074454,-0.0759834690849,-0.169633139153,0.00889813696706
1505403907989602140,0.15057615099,-0.0572820612386,0.0718228444457,-0.077392885482,-0.153234649228,0.00889813696706
1505403907992878734,0.149669111763,-0.056228217088,0.0718228444457,-0.076495259289,-0.152172775944,0.00889813696706
1505403908000483167,0.149014028413,-0.0565747164935,0.0718425810337,-0.0758264000112,-0.15149991392,0.00889813696706
1505403908009144285,0.147821104306,-0.0563291024375,0.0716932862997,-0.0752631243768,-0.151498841848,0.00571573842347
1505403908010190517,0.147987002433,-0.0576363302697,0.0716932862997,-0.0754215480622,-0.152806996552,0.00571573842347
1505403908015670621,0.147747030469,-0.0587682088301,0.0716932862997,-0.0751751105322,-0.153937485014,0.00571573842347
1505403908017962152,0.14763300591,-0.0608977710781,0.0716425031424,-0.0751046988344,-0.155191773421,0.00571573842347
1505403908024318101,0.144274729653,-0.0452999587876,0.0716425031424,-0.0718356299639,-0.139575020993,0.00571573842347
1505403908028053849,0.143732953484,-0.0450828361902,0.0715663433075,-0.0713726652613,-0.139109777797,0.00571573842347
1505403908032886847,0.143483414385,-0.0448184050812,0.0715663433075,-0.071124641649,-0.138843924715,0.00571573842347
1505403908041229625,0.142676518986,-0.0434729102158,0.0715262442827,-0.0703640047918,-0.137764103477,0.00571573842347
1505403908046156321,0.144450116471,-0.0296369580642,0.0715262442827,-0.0722166555589,-0.123938514696,0.00571573842347
1505403908048888237,0.143776984698,-0.0306418840418,0.0715789496899,-0.0714890119308,-0.124252484835,0.00571573842347
1505403908055640089,0.142611206789,-0.0306048370364,0.0715789496899,-0.0706290151176,-0.124035284339,0.00325404689932
1505403908059513393,0.14189517685,-0.0317349548488,0.0714050456882,-0.0700832177042,-0.125162678399,0.00325404689932
1505403908063462350,0.141218598295,-0.0322172329592,0.0714050456882,-0.0694050733784,-0.125642752341,0.00325404689932
1505403908074396354,0.14026962862,-0.0354339933764,0.0713892579079,-0.0684622284156,-0.128610777521,0.00325404689932
1505403908078334247,0.139794932233,-0.0371531472943,0.07130741328,-0.0680652207348,-0.129887288824,0.00325404689932
1505403908083360976,0.139485590574,-0.0386793162766,0.07130741328,-0.0677509144964,-0.131412443116,0.00325404689932
1505403908088502833,0.141638246777,-0.0278430999664,0.0711960718036,-0.0700499541014,-0.120647442852,0.00325404689932
1505403908093578687,0.141128422916,-0.0287724342598,0.0711960718036,-0.0695371088478,-0.121575113238,0.00325404689932
1505403908098635680,0.140568142545,-0.0299877525474,0.0712779909372,-0.0688918877752,-0.122502621995,0.00325404689932
1505403908109401616,0.139680075436,-0.0312144018745,0.0711842998862,-0.0682962703761,-0.123595869322,0.0016148947019
1505403908114678395,0.139169596529,-0.0327227051538,0.0711842998862,-0.0677833563853,-0.125103346265,0.0016148947019
1505403908114773372,0.13895642376,-0.0339157602283,0.0711842998862,-0.067568257237,-0.126296055532,0.0016148947019
1505403908119586841,0.138792251942,-0.0352796423181,0.0711503848433,-0.0674358871421,-0.127604591268,0.0016148947019
1505403908124982300,0.150628070281,-0.028652206466,0.0711503848433,-0.079282392655,-0.12099627765,0.0016148947019
1505403908128534047,0.150736134869,-0.0300451718119,0.0711684599519,-0.0793704747967,-0.122177440113,0.0016148947019
1505403908139989102,0.150733116609,-0.0313274191585,0.0711106285453,-0.0794233239492,-0.123393657939,0.0016148947019
1505403908141344802,0.151052027306,-0.0324548808489,0.0711106285453,-0.0797404134989,-0.124521633166,0.0016148947019
1505403908143711937,0.151230176622,-0.0336880556228,0.0711106285453,-0.0799165711362,-0.125755094025,0.0016148947019
1505403908149942456,0.154137304721,-0.0221654365115,0.071218803525,-0.0827340682555,-0.114274262805,0.0016148947019
1505403908153784999,0.15403173406,-0.0232014995253,0.071218803525,-0.0827692997359,-0.115207928443,0.000378765056933
1505403908158841712,0.153790809463,-0.024004362652,0.0712065845728,-0.0825402938374,-0.1160006019,0.000378765056933
1505403908165227448,0.153861560027,-0.0247617000063,0.0712065845728,-0.0826107575429,-0.116757965998,0.000378765056933
1505403908175302939,0.154068798008,-0.0263819961049,0.0712546333671,-0.0827692997359,-0.118466164615,0.000378765056933
1505403908179169187,0.154351012441,-0.0273502166624,0.0712546333671,-0.0830511474198,-0.119434491996,0.000378765056933
1505403908184059983,0.154470406615,-0.0170215764041,0.0712546333671,-0.0831744537135,-0.1091058977,0.000378765056933
1505403908188909027,0.154949050075,-0.0178232874414,0.0713101550937,-0.083597208825,-0.110073916879,0.000378765056933
1505403908195798811,0.155108046129,-0.0190552420706,0.0713101550937,-0.083755738247,-0.111305931642,0.000378765056933
1505403908200448822,0.155277542857,-0.0195266424374,0.0714440569282,-0.0837909665228,-0.112273867014,0.000378765056933
1505403908207002520,0.155193386264,-0.020539446235,0.0714440569282,-0.0837909665228,-0.113224124115,-0.00036769128561
1505403908209293976,0.154788032638,-0.0211378914884,0.0714440569282,-0.0833858329669,-0.113822718373,-0.00036769128561
1505403908214224919,0.154756225693,-0.0118297990122,0.0714440569282,-0.0833506035201,-0.104514638221,-0.00036769128561
1505403908220178645,0.154807167316,-0.0116681218356,0.0715479403734,-0.0832977587657,-0.104778639613,-0.00036769128561
1505403908224281868,0.154912908122,-0.0115272947922,0.0715479403734,-0.0834034477834,-0.104637773699,-0.00036769128561
1505403908228975932,0.155407278257,-0.011038394678,0.0716019943357,-0.0838438091388,-0.104760575706,-0.00036769128561
1505403908234374297,0.155583340793,-0.0112494562351,0.0716019943357,-0.0840199492686,-0.104971572512,-0.00036769128561
1505403908241353004,0.156111616159,-0.0116010749979,0.0716019943357,-0.0845483538864,-0.105322997009,-0.00036769128561
1505403908245112494,0.147410734105,0.000161400056211,0.0716019943357,-0.0758431474602,-0.0935637219888,-0.00036769128561
1505403908251085600,0.147368085522,0.000139696397626,0.07173024863,-0.075743887304,-0.0941421862743,-0.00112598213021
1505403908254563813,0.147201831518,-0.000587334313916,0.07173024863,-0.0755784520292,-0.094869403724,-0.00112598213021
1505403908260108373,0.146420543268,-0.000135924125932,0.0718259736896,-0.0747016066465,-0.095019035803,-0.00112598213021
1505403908272220586,0.145974139702,0.000145039420973,0.0718259736896,-0.0742548870036,-0.0947385750765,-0.00112598213021
1505403908276073742,0.145643355905,0.000260758243031,0.0718259736896,-0.0739239731195,-0.0946232287844,-0.00112598213021
1505403908283696360,0.145588875378,0.00215210047385,0.0719031170011,-0.0737916049922,-0.093962289948,-0.00112598213021
1505403908286918240,0.145952847138,0.00211898287068,0.0719031170011,-0.0741556138112,-0.0939949977046,-0.00112598213021
1505403908287014803,0.145919942134,0.00228425841589,0.0719031170011,-0.0741225227307,-0.0938297593146,-0.00112598213021
1505403908289405962,0.14636062168,0.00777255079574,0.0719573348761,-0.0745030665429,-0.0885738136071,-0.00112598213021
1505403908294547078,0.146558622205,0.00729323246124,0.0719573348761,-0.0747016066465,-0.0890529086927,-0.00112598213021
1505403908301123633,0.146658138046,0.00761584617654,0.0719573348761,-0.0747512409759,-0.088771904016,-0.000568037255415
1505403908309505147,0.14694424697,0.00911062823987,0.0721608325839,-0.0748339648135,-0.0889701449292,-0.000568037255415
1505403908311692712,0.146415199678,0.00980457838008,0.0721608325839,-0.0743045234178,-0.0882764954195,-0.000568037255415
1505403908314727694,0.146250176265,0.0105648661802,0.0721608325839,-0.0741390681589,-0.0875163014815,-0.000568037255415
1505403908320333149,0.155096153698,0.0170451059079,0.0723025947809,-0.0828397623941,-0.0813152910297,-0.000568037255415
1505403908324696290,0.154885404648,0.0181716270628,0.0723025947809,-0.0826283734721,-0.0801888897699,-0.000568037255415
1505403908329662497,0.155359128107,0.0193469824018,0.0723358988762,-0.0830687627181,-0.0801357440341,-0.000568037255415
1505403908339146111,0.155263107128,0.0206845130303,0.0724333673716,-0.0828749933093,-0.079642988266,-0.000568037255415
1505403908340490374,0.155826971289,0.0210014610742,0.0724333673716,-0.0834386773403,-0.0793257199774,-0.000568037255415
1505403908346107055,0.156127952184,0.0237024232142,0.0724333673716,-0.0837381239396,-0.0766245873048,-0.000568037255415
1505403908349812057,0.156636384501,0.0244033701397,0.0725365579128,-0.0841432456269,-0.0764130623778,-0.000568037255415
1505403908354875038,0.157327004592,0.023665205959,0.0725365579128,-0.0848653855927,-0.0771166222899,-0.000971241940933
1505403908364632808,0.157594135927,0.0243346619642,0.0726811364293,-0.0849886734331,-0.0778733487959,-0.000971241940933
1505403908366494912,0.158139409093,0.0236130383859,0.0726811364293,-0.0855346472138,-0.0785944424418,-0.000971241940933
1505403908375776853,0.157893230412,0.0233288216419,0.0728938952088,-0.085076735456,-0.0796507387077,-0.000971241940933
1505403908380362472,0.157722476061,0.0237160110407,0.0729349181056,-0.0848653855927,-0.0800908809933,-0.000971241940933
1505403908385434583,0.157038203436,0.0264344396821,0.0729349181056,-0.0841784730397,-0.0773731182282,-0.000971241940933
1505403908389924640,0.157164801954,0.0282433420435,0.0730611234903,-0.0841784730397,-0.0769683446446,-0.000971241940933
1505403908395332127,0.15709463771,0.0285425320499,0.0730611234903,-0.0841080182428,-0.0766692229257,-0.000971241940933
1505403908407353870,0.157284569704,0.0310615990532,0.0732802525163,-0.0841080182428,-0.0759476187689,-0.00136439827485
1505403908409229650,0.157690111376,0.0313782106195,0.0732802525163,-0.0845131275526,-0.0756304541772,-0.00136439827485
1505403908413692691,0.157725169623,0.0312549919866,0.0732802525163,-0.0845483538864,-0.075753624862,-0.00136439827485
1505403908415801757,0.158235770865,0.0311315501866,0.0732802525163,-0.085059123077,-0.0758763698839,-0.00136439827485
1505403908420335103,0.149588218385,0.0375570638131,0.0734776556492,-0.076207093955,-0.0706980640266,-0.00136439827485
1505403908425033847,0.149670796615,0.0374578427279,0.0734776556492,-0.0762898074856,-0.0707971723498,-0.00136439827485
1505403908430391388,0.149857709965,0.0381144567345,0.0735985338688,-0.0763559779165,-0.0708962923014,-0.00136439827485
1505403908438994087,0.149618993937,0.0396754718139,0.0737403705716,-0.0759754929592,-0.0709462244962,-0.00136439827485
1505403908440653849,0.1495404161,0.0427083336043,0.0737403705716,-0.0758927771649,-0.0679134727402,-0.00136439827485
1505403908446023085,0.14929269388,0.0430225637695,0.0737403705716,-0.0756446264403,-0.0675995808591,-0.00136439827485
1505403908451457860,0.149419190649,0.0452068542518,0.07395362854,-0.0755288210099,-0.0665746370535,-0.000949683746818
1505403908457252618,0.149609062125,0.0473889248108,0.0740596354008,-0.0756115393424,-0.0653675821296,-0.000949683746818
1505403908460906164,0.149577121172,0.0485960372408,0.0740596354008,-0.0755784520292,-0.0641605005777,-0.000949683746818
1505403908466715896,0.149810002037,0.0499354268636,0.0740596354008,-0.0758100607928,-0.0628208903957,-0.000949683746818
1505403908474827298,0.149992273258,0.0523055185919,0.0742082074285,-0.0758431474602,-0.0621758967379,-0.000949683746818
1505403908475924197,0.150191262118,0.0528015551404,0.0742082074285,-0.0760416651533,-0.0616796714366,-0.000949683746818
1505403908480756679,0.15058826769,0.0538100859015,0.074373409152,-0.0762732648506,-0.0614645937301,-0.000949683746818
1505403908486021466,0.150753787454,0.0539092120299,0.074373409152,-0.0764386904009,-0.061365310455,-0.000949683746818
1505403908490623615,0.151262944205,0.056488291673,0.0745012164116,-0.0768191604018,-0.0604390411439,-0.000949683746818
1505403908497285628,0.151434455,0.0591287004138,0.0746881067753,-0.0768026184822,-0.0592151146909,-0.000949683746818
1505403908501746478,0.151454712415,0.0613703148997,0.0746881067753,-0.0767529926136,-0.0570647259951,0.000238592410685
1505403908507341532,0.151145332677,0.0650864727635,0.0748756527901,-0.0762567221307,-0.0543182693713,0.000238592410685
1505403908512267109,0.150367176459,0.0677011760218,0.0748756527901,-0.0754791897836,-0.0517033805252,0.000238592410685
1505403908515669978,0.149737773428,0.0707303713714,0.0748756527901,-0.0748505095127,-0.0486740350911,0.000238592410685
1505403908521051130,0.148971549681,0.0750137713891,0.0749868452549,-0.0739736108883,-0.0465045950899,0.000238592410685
1505403908528218682,0.148819957762,0.0776889839418,0.075183108449,-0.0736261429953,-0.0448816195913,0.000238592410685
1505403908531943344,0.14822400645,0.0788155210641,0.075183108449,-0.0730304604834,-0.0437549403116,0.000238592410685
1505403908540490214,0.148161995628,0.0803491381361,0.075303144753,-0.0728484410593,-0.0436388123711,0.000238592410685
1505403908541533881,0.154138054081,0.0797461990706,0.075303144753,-0.0788243554851,-0.0442431772616,0.000238592410685
1505403908547127236,0.154067635681,0.0795346949932,0.075303144753,-0.0787538866236,-0.0444546645317,0.000238592410685
1505403908551046567,0.154496279599,0.0810035600594,0.0753903687,-0.0790357592381,-0.044825227026,0.00156716989265
1505403908562272552,0.154429826186,0.082107850064,0.0755882263184,-0.0787715036125,-0.044789666259,0.00156716989265
1505403908591880738,0.153833063057,0.08626423104,0.0759619101882,-0.0778025216657,-0.0438540671777,0.00156716989265
1505403908592477267,0.153073952054,0.0872161711976,0.0759619101882,-0.0770449034462,-0.0429009385336,0.00156716989265
1505403908593928158,0.152385942903,0.0877450123612,0.0759619101882,-0.0763577239234,-0.0423710197927,0.00156716989265
1505403908599247412,0.152385942903,0.0877450123612,0.0763259157538,-2000.0,0.0,0.00156716989265
1505403908604347433,0.152385942903,0.0877450123612,0.0763259157538,-2000.0,0.0,0.000370088077608
1505403908609342268,0.152385942903,0.0877450123612,0.0765694230795,-2000.0,0.0,0.000370088077608
1505403908612046717,0.152385942903,0.0877450123612,0.0765694230795,-2000.0,0.0,0.000370088077608
1505403908616522949,0.152385942903,0.0877450123612,0.0765694230795,-2000.0,0.0,0.000370088077608
1505403908634504699,0.152385942903,0.0877450123612,0.0770416855812,-2000.0,0.0,0.000370088077608
1505403908638295800,0.152385942903,0.0877450123612,0.0773660615087,-2000.0,0.0,0.000370088077608
1505403908644162268,0.159622987417,0.0916797020595,0.0773660615087,-0.0822393374727,-0.047540218729,0.000370088077608
1505403908647822569,0.159887293836,0.0916794841075,0.0773660615087,-0.0825036437924,-0.0475405344976,0.000370088077608
1505403908653325895,0.160613162056,0.0917642305894,0.0773660615087,-0.0831203370416,-0.0476470751037,0.0026666735943
1505403908656962102,0.160930635706,0.091641266189,0.0773660615087,-0.0834374816567,-0.0477708856644,0.0026666735943
1505403908664983528,0.162088508553,0.0945529669247,0.0779071003199,-0.0840541278479,-0.0478421495978,0.0026666735943
1505403908666780701,0.162661935645,0.0975364397613,0.0779071003199,-0.0846355088399,-0.0448602165103,0.0026666735943
1505403908673738903,0.163411116599,0.0993406897718,0.0781810507178,-0.0851111626545,-0.0447021288304,0.0026666735943
1505403908681479100,0.164098092116,0.0993592986502,0.0781810507178,-0.0857981853529,-0.0446853519554,0.0026666735943
1505403908683725213,0.164309992929,0.0991656857499,0.0781810507178,-0.086009569111,-0.044879529237,0.0026666735943
1505403908686626395,0.164504462844,0.0989015449737,0.0781810507178,-0.0862033339576,-0.0451441876611,0.0026666735943
1505403908692284769,0.164939983316,0.101981556923,0.0788101479411,-0.086009569111,-0.0452144650857,0.0026666735943
1505403908696949183,0.16474640314,0.101910760421,0.0788101479411,-0.0858158008318,-0.0452847451216,0.0026666735943
1505403908707983686,0.153366026253,0.104333410031,0.0790709704161,-0.0741556138112,-0.0442529747943,0.00315938894146
1505403908708131604,0.153381996404,0.104515584437,0.0790709704161,-0.0741721594408,-0.0440708517531,0.00315938894146
1505403908711552482,0.153861389646,0.104649020409,0.0790709704161,-0.0746519718659,-0.0439389310341,0.00315938894146
1505403908717358462,0.154339979139,0.105030802403,0.0790709704161,-0.0751317651663,-0.0435586629935,0.00315938894146
1505403908722386139,0.155478153885,0.108774383917,0.0795978084207,-0.075743887304,-0.0433110384488,0.00315938894146
1505403908727119346,0.156489322432,0.11011189305,0.0799142792821,-0.0764386904009,-0.0432787712465,0.00315938894146
1505403908731915370,0.157002126348,0.110112883132,0.0799142792821,-0.0769514948856,-0.0432794013133,0.00315938894146
1505403908741320809,0.15759865834,0.109782947167,0.0799142792821,-0.0775469815063,-0.0436112203048,0.00315938894146
1505403908743399341,0.163969178482,0.108900556477,0.0799142792821,-0.0839146820429,-0.044513733509,0.00315938894146
1505403908747201999,0.163898237351,0.109059032697,0.0799142792821,-0.0838442419537,-0.0443550339496,0.00315938894146
1505403908755415290,0.164002842744,0.112838218449,0.0805238932371,-0.0833511500042,-0.0440195550725,0.00291127216454
1505403908758260260,0.163707185604,0.115462060241,0.0807954370975,-0.0827875919658,-0.0427674030244,0.00291127216454
1505403908763753781,0.163510069672,0.116625143574,0.0807954370975,-0.082593862916,-0.0416037507632,0.00291127216454
1505403908768620145,0.163098523433,0.118845778721,0.0807954370975,-0.0821887832855,-0.0393819269059,0.00291127216454
1505403908774430190,0.163339706171,0.120697229524,0.0807954370975,-0.0824353550711,-0.0375311860961,0.00291127216454
1505403908779147059,0.16057283706,0.125124395094,0.0813469290733,-0.079120417947,-0.0363502536709,0.00291127216454
1505403908785683631,0.161081568998,0.125812549324,0.0813469290733,-0.0796311511307,-0.0356635834119,0.00291127216454
1505403908790374673,0.161973968743,0.127032622041,0.0816207975149,-0.0802475260497,-0.0364051834965,0.00291127216454
1505403908792353342,0.16195666637,0.126926825952,0.0816207975149,-0.0802299157494,-0.0365109287657,0.00291127216454
1505403908801111921,0.161865217343,0.126505116004,0.0816207975149,-0.0801770847182,-0.0368457898494,0.00183113367736
1505403908807981748,0.161508700088,0.129317111764,0.0821975693107,-0.0792437002801,-0.0368970269792,0.00183113367736
1505403908808971732,0.160873791718,0.129793110649,0.0821975693107,-0.0786096645924,-0.0364198662909,0.00183113367736
1505403908814625884,0.160309563912,0.13012809744,0.0821975693107,-0.078046051137,-0.0360838468855,0.00183113367736
1505403908827617604,0.159843874066,0.133556598173,0.0823685899377,-0.0774119571713,-0.0346543655124,0.00183113367736
1505403908832314784,0.159999784956,0.134984989345,0.0823685899377,-0.0775704833736,-0.0332262622285,0.00183113367736
1505403908833141997,0.159592106084,0.136378292066,0.0823685899377,-0.0771653565075,-0.0318322153301,0.00183113367736
1505403908833943345,0.159960036081,0.137453994058,0.0823685899377,-0.0775352556397,-0.0307571888696,0.00183113367736
1505403908840901152,0.16081353826,0.137578281804,0.0829704254866,-0.0777818491027,-0.0335279227775,0.00183113367736
1505403908844309260,0.160971543751,0.137860421527,0.0829704254866,-0.0779403709642,-0.0332460728563,0.00183113367736
1505403908848207396,0.161711293598,0.139555706334,0.0831991359591,-0.0784511507461,-0.0333883066115,0.00183113367736
1505403908855574708,0.16153811595,0.139095325396,0.0831991359591,-0.0782397959843,-0.0339345781211,0.00293271991437
1505403908874980287,0.16153811595,0.139095325396,0.0837547034025,-2000.0,0.0,0.00293271991437
1505403908885491902,0.16153811595,0.139095325396,0.0840817764401,-2000.0,0.0,0.00293271991437
1505403908887400641,0.16153811595,0.139095325396,0.0840817764401,-2000.0,0.0,0.00293271991437
1505403908889020212,0.16153811595,0.139095325396,0.0840817764401,-2000.0,0.0,0.00293271991437
1505403908893182494,0.16153811595,0.139095325396,0.0840817764401,-2000.0,0.0,0.00293271991437
1505403908899176839,0.16153811595,0.139095325396,0.0846064612269,-2000.0,0.0,0.00293271991437
1505403908909916156,0.16153811595,0.139095325396,0.0849025472999,-2000.0,0.0,0.00435525631868
1505403908917117550,0.16153811595,0.139095325396,0.0849025472999,-2000.0,0.0,0.00435525631868
1505403908918417813,0.16153811595,0.139095325396,0.0849025472999,-2000.0,0.0,0.00435525631868
1505403908919380256,0.16153811595,0.139095325396,0.0849025472999,-2000.0,0.0,0.00435525631868
1505403908923999340,0.16153811595,0.139095325396,0.0849025472999,-2000.0,0.0,0.00435525631868
1505403908924105261,0.16153811595,0.139095325396,0.0849025472999,-2000.0,0.0,0.00435525631868
1505403908924424583,0.16153811595,0.139095325396,0.0849025472999,-2000.0,0.0,0.00435525631868
1505403908929656998,0.16153811595,0.139095325396,0.0855549871922,-2000.0,0.0,0.00435525631868
1505403908933379080,0.169413969704,0.146759528559,0.0855549871922,-0.0836935029633,-0.0381777376906,0.00435525631868
1505403908941376039,0.169677641125,0.147630170706,0.0858722999692,-0.0836370729743,-0.0388179080998,0.00435525631868
1505403908943146495,0.16954728299,0.147328537302,0.0858722999692,-0.0835054023888,-0.0391189709015,0.00435525631868
1505403908953514414,0.169759779468,0.147610277201,0.0858722999692,-0.0836935029633,-0.0388933397123,0.00501447256103
1505403908956258507,0.169475267923,0.148080177517,0.0858722999692,-0.0834113512874,-0.0384220186341,0.00501447256103
1505403908960815115,0.170352997837,0.151834900801,0.0864726006985,-0.0836935029633,-0.0374809498035,0.00501447256103
1505403908963427913,0.170442513921,0.152739133817,0.0864726006985,-0.0837875521548,-0.0365771770297,0.00501447256103
1505403908968238499,0.171258012111,0.15448414726,0.0868383720517,-0.0842389798835,-0.0362391107613,0.00501447256103
1505403908973906975,0.171652903821,0.154504147496,0.0868383720517,-0.0846339669191,-0.0362210909421,0.00501447256103
1505403908978962383,0.171675300772,0.153788614423,0.0868383720517,-0.0846527755824,-0.0369367273273,0.00501447256103
1505403908984125045,0.171659419423,0.153204799026,0.0868383720517,-0.0846339669191,-0.0375204557483,0.00501447256103
1505403908990896365,0.171659419423,0.153204799026,0.0874109938741,-2000.0,0.0,0.00501447256103
1505403908994730032,0.171659419423,0.153204799026,0.0874109938741,-2000.0,0.0,0.00501447256103
1505403909000514669,0.171659419423,0.153204799026,0.0877697467804,-2000.0,0.0,0.00501447256103
1505403909007708874,0.171659419423,0.153204799026,0.0877697467804,-2000.0,0.0,0.00725551686269
1505403909008580489,0.171659419423,0.153204799026,0.0877697467804,-2000.0,0.0,0.00725551686269
1505403909016937000,0.171659419423,0.153204799026,0.0877697467804,-2000.0,0.0,0.00725551686269
1505403909018842277,0.171659419423,0.153204799026,0.0884000509977,-2000.0,0.0,0.00725551686269
1505403909024688745,0.171659419423,0.153204799026,0.0884000509977,-2000.0,0.0,0.00725551686269
1505403909030171324,0.171659419423,0.153204799026,0.0887917801738,-2000.0,0.0,0.00725551686269
1505403909033701431,0.171659419423,0.153204799026,0.0887917801738,-2000.0,0.0,0.00725551686269
1505403909040400057,0.171659419423,0.153204799026,0.0887917801738,-2000.0,0.0,0.00725551686269
1505403909045709910,0.171659419423,0.153204799026,0.0887917801738,-2000.0,0.0,0.00725551686269
1505403909048890388,0.171659419423,0.153204799026,0.0895261764526,-2000.0,0.0,0.00725551686269
1505403909056121421,0.171659419423,0.153204799026,0.0895261764526,-2000.0,0.0,0.00618648433925
1505403909060217919,0.171659419423,0.153204799026,0.0899320468307,-2000.0,0.0,0.00618648433925
1505403909064515710,0.171659419423,0.153204799026,0.0899320468307,-2000.0,0.0,0.00618648433925
1505403909075916559,0.17277176939,0.172890868245,0.0899320468307,-0.0826589188279,-0.0294814737194,0.00618648433925
1505403909080814474,0.173672751161,0.175693762187,0.0906639620662,-0.0828282196919,-0.0294441196601,0.00618648433925
1505403909086315896,0.174105628968,0.17565800998,0.0906639620662,-0.0832608680361,-0.029482549158,0.00618648433925
1505403909093971920,0.174867372126,0.176570886744,0.091106981039,-0.0835806430363,-0.0293136805562,0.00618648433925
1505403909095407166,0.175580500323,0.176837571433,0.091106981039,-0.0842954074171,-0.0290514126994,0.00618648433925
1505403909099202616,0.175936235233,0.177102677189,0.091106981039,-0.0846527755824,-0.0287885127504,0.00618648433925
1505403909107838238,0.177099033108,0.180128459844,0.0920091643929,-0.0848972854366,-0.0284689355524,0.00683437946339
1505403909108905099,0.177228759113,0.180411489106,0.0920091643929,-0.0850289427254,-0.0281867994902,0.00683437946339
1505403909115353123,0.177095816541,0.180599097584,0.0920091643929,-0.0848972854366,-0.0279982868208,0.00683437946339
1505403909119956010,0.177851656876,0.18117688516,0.0923499464989,-0.0853110612511,-0.0281873438766,0.00683437946339
1505403909128159910,0.177966045345,0.18095154037,0.0923499464989,-0.0854239069691,-0.0284134651712,0.00683437946339
1505403909129097377,0.178494570942,0.180671768525,0.0923499464989,-0.0859505081708,-0.0286968425989,0.00683437946339
1505403909140068645,0.178494570942,0.180671768525,0.0933036655188,-2000.0,0.0,0.00683437946339
1505403909142826400,0.178494570942,0.180671768525,0.0933036655188,-2000.0,0.0,0.00683437946339
1505403909145775975,0.178494570942,0.180671768525,0.0933036655188,-2000.0,0.0,0.00683437946339
1505403909154956146,0.178494570942,0.180671768525,0.093730174005,-2000.0,0.0,0.00489262957085
1505403909156502632,0.178494570942,0.180671768525,0.093730174005,-2000.0,0.0,0.00489262957085
1505403909159249465,0.178494570942,0.180671768525,0.0941976755857,-2000.0,0.0,0.00489262957085
1505403909164419007,0.178494570942,0.180671768525,0.0941976755857,-2000.0,0.0,0.00489262957085
1505403909177275784,0.178494570942,0.180671768525,0.0946677997708,-2000.0,0.0,0.00489262957085
1505403909180537964,0.178494570942,0.180671768525,0.0946677997708,-2000.0,0.0,0.00489262957085
1505403909186937925,0.178494570942,0.180671768525,0.0946677997708,-2000.0,0.0,0.00489262957085
1505403909191256688,0.178494570942,0.180671768525,0.0955442413688,-2000.0,0.0,0.00489262957085
1505403909194839286,0.178494570942,0.180671768525,0.0955442413688,-2000.0,0.0,0.00489262957085
1505403909199587192,0.178494570942,0.180671768525,0.0959678515792,-2000.0,0.0,0.00489262957085
1505403909206546510,0.178494570942,0.180671768525,0.0959678515792,-2000.0,0.0,0.0058017755134
1505403909209592779,0.178494570942,0.180671768525,0.0959678515792,-2000.0,0.0,0.0058017755134
1505403909214969621,0.178494570942,0.180671768525,0.0959678515792,-2000.0,0.0,0.0058017755134
1505403909220384419,0.178494570942,0.180671768525,0.0969741940498,-2000.0,0.0,0.0058017755134
1505403909225070432,0.178494570942,0.180671768525,0.0969741940498,-2000.0,0.0,0.0058017755134
1505403909230149645,0.178494570942,0.180671768525,0.0973281264305,-2000.0,0.0,0.0058017755134
1505403909235033568,0.178494570942,0.180671768525,0.0973281264305,-2000.0,0.0,0.0058017755134
1505403909240404173,0.178494570942,0.180671768525,0.0977940931916,-2000.0,0.0,0.0058017755134
1505403909245225213,0.178494570942,0.180671768525,0.0977940931916,-2000.0,0.0,0.0058017755134
1505403909251007882,0.178494570942,0.180671768525,0.0982375219464,-2000.0,0.0,0.00287387550142
1505403909255573514,0.178494570942,0.180671768525,0.0982375219464,-2000.0,0.0,0.00287387550142
1505403909260897066,0.178494570942,0.180671768525,0.0986166596413,-2000.0,0.0,0.00287387550142
1505403909265038315,0.171481137313,0.241703894074,0.0986166596413,-0.0729180482699,0.0185357891516,0.00287387550142
1505403909274960272,0.171579577708,0.240179275556,0.0986166596413,-0.0730121066998,0.0170108940246,0.00287387550142
1505403909276069612,0.171375892423,0.23905007712,0.0986166596413,-0.0728051770847,0.0158822856169,0.00287387550142
1505403909283294290,0.172524266326,0.238402804159,0.0995898842812,-0.0729744832824,0.0138488736163,0.00287387550142
1505403909285458433,0.172453725072,0.236765243396,0.0995898842812,-0.0728992361809,0.0122115223425,0.00287387550142
1505403909290174742,0.175854464836,0.242205059975,0.100013278425,-0.0758890971132,0.0165620874979,0.00287387550142
1505403909295229223,0.176085238257,0.240454837044,0.100013278425,-0.0761148396656,0.0148112085815,0.00287387550142
1505403909300191232,0.176586458207,0.239605619988,0.100623205304,-0.0760019688061,0.0133624785771,0.00287387550142
1505403909306747492,0.177255839927,0.237501696479,0.100623205304,-0.0766039359406,0.0116669351282,-0.00248002481742
1505403909310427409,0.177752526386,0.236487264771,0.101123578846,-0.0766039359406,0.0101802214449,-0.00248002481742
1505403909318159056,0.178497238011,0.235927318915,0.101646155119,-0.0768296673256,0.00873050146991,-0.00248002481742
1505403909320304378,0.17834381182,0.234742486746,0.101646155119,-0.076679180016,0.00754529244385,-0.00248002481742
1505403909325223851,0.177984021747,0.233784513354,0.101646155119,-0.0763217668451,0.00658642971113,-0.00248002481742
1505403909331591715,0.177984021747,0.233784513354,0.102167777717,-2000.0,0.0,-0.00248002481742
1505403909339891710,0.177984021747,0.233784513354,0.102628983557,-2000.0,0.0,-0.00248002481742
1505403909344644038,0.177984021747,0.233784513354,0.102628983557,-2000.0,0.0,-0.00248002481742
1505403909346080707,0.177984021747,0.233784513354,0.102628983557,-2000.0,0.0,-0.00248002481742
1505403909350612148,0.177984021747,0.233784513354,0.103242017329,-2000.0,0.0,-0.00248002481742
1505403909356101728,0.177984021747,0.233784513354,0.103242017329,-2000.0,0.0,-0.0029240758198
1505403909361494159,0.177984021747,0.233784513354,0.103842034936,-2000.0,0.0,-0.0029240758198
1505403909366624751,0.177984021747,0.233784513354,0.103842034936,-2000.0,0.0,-0.0029240758198
1505403909378591526,0.177984021747,0.233784513354,0.104906864464,-2000.0,0.0,-0.0029240758198
1505403909381283933,0.177984021747,0.233784513354,0.104906864464,-2000.0,0.0,-0.0029240758198
1505403909385789185,0.177984021747,0.233784513354,0.104906864464,-2000.0,0.0,-0.0029240758198
1505403909387523695,0.177984021747,0.233784513354,0.105515927076,-2000.0,0.0,-0.0029240758198
1505403909391198791,0.179226891523,0.258537231332,0.105515927076,-0.0736336444651,0.0265502292905,-0.0029240758198
1505403909395680279,0.179111574509,0.2576916559,0.105515927076,-0.073520800468,0.0257043202782,-0.0029240758198
1505403909401172935,0.179622023395,0.257986640288,0.106069885194,-0.0734455707354,0.0251967742298,-0.0042558190022
1505403909408119286,0.180923287388,0.257891130225,0.1066589728,-0.074160238621,0.0246128600706,-0.0042558190022
1505403909411024135,0.180844861161,0.257139488406,0.1066589728,-0.0740850119458,0.0238608912925,-0.0042558190022
1505403909416322602,0.18155764872,0.256703008387,0.1066589728,-0.0747996506243,0.0234274487117,-0.0042558190022
1505403909422251583,0.18155764872,0.256703008387,0.10728674382,-2000.0,0.0,-0.0042558190022
1505403909426130548,0.18155764872,0.256703008387,0.10728674382,-2000.0,0.0,-0.0042558190022
1505403909434425602,0.18155764872,0.256703008387,0.107880011201,-2000.0,0.0,-0.0042558190022
1505403909444881545,0.18155764872,0.256703008387,0.108471609652,-2000.0,0.0,-0.0042558190022
1505403909444885888,0.18155764872,0.256703008387,0.108471609652,-2000.0,0.0,-0.0042558190022
1505403909449067448,0.18155764872,0.256703008387,0.108995169401,-2000.0,0.0,-0.0042558190022
1505403909451059788,0.18155764872,0.256703008387,0.108995169401,-2000.0,0.0,-0.00735506827215
1505403909464850631,0.18155764872,0.256703008387,0.10959995538,-2000.0,0.0,-0.00735506827215
1505403909468636165,0.174873917583,0.267703866912,0.110225215554,-0.0644299448898,0.0299795794931,-0.00735506827215
1505403909477745857,0.176037384266,0.267951062621,0.110776163638,-0.0650462383548,0.0294686080874,-0.00735506827215
1505403909478561381,0.176404029301,0.267525604305,0.110776163638,-0.065416002719,0.0290458579539,-0.00735506827215
1505403909481614228,0.176808209374,0.267416716829,0.110776163638,-0.0658209727272,0.0289399461692,-0.00735506827215
1505403909494204990,0.178006101063,0.267921624241,0.111412726343,-0.0663843913852,0.0286579021511,-0.00735506827215
1505403909494319399,0.178006101063,0.267921624241,0.111412726343,-2000.0,0.0,-0.00735506827215
1505403909494442183,0.178006101063,0.267921624241,0.111412726343,-2000.0,0.0,-0.00735506827215
1505403909496318095,0.178006101063,0.267921624241,0.111412726343,-2000.0,0.0,-0.00735506827215
1505403909501341904,0.178006101063,0.267921624241,0.111971855164,-2000.0,0.0,-0.00916289047781
1505403909506783681,0.178006101063,0.267921624241,0.111971855164,-2000.0,0.0,-0.00916289047781
1505403909511183641,0.178006101063,0.267921624241,0.112561717629,-2000.0,0.0,-0.00916289047781
1505403909516506203,0.178006101063,0.267921624241,0.112561717629,-2000.0,0.0,-0.00916289047781
1505403909521400925,0.178006101063,0.267921624241,0.113139428198,-2000.0,0.0,-0.00916289047781
1505403909526318115,0.178006101063,0.267921624241,0.113139428198,-2000.0,0.0,-0.00916289047781
1505403909532717030,0.178006101063,0.267921624241,0.113714940846,-2000.0,0.0,-0.00916289047781
1505403909544746717,0.178006101063,0.267921624241,0.114290937781,-2000.0,0.0,-0.00916289047781
1505403909547683868,0.178006101063,0.267921624241,0.11478831619,-2000.0,0.0,-0.00916289047781
1505403909547699944,0.178006101063,0.267921624241,0.11478831619,-2000.0,0.0,-0.00916289047781
