%time,field.header.seq,field.header.stamp,field.header.frame_id,field.pose.position.x,field.pose.position.y,field.pose.position.z,field.pose.orientation.x,field.pose.orientation.y,field.pose.orientation.z,field.pose.orientation.w
1505429379379185850,3566,1505429379379030368,-0.421530812979,-0.0373653359711,-0.39427921176,0.0107847554609,0.0497153550386,-0.0117250196636,0.998636364937
1505429379389417370,3567,1505429379389289513,-0.421525239944,-0.037381850183,-0.394293546677,0.0108098778874,0.0497212260962,-0.0117260878906,0.998635828495
1505429379398614052,3568,1505429379398504449,-0.421533435583,-0.0373894013464,-0.394295036793,0.0108068743721,0.0497121885419,-0.0117194661871,0.998636364937
1505429379409049446,3569,1505429379408867088,-0.42154031992,-0.0374015942216,-0.394291609526,0.0107741057873,0.0497219860554,-0.0117542045191,0.998635828495
1505429379419392127,3570,1505429379419119410,-0.421533226967,-0.0373781397939,-0.394279748201,0.0107791870832,0.0497287325561,-0.0117280716076,0.998635709286
1505429379429523087,3571,1505429379429354072,-0.421532988548,-0.0373749770224,-0.394284337759,0.010780358687,0.049719452858,-0.0117226121947,0.998636245728
1505429379429527108,3572,1505429379429388451,-0.421534568071,-0.0374053269625,-0.394308507442,0.0107672223821,0.0497332438827,-0.0117140933871,0.998635828495
1505429379449046693,3573,1505429379448842670,-0.421531587839,-0.037389062345,-0.394297838211,0.0107586439699,0.0497106462717,-0.0117367384955,0.998636722565
1505429379459266115,3574,1505429379459067535,-0.421534121037,-0.0373743511736,-0.394271582365,0.0108084334061,0.0497202947736,-0.0117322709411,0.998635828495
1505429379459276911,3575,1505429379459089416,-0.421535402536,-0.0374344550073,-0.394293934107,0.0107989339158,0.0497179590166,-0.0117109166458,0.998636245728
1505429379469524651,3576,1505429379469356474,-0.421534657478,-0.037368465215,-0.394289672375,0.0107250977308,0.0497290343046,-0.0117487572134,0.998636126518
1505429379489186459,3577,1505429379489019215,-0.421531945467,-0.037386957556,-0.394299864769,0.0107960095629,0.0497115179896,-0.0117116346955,0.99863666296
1505429379489208729,3578,1505429379489063237,-0.421536237001,-0.0373956114054,-0.394280970097,0.0107659446076,0.0497339107096,-0.0117464540526,0.998635411263
1505429379508704838,3579,1505429379508540774,-0.421534717083,-0.0373492352664,-0.394270509481,0.010791300796,0.0497284717858,-0.0117494938895,0.998635411263
1505429379518904130,3580,1505429379518763561,-0.421535760164,-0.037407875061,-0.394287705421,0.0107825119048,0.0497202947736,-0.0117223979905,0.998636126518
1505429379529186487,3581,1505429379529004856,-0.421539276838,-0.037389036268,-0.394277244806,0.0107719674706,0.0497287176549,-0.0117432754487,0.998635590076
1505429379539324860,3582,1505429379539193429,-0.421529054642,-0.0373642295599,-0.394291192293,0.0107664335519,0.049719914794,-0.0117237884551,0.998636305332
1505429379548735184,3583,1505429379548412749,-0.421533226967,-0.0373818166554,-0.394296735525,0.0107811894268,0.0497251115739,-0.0117455432191,0.998635709286
1505429379558924699,3584,1505429379558791851,-0.421533107758,-0.0373713709414,-0.394266068935,0.0107754040509,0.0497304722667,-0.011729083024,0.998635649681
1505429379569208693,3585,1505429379569056788,-0.421531230211,-0.0374356098473,-0.394316732883,0.0107962954789,0.0497155487537,-0.0117105189711,0.998636424541
1505429379579775987,3586,1505429379579320437,-0.42153185606,-0.0373755916953,-0.394278556108,0.0107774566859,0.0497247390449,-0.0117256166413,0.998636007309
1505429379579787623,3587,1505429379579345507,-0.421536982059,-0.037355966866,-0.394281387329,0.0107587547973,0.0497323833406,-0.011737992987,0.998635649681
1505429379599502763,3588,1505429379599279142,-0.421534985304,-0.0373849086463,-0.394322574139,0.0107855498791,0.0497109927237,-0.0117193385959,0.99863666296
1505429379608722313,3589,1505429379608547219,-0.42152813077,-0.0373473614454,-0.394274741411,0.010784744285,0.0497183203697,-0.0117312464863,0.998636186123
1505429379619004431,3590,1505429379618805862,-0.421533346176,-0.0373943895102,-0.394293159246,0.0107933748513,0.0497242026031,-0.0117433555424,0.998635649681
1505429379629292627,3591,1505429379629016700,-0.421542286873,-0.0373821370304,-0.394274324179,0.0107500962913,0.0497090183198,-0.0117520354688,0.998636782169
1505429379639525345,3592,1505429379639288586,-0.421536296606,-0.0374215245247,-0.394302666187,0.0107494387776,0.0497127585113,-0.0117232147604,0.998636960983
1505429379639532549,3593,1505429379639317455,-0.421532005072,-0.0373958609998,-0.394315302372,0.0107777789235,0.0497218184173,-0.0117189008743,0.998636186123
1505429379659020550,3594,1505429379658807184,-0.421527385712,-0.0373319946229,-0.394260257483,0.0107634244487,0.0497263073921,-0.0117209050804,0.998636126518
1505429379669229898,3595,1505429379669052405,-0.421532154083,-0.0373950041831,-0.39429166913,0.0107503030449,0.0497320257127,-0.0117392521352,0.99863576889
1505429379679419273,3596,1505429379679262282,-0.42154237628,-0.0374095961452,-0.394289344549,0.0107727535069,0.0497331693769,-0.0117376195267,0.998635470867
1505429379688638831,3597,1505429379688480002,-0.421535849571,-0.0374066717923,-0.394298225641,0.0107667027041,0.0497278086841,-0.0117321452126,0.9986358881
1505429379698953336,3598,1505429379698789316,-0.421536892653,-0.0373796448112,-0.394294291735,0.0107721574605,0.0497266538441,-0.0117343422025,0.998635828495
1505429379709318801,3599,1505429379709037312,-0.421535968781,-0.0373814404011,-0.394295573235,0.0107868686318,0.0497311241925,-0.0117023717612,0.998635828495
1505429379719467599,3600,1505429379719271551,-0.421524643898,-0.0374052748084,-0.394299268723,0.0107749281451,0.0497237406671,-0.011703860946,0.998636305332
1505429379728694258,3601,1505429379728539434,-0.421532094479,-0.0373448655009,-0.39426317811,0.0107652824372,0.0497262813151,-0.0117368465289,0.9986358881
1505429379738931961,3602,1505429379738776787,-0.421540349722,-0.0374083518982,-0.394290089607,0.0107644554228,0.0497279800475,-0.0117387929931,0.99863576889
1505429379749163539,3603,1505429379748985225,-0.421529710293,-0.0373763665557,-0.394299775362,0.0107907280326,0.0497133545578,-0.0117140831426,0.998636543751
1505429379759410549,3604,1505429379759217783,-0.42153018713,-0.0373572967947,-0.394286990166,0.0107690095901,0.0497254729271,-0.0117371538654,0.998635947704
1505429379759415978,3605,1505429379759241784,-0.421533435583,-0.0373998656869,-0.394306689501,0.0107759106904,0.0497206225991,-0.0117257414386,0.998636186123
1505429379778804599,3606,1505429379778643806,-0.421523928642,-0.0373421274126,-0.394268453121,0.0107717840001,0.0497352443635,-0.0117238564417,0.998635530472
1505429379789043862,3607,1505429379788885290,-0.421530842781,-0.0374351851642,-0.394306480885,0.0107807833701,0.0497093088925,-0.0117182992399,0.998636722565
1505429379799257902,3608,1505429379799082483,-0.42153275013,-0.0373915508389,-0.394277006388,0.0108079537749,0.0497202463448,-0.0117178466171,0.998636007309
1505429379809559926,3609,1505429379809347954,-0.421535640955,-0.0373592935503,-0.394273042679,0.0107534062117,0.0497198700905,-0.0117437466979,0.998636245728
1505429379818753653,3610,1505429379818498364,-0.421528369188,-0.0373819507658,-0.394301861525,0.0108023975044,0.049714718014,-0.0117100868374,0.998636424541
1505429379828870109,3611,1505429379828692856,-0.42152941227,-0.0373744256794,-0.39427113533,0.0107948221266,0.0497231855989,-0.0117109725252,0.998636066914
1505429379839061088,3612,1505429379838900412,-0.421527504921,-0.0374504812062,-0.394333839417,0.0108043979853,0.0497150868177,-0.0117080034688,0.998636364937
1505429379849336809,3613,1505429379849140983,-0.421537220478,-0.0373999625444,-0.394278496504,0.0107721369714,0.0497204996645,-0.0117371380329,0.998636126518
1505429379858500025,3614,1505429379858306743,-0.421542584896,-0.0373918376863,-0.39428627491,0.0107754953206,0.0497004315257,-0.0117119178176,0.99863743782
1505429379868807047,3615,1505429379868589962,-0.421536386013,-0.0374135449529,-0.394315242767,0.0107824821025,0.0497208274901,-0.0117156645283,0.998636245728
1505429379879001935,3616,1505429379878817533,-0.421525210142,-0.0373599715531,-0.394264966249,0.0107886651531,0.0497247725725,-0.0117302844301,0.998635828495
1505429379889168982,3617,1505429379889040726,-0.421535521746,-0.0374089702964,-0.394294768572,0.0107823228464,0.0497182905674,-0.0117395613343,0.998636066914
1505429379899407314,3618,1505429379899259680,-0.421539217234,-0.0373819880188,-0.394274652004,0.0107647627592,0.0497269555926,-0.0117437886074,0.99863576889
1505429379908649901,3619,1505429379908467113,-0.421533823013,-0.0374327078462,-0.394310861826,0.0107660312206,0.0497123114765,-0.0117333270609,0.998636603355
1505429379918807199,3620,1505429379918670781,-0.421530812979,-0.0373991169035,-0.394310832024,0.0107986340299,0.0497205741704,-0.0117290988564,0.9986358881
1505429379928996645,3621,1505429379928851898,-0.4215272367,-0.0373198874295,-0.394260495901,0.0107929799706,0.049732144922,-0.0116964373738,0.99863576889
1505429379939256345,3622,1505429379939106900,-0.421524196863,-0.0373987220228,-0.394281178713,0.010801801458,0.0497236251831,-0.0116917071864,0.998636245728
1505429379949490419,3623,1505429379949314304,-0.421523302794,-0.0374233201146,-0.39430564642,0.0108038270846,0.0497122853994,-0.0116876186803,0.998636722565
1505429379958776422,3624,1505429379958618101,-0.421533823013,-0.0374081544578,-0.394311368465,0.0107759106904,0.0497231483459,-0.0117332264781,0.998635947704
1505429379969059923,3625,1505429379968889066,-0.421535909176,-0.0373568572104,-0.394267052412,0.0108060287312,0.0497259907424,-0.0117249954492,0.998635649681
1505429379979251637,3626,1505429379979089416,-0.421531617641,-0.0373592600226,-0.394282519817,0.010802956298,0.0497335121036,-0.011705824174,0.998635530472
1505429379989409019,3627,1505429379989300062,-0.421529173851,-0.0374183282256,-0.394320219755,0.0107774548233,0.0497310720384,-0.0117210894823,0.998635709286
1505429379998752816,3628,1505429379998591691,-0.421534538269,-0.0373804010451,-0.394278049469,0.0107678407803,0.0497260913253,-0.0117513099685,0.99863576889
1505429380008934880,3629,1505429380008782611,-0.421541541815,-0.0373758673668,-0.394262522459,0.0107730859891,0.0497290790081,-0.0117430379614,0.998635590076
1505429380019151568,3630,1505429380019025136,-0.421540260315,-0.0373802408576,-0.394281238317,0.0107854465023,0.049716707319,-0.011759695597,0.998635947704
1505429380029355773,3631,1505429380029210067,-0.421537816525,-0.0374098308384,-0.394300431013,0.0107723567635,0.0497102811933,-0.011733896099,0.99863666296
1505429380029363667,3632,1505429380029245785,-0.421534627676,-0.0373855642974,-0.394288361073,0.0107735926285,0.0497062318027,-0.0117172896862,0.998637080193
1505429380048895426,3633,1505429380048737485,-0.42153775692,-0.0374072380364,-0.394284158945,0.0107951145619,0.0497165285051,-0.011719734408,0.998636305332
1505429380059138392,3634,1505429380058971236,-0.421530246735,-0.0373878255486,-0.394292742014,0.0107911499217,0.0497173927724,-0.0117168007419,0.998636364937
1505429380069302520,3635,1505429380069173985,-0.421537041664,-0.0373950600624,-0.394277632236,0.0108097698539,0.0497290566564,-0.0117272166535,0.998635411263
1505429380078480215,3636,1505429380078323204,-0.421528816223,-0.0373996719718,-0.394296139479,0.0108097596094,0.049716655165,-0.0117100765929,0.998636245728
1505429380088653472,3637,1505429380088514708,-0.421530336142,-0.0373460166156,-0.394277691841,0.0107520464808,0.049718234688,-0.0117220394313,0.99863666296
1505429380099012949,3638,1505429380098836872,-0.421534836292,-0.0374089553952,-0.394297480583,0.0107760559767,0.0497189089656,-0.0117242792621,0.998636245728
1505429380109215909,3639,1505429380109059971,-0.421523243189,-0.0374073348939,-0.394302755594,0.0108074499294,0.04971973598,-0.0116978483275,0.998636245728
1505429380119417825,3640,1505429380119251219,-0.421540617943,-0.0373676642776,-0.394271969795,0.0107486611232,0.0497204698622,-0.0117545891553,0.998636126518
1505429380128662876,3641,1505429380128500391,-0.421546429396,-0.0373964384198,-0.394278943539,0.0107624810189,0.0497163757682,-0.0117625053972,0.998636126518
1505429380138909697,3642,1505429380138723237,-0.42153313756,-0.0374022684991,-0.394293785095,0.0107853403315,0.0497096516192,-0.0117423152551,0.998636424541
1505429380149125265,3643,1505429380148979171,-0.421528697014,-0.0374095290899,-0.394307374954,0.0107824252918,0.0497195310891,-0.0117236133665,0.998636186123
1505429380159309794,3644,1505429380159162929,-0.421532899141,-0.0373497307301,-0.394263744354,0.0107458187267,0.0497147738934,-0.0117586655542,0.998636424541
1505429380168602192,3645,1505429380168453180,-0.421534508467,-0.0373613908887,-0.394258081913,0.0107489014044,0.0497333779931,-0.0117374286056,0.99863576889
1505429380178841584,3646,1505429380178686184,-0.421534329653,-0.0374368838966,-0.394311845303,0.0107704820111,0.0497192703187,-0.0117217889056,0.998636364937
1505429380189241037,3647,1505429380188883943,-0.42153391242,-0.0374100133777,-0.394294470549,0.0108045274392,0.0497282296419,-0.0117306904867,0.998635530472
1505429380199317459,3648,1505429380199160854,-0.421532571316,-0.0373795703053,-0.394284039736,0.0107718547806,0.049719337374,-0.0117123648524,0.998636543751
1505429380208586314,3649,1505429380208387895,-0.421521246433,-0.0373420454562,-0.394273549318,0.01081085857,0.0497281402349,-0.0116983894259,0.99863576889
1505429380218662369,3650,1505429380218569203,-0.421528100967,-0.0373964123428,-0.3942925632,0.0107696950436,0.0497341379523,-0.0117248808965,0.998635590076
1505429380229003537,3651,1505429380228839562,-0.421528369188,-0.0374147705734,-0.394323348999,0.0107942335308,0.0497064180672,-0.0117108868435,0.998636901379
1505429380239202061,3652,1505429380239054775,-0.421534895897,-0.0373607166111,-0.394273579121,0.0107964221388,0.0497099123895,-0.0117256492376,0.998636543751
1505429380249436252,3653,1505429380249287801,-0.42153853178,-0.0373992063105,-0.394282221794,0.0108009176329,0.0497270599008,-0.0117296082899,0.998635590076
1505429380258694590,3654,1505429380258551635,-0.421534478664,-0.0373728983104,-0.394291222095,0.0107427695766,0.0497209876776,-0.0117659224197,0.998636066914
1505429380268923530,3655,1505429380268807477,-0.421535789967,-0.0373951457441,-0.394309520721,0.0107898646966,0.0496975779533,-0.0117291845381,0.998637139797
1505429380279292648,3656,1505429380279146229,-0.421538442373,-0.0373889096081,-0.394286513329,0.0107808997855,0.0497310087085,-0.0117335403338,0.998635530472
1505429380288482241,3657,1505429380288310908,-0.421527862549,-0.0373803451657,-0.394279539585,0.0108105288818,0.0497188977897,-0.0117048276588,0.998636186123
1505429380298738424,3658,1505429380298568293,-0.4215259552,-0.0374079681933,-0.394324153662,0.010808066465,0.0497038699687,-0.0117082642391,0.998636901379
1505429380308912106,3659,1505429380308763151,-0.421535462141,-0.0373712852597,-0.394282519817,0.0107526052743,0.0497198477387,-0.0117431459948,0.998636305332
1505429380319139447,3660,1505429380318957557,-0.421530723572,-0.0374028533697,-0.394296705723,0.0107990363613,0.0497269928455,-0.0117084253579,0.998635828495
1505429380329378969,3661,1505429380329247068,-0.421525657177,-0.0373853966594,-0.394297033548,0.0107870716602,0.049729231745,-0.0117193451151,0.998635709286
1505429380338617472,3662,1505429380338454677,-0.421530395746,-0.0373909771442,-0.394286960363,0.0107908509672,0.049710534513,-0.011715487577,0.99863666296
1505429380348857045,3663,1505429380348676880,-0.4215297997,-0.0374353043735,-0.394306302071,0.0108042610809,0.0497173815966,-0.0117155183107,0.998636186123
1505429380359630821,3664,1505429380359490160,-0.421540468931,-0.0373544245958,-0.39428922534,0.0108070708811,0.0497163869441,-0.0117308534682,0.998636066914
1505429380368918497,3665,1505429380368738949,-0.421526074409,-0.0374037101865,-0.394309341908,0.0107982400805,0.0497131831944,-0.0117202028632,0.998636364937
1505429380379348763,3666,1505429380378918296,-0.421534061432,-0.0373880974948,-0.394302219152,0.0107803177088,0.04972833395,-0.0117343198508,0.998635709286
1505429380389322618,3667,1505429380389199489,-0.421537876129,-0.0373771674931,-0.394291222095,0.0107905063778,0.0497306734324,-0.0117271225899,0.998635530472
1505429380398537088,3668,1505429380398369943,-0.421528339386,-0.0374003872275,-0.394279837608,0.0107975332066,0.0497364215553,-0.01172377076,0.998635232449
1505429380408752947,3669,1505429380408591114,-0.421525210142,-0.0373868048191,-0.394284069538,0.0107971830294,0.0497141964734,-0.0117221819237,0.998636364937
1505429380418956113,3670,1505429380418805165,-0.421530932188,-0.0373937524855,-0.394321978092,0.0107708564028,0.0497132055461,-0.0117377061397,0.998636424541
1505429380429215017,3671,1505429380429066896,-0.421523690224,-0.0373651124537,-0.394281744957,0.0107614994049,0.0497345514596,-0.0117040034384,0.998635947704
1505429380439500807,3672,1505429380439319811,-0.42153441906,-0.0373591519892,-0.394276499748,0.0107965357602,0.0497344695032,-0.0117297647521,0.998635292053
1505429380448791411,3673,1505429380448584687,-0.421526491642,-0.0374283976853,-0.394312292337,0.010797101073,0.0497263073921,-0.011711015366,0.9986358881
1505429380458997372,3674,1505429380458813424,-0.421538412571,-0.0374271348119,-0.394289672375,0.0107749402523,0.0497126951814,-0.011713125743,0.99863666296
1505429380469274485,3675,1505429380469071339,-0.421536833048,-0.0373990647495,-0.394302129745,0.0108012808487,0.0497235916555,-0.0117277326062,0.99863576889
1505429380478631255,3676,1505429380478469249,-0.42153096199,-0.037338629365,-0.394267737865,0.0107463039458,0.0497156605124,-0.0117336716503,0.998636722565
1505429380488847857,3677,1505429380488683758,-0.421525508165,-0.0373863093555,-0.394295454025,0.010802347213,0.0497316941619,-0.0116989361122,0.998635709286
1505429380499137665,3678,1505429380498945377,-0.42152184248,-0.0374284051359,-0.394323348999,0.0108021683991,0.0497267059982,-0.011704262346,0.9986358881
1505429380509397775,3679,1505429380509210461,-0.421533584595,-0.037361446768,-0.394273906946,0.010778403841,0.0497293062508,-0.0117237521335,0.99863576889
1505429380518588775,3680,1505429380518427908,-0.421544343233,-0.0374136865139,-0.394293069839,0.0107637727633,0.0497158654034,-0.0117470398545,0.998636364937
1505429380528963290,3681,1505429380528667847,-0.421533048153,-0.037398122251,-0.394302874804,0.0108014214784,0.0497277788818,-0.0117324246094,0.998635470867
1505429380539155200,3682,1505429380538972467,-0.421527713537,-0.03738309443,-0.394297689199,0.0108058964834,0.0497285425663,-0.0117199616507,0.998635590076
1505429380549404340,3683,1505429380549249940,-0.421527177095,-0.0373756028712,-0.394273787737,0.0107655823231,0.04971691221,-0.0117099704221,0.998636722565
1505429380558652507,3684,1505429380558488113,-0.421530783176,-0.0373911932111,-0.394269436598,0.0107942810282,0.0497282855213,-0.0117084262893,0.998635828495
1505429380568931956,3685,1505429380568744932,-0.421532958746,-0.0374140553176,-0.394315570593,0.0107751600444,0.0497118234634,-0.0117289116606,0.998636543751
1505429380579114646,3686,1505429380578961247,-0.421527773142,-0.0373792536557,-0.394299000502,0.0108162788674,0.0497281365097,-0.0117183867842,0.998635470867
1505429380589384334,3687,1505429380589222563,-0.421535402536,-0.0373915359378,-0.394287109375,0.0107778599486,0.0497089140117,-0.0117182051763,0.998636841774
1505429380598662110,3688,1505429380598496326,-0.421534061432,-0.0373730100691,-0.394276797771,0.0108036948368,0.0497279837728,-0.0117108300328,0.998635709286
1505429380608987890,3689,1505429380608714322,-0.421537220478,-0.0373879447579,-0.394277244806,0.0107692442834,0.0497206822038,-0.0117189968005,0.998636305332
1505429380619178372,3690,1505429380618980257,-0.421539276838,-0.0374314524233,-0.394289374352,0.0107737891376,0.049730822444,-0.0117397680879,0.998635590076
1505429380629319093,3691,1505429380629195659,-0.421542584896,-0.0373714752495,-0.394278794527,0.0107772657648,0.0497159026563,-0.0117476815358,0.998636126518
1505429380638550464,3692,1505429380638400998,-0.421541929245,-0.037366874516,-0.394267201424,0.0107656978071,0.0497330613434,-0.0117223626003,0.99863576889
1505429380648856695,3693,1505429380648659778,-0.421538829803,-0.0374080352485,-0.394292443991,0.0107828220353,0.0497234463692,-0.0117236450315,0.998636007309
1505429380659001078,3694,1505429380658844704,-0.421532332897,-0.0374095626175,-0.394324332476,0.0107926772907,0.0497133247554,-0.0117043610662,0.998636603355
1505429380669240049,3695,1505429380669084591,-0.421527504921,-0.0373877286911,-0.39428293705,0.0107739074156,0.0497285760939,-0.0117390975356,0.998635649681
1505429380679498548,3696,1505429380679324992,-0.421538829803,-0.0373701639473,-0.394257336855,0.0107988892123,0.0497156269848,-0.01173583325,0.998636066914
1505429380688697105,3697,1505429380688517238,-0.421538561583,-0.0374000146985,-0.394313842058,0.0107998428866,0.0497189126909,-0.0117506729439,0.99863576889
1505429380698957648,3698,1505429380698757197,-0.421531796455,-0.0374158062041,-0.394316375256,0.0107984859496,0.0497228913009,-0.0117552625015,0.998635590076
1505429380709269749,3699,1505429380709051962,-0.421530604362,-0.0373856239021,-0.394276320934,0.0107705127448,0.0497380197048,-0.0117048965767,0.998635649681
1505429380719423229,3700,1505429380719251531,-0.421538472176,-0.0373440757394,-0.394250363111,0.0107830213383,0.0497349873185,-0.0117325503379,0.998635292053
1505429380728720827,3701,1505429380728509217,-0.421537697315,-0.0373809076846,-0.394284904003,0.0107914153486,0.0497183650732,-0.01171228569,0.998636305332
1505429380738900890,3702,1505429380738729357,-0.421539306641,-0.0374571233988,-0.3943361938,0.0107770916075,0.0497293695807,-0.0117235174403,0.99863576889
1505429380749129548,3703,1505429380748955046,-0.421539187431,-0.0373862795532,-0.394274711609,0.0107570597902,0.0497249737382,-0.0117181167006,0.998636364937
1505429380759340693,3704,1505429380759171025,-0.421540081501,-0.037383724004,-0.394271761179,0.0107952402905,0.0497268997133,-0.0117406221107,0.998635530472
1505429380768538001,3705,1505429380768369851,-0.42152941227,-0.0373641885817,-0.394267201424,0.0107753761113,0.0497339889407,-0.0117239980027,0.998635530472
1505429380778747798,3706,1505429380778606365,-0.421525150537,-0.0374289341271,-0.39432105422,0.0108130471781,0.0497191101313,-0.0116929756477,0.998636245728
1505429380789008706,3707,1505429380788856592,-0.421537339687,-0.0374058075249,-0.394303113222,0.0107999844477,0.0497222431004,-0.0117243565619,0.9986358881
1505429380799262395,3708,1505429380799106696,-0.421534955502,-0.0373775400221,-0.394265174866,0.0107801733539,0.0497197620571,-0.0117140300572,0.998636364937
1505429380809520537,3709,1505429380809360195,-0.42153224349,-0.0373955816031,-0.394300818443,0.0107735451311,0.0497199073434,-0.0117327654734,0.998636186123
1505429380818865868,3710,1505429380818654795,-0.421528607607,-0.0373585447669,-0.394272744656,0.0107487151399,0.0497260317206,-0.011742903851,0.998636066914
1505429380829082146,3711,1505429380828888681,-0.421530395746,-0.0373939797282,-0.394288927317,0.0107967322692,0.0497279427946,-0.0117126125842,0.99863576889
1505429380839303944,3712,1505429380839147046,-0.421525835991,-0.0373788438737,-0.394293606281,0.0108005926013,0.0497218370438,-0.0117222359404,0.9986358881
1505429380848456196,3713,1505429380848321307,-0.421527266502,-0.0373765751719,-0.394290775061,0.0107773607597,0.0497147627175,-0.0117210000753,0.998636543751
1505429380858690927,3714,1505429380858551494,-0.421526998281,-0.0374404899776,-0.394314318895,0.0108104897663,0.0496988110244,-0.0116927679628,0.998637259007
1505429380868947994,3715,1505429380868777630,-0.42153558135,-0.0373661778867,-0.394265562296,0.0107505638152,0.0497296266258,-0.0117362746969,0.998635947704
1505429380879137534,3716,1505429380878995975,-0.421528607607,-0.0374044179916,-0.39429217577,0.010771708563,0.0497257113457,-0.0117079410702,0.998636305332
1505429380889437084,3717,1505429380889209439,-0.421539217234,-0.0373883470893,-0.394286185503,0.0107676899061,0.0497338734567,-0.0117388088256,0.998635470867
1505429380898604016,3718,1505429380898431782,-0.421530246735,-0.0374180711806,-0.394308239222,0.0107879331335,0.0497117713094,-0.0117333037779,0.998636424541
1505429380908814115,3719,1505429380908694086,-0.421531498432,-0.0374129973352,-0.394298523664,0.0107668675482,0.0497054159641,-0.0117302453145,0.998637020588
1505429380919046376,3720,1505429380918919712,-0.421529322863,-0.0373401790857,-0.394253283739,0.0107657527551,0.0497276671231,-0.0117481919006,0.998635649681
1505429380929351990,3721,1505429380929205433,-0.421531528234,-0.0374321714044,-0.394312649965,0.0107956314459,0.0497403107584,-0.0117192678154,0.998635113239
1505429380938571682,3722,1505429380938425348,-0.421530216932,-0.0374034419656,-0.394300550222,0.0108019439504,0.0497221425176,-0.0117059927434,0.998636126518
1505429380948846699,3723,1505429380948678920,-0.421531200409,-0.0373861193657,-0.39429667592,0.0108182840049,0.049715436995,-0.011695635505,0.998636424541
1505429380959003276,3724,1505429380958847566,-0.42153891921,-0.0373779423535,-0.394271552563,0.0107974261045,0.0497431792319,-0.0117468954995,0.998634636402
1505429380969222577,3725,1505429380969056312,-0.421501487494,-0.037389729172,-0.394277483225,0.0107533065602,0.0497647821903,-0.0116731636226,0.998634934425
1505429380979420875,3726,1505429380979273203,-0.421560287476,-0.0374061092734,-0.394366055727,0.0107677634805,0.0492946058512,-0.0118295941502,0.998656153679
1505429380988597521,3727,1505429380988481976,-0.42152312398,-0.0374055206776,-0.394254654646,0.0109085589647,0.0498529039323,-0.011545275338,0.998630285263
1505429380998931492,3728,1505429380998738828,-0.421479195356,-0.0373988673091,-0.394246667624,0.0108401067555,0.0503969043493,-0.0115886926651,0.998603224754
1505429381009130473,3729,1505429381008958744,-0.421513557434,-0.037400957197,-0.394323527813,0.0107704075053,0.0490783900023,-0.0117215048522,0.998668134212
1505429381019452481,3730,1505429381019245474,-0.421579420567,-0.037349421531,-0.394288063049,0.0107280816883,0.0492568165064,-0.0118710342795,0.998658001423
1505429381028771897,3731,1505429381028525992,-0.42146474123,-0.0374372527003,-0.394219726324,0.0111010726541,0.0507093481719,-0.0113750966266,0.998586952686
1505429381038948928,3732,1505429381038767315,-0.421495318413,-0.0373914204538,-0.394169986248,0.010629224591,0.0499346330762,-0.0114020993933,0.9986307621
1505429381049223252,3733,1505429381049030029,-0.421554148197,-0.0374505110085,-0.394295662642,0.0106552243233,0.0490776523948,-0.0118062151596,0.998668372631
1505429381059495151,3734,1505429381059269164,-0.421612352133,-0.0374001711607,-0.394278109074,0.0108042256907,0.0496173985302,-0.0119619499892,0.998638212681
1505429381068712581,3735,1505429381068525818,-0.421490848064,-0.0374136045575,-0.394158750772,0.010793235153,0.0505550615489,-0.011525166221,0.998596429825
1505429381078860754,3736,1505429381078716225,-0.421449333429,-0.0374728180468,-0.394231021404,0.0106784636155,0.0498838424683,-0.0113381193951,0.998633563519
1505429381089123137,3737,1505429381088927265,-0.421575397253,-0.0373819321394,-0.394272834063,0.0106645645574,0.0490453466773,-0.0118075730279,0.998669862747
1505429381099321007,3738,1505429381099149490,-0.421560436487,-0.0374225899577,-0.394256949425,0.0108742397279,0.0498857535422,-0.0118545107543,0.998625397682
1505429381108482558,3739,1505429381108326119,-0.421477913857,-0.037416357547,-0.394206255674,0.0108223110437,0.050563108176,-0.0114002302289,0.998597204685
1505429381118683948,3740,1505429381118525217,-0.421495556831,-0.0373867377639,-0.394195795059,0.0107123060152,0.0498085431755,-0.0115260137245,0.998634874821
1505429381129031430,3741,1505429381128832968,-0.421567738056,-0.037433128804,-0.394286602736,0.01065954566,0.0491440743208,-0.0119152804837,0.998663723469
1505429381139268143,3742,1505429381139049064,-0.421554505825,-0.0374243482947,-0.394224375486,0.0107701923698,0.049898929894,-0.0118310879916,0.998626172543
1505429381149381650,3743,1505429381149250969,-0.421471476555,-0.0374070070684,-0.394186913967,0.0106420330703,0.0502395294607,-0.0113950707018,0.998615384102
1505429381158661660,3744,1505429381158477112,-0.421492099762,-0.0374065600336,-0.39421659708,0.0107996901497,0.0497626252472,-0.0115455258638,0.998635947704
1505429381168846070,3745,1505429381168691074,-0.42154827714,-0.0374474897981,-0.394265890121,0.0107454080135,0.0496333613992,-0.0118191465735,0.998639762402
1505429381179063025,3746,1505429381178922187,-0.421522915363,-0.0374205298722,-0.394239634275,0.0108072496951,0.0500606447458,-0.0117118200287,0.99861907959
1505429381189297927,3747,1505429381189134240,-0.421512842178,-0.0374082624912,-0.394190460443,0.0107975555584,0.0500806830823,-0.0115959318355,0.998619437218
1505429381198508912,3748,1505429381198348036,-0.421522885561,-0.0374433211982,-0.394267439842,0.0107773914933,0.0496071763337,-0.0116654513404,0.998642504215
1505429381208790885,3749,1505429381208608969,-0.421537280083,-0.0374097302556,-0.394251942635,0.0107435742393,0.0496682561934,-0.0117422817275,0.998638987541
1505429381218984537,3750,1505429381218812456,-0.421524703503,-0.0374082587659,-0.394203066826,0.010711921379,0.0500787049532,-0.0117213847116,0.99861907959
1505429381229145365,3751,1505429381229009527,-0.421509057283,-0.0373933985829,-0.394202649593,0.0108353113756,0.0500999800861,-0.0116627896205,0.998617291451
1505429381239391281,3752,1505429381239242964,-0.421532809734,-0.0374512858689,-0.394237220287,0.0107768485323,0.0496897213161,-0.0116867898032,0.998638212681
1505429381248653228,3753,1505429381248478694,-0.421519249678,-0.0374473407865,-0.394262671471,0.0107641406357,0.0497128628194,-0.0116737606004,0.998637378216
1505429381258924846,3754,1505429381258783865,-0.421519517899,-0.0373955219984,-0.394208878279,0.0107770804316,0.0499720051885,-0.0116700101644,0.998624324799
1505429381269134403,3755,1505429381268990091,-0.421518683434,-0.0373913943768,-0.394216835499,0.0108303921297,0.0499684996903,-0.0117026995867,0.998623490334
1505429381279310431,3756,1505429381279187667,-0.421517372131,-0.0373918153346,-0.394219785929,0.0107955317944,0.0498931221664,-0.0117332916707,0.998627305031
1505429381288545262,3757,1505429381288427013,-0.421530157328,-0.0374612659216,-0.394264161587,0.0107270721346,0.049793869257,-0.011683489196,0.998633563519
1505429381298823176,3758,1505429381298621655,-0.421522021294,-0.0374218039215,-0.394211739302,0.0107675865293,0.049919039011,-0.0116024781018,0.998627841473
1505429381309058788,3759,1505429381308889103,-0.421511083841,-0.0373948998749,-0.394244253635,0.0108349788934,0.0498942621052,-0.0116776982322,0.998627483845
1505429381319263268,3760,1505429381319098600,-0.42151504755,-0.0373888984323,-0.394248098135,0.0108124893159,0.0498604513705,-0.0117432335392,0.998628735542
1505429381329717888,3761,1505429381329336110,-0.421531409025,-0.0373982302845,-0.394221663475,0.0108389900997,0.0498566776514,-0.0117473360151,0.998628437519
1505429381338722726,3762,1505429381338562768,-0.421528190374,-0.0374612510204,-0.394245803356,0.0107643548399,0.0498762577772,-0.0116491606459,0.998629450798
1505429381348924946,3763,1505429381348775980,-0.421506673098,-0.0373981110752,-0.394216239452,0.0107722403482,0.0498966164887,-0.0116264903918,0.998628616333
1505429381359219866,3764,1505429381359044373,-0.421526968479,-0.0374099761248,-0.394242763519,0.0108016850427,0.0498106740415,-0.0117808664218,0.998630821705
1505429381369451391,3765,1505429381369265753,-0.421531260014,-0.0374122001231,-0.394239425659,0.0108614601195,0.04994931072,-0.0117918457836,0.998623073101
1505429381378708264,3766,1505429381378521658,-0.421519517899,-0.0373978205025,-0.394198298454,0.0108208563179,0.0499586686492,-0.0116543387994,0.998624742031
1505429381388872118,3767,1505429381388711314,-0.421527117491,-0.0374305583537,-0.394269555807,0.0107777677476,0.0498247928917,-0.011613949202,0.998632252216
1505429381399058191,3768,1505429381398910737,-0.421522170305,-0.0373896770179,-0.394227325916,0.0107598546892,0.0496653802693,-0.01168960426,0.998639643192
1505429381409375753,3769,1505429381409163624,-0.421512126923,-0.0374577492476,-0.394247770309,0.0107549773529,0.0499876253307,-0.0117371827364,0.998623013496
1505429381418718855,3770,1505429381418349126,-0.421520471573,-0.0373889058828,-0.394218236208,0.0107681294903,0.0501882620156,-0.0117675792426,0.99861240387
1505429381428799039,3771,1505429381428604496,-0.421509861946,-0.037352476269,-0.394185394049,0.010744352825,0.0497719459236,-0.0116333588958,0.998635053635
1505429381438975870,3772,1505429381438820040,-0.421518564224,-0.0374440401793,-0.394245386124,0.0107473963872,0.0494857057929,-0.0116800991818,0.998648703098
1505429381449185578,3773,1505429381449023674,-0.421530425549,-0.0374039188027,-0.394260138273,0.0108638349921,0.0499383732677,-0.0117775518447,0.998623788357
1505429381459424915,3774,1505429381459214573,-0.421531319618,-0.0374108068645,-0.394230037928,0.010750118643,0.0500847250223,-0.011781248264,0.998617649078
1505429381468635534,3775,1505429381468452377,-0.421514332294,-0.0373722054064,-0.394209593534,0.0106733385473,0.0497003756464,-0.0116995275021,0.998638629913
1505429381479039406,3776,1505429381478828989,-0.421530485153,-0.0373733900487,-0.394223302603,0.0106285540387,0.0496842190623,-0.0117309642956,0.998639523983
1505429381489182840,3777,1505429381489022522,-0.421504557133,-0.0374458245933,-0.394237577915,0.0108468346298,0.050279866904,-0.0116405189037,0.998608410358
1505429381499465116,3778,1505429381499301312,-0.421508461237,-0.0373605638742,-0.394177943468,0.010818393901,0.0501187108457,-0.011721949093,0.998615860939
1505429381508721798,3779,1505429381508542373,-0.421517699957,-0.0373552031815,-0.394246041775,0.0107875103131,0.0494890287519,-0.0117958318442,0.998646736145
1505429381519007554,3780,1505429381518817341,-0.421539276838,-0.0373509898782,-0.394300699234,0.0107063632458,0.0493151247501,-0.0119073456153,0.998654901981
1505429381529193498,3781,1505429381529057803,-0.421517938375,-0.0373443961143,-0.394247680902,0.01077819895,0.0499995201826,-0.01187479496,0.998620510101
1505429381538431631,3782,1505429381538285378,-0.421446830034,-0.0373522341251,-0.394165754318,0.0106981536373,0.0506646707654,-0.0116575406864,0.998590409756
1505429381548719083,3783,1505429381548550024,-0.421509176493,-0.0372707769275,-0.394159197807,0.0108191082254,0.0501325428486,-0.0117295635864,0.998615145683
1505429381558916559,3784,1505429381558802443,-0.421527475119,-0.0372801944613,-0.39434966445,0.0109209502116,0.0490030422807,-0.0117108728737,0.99867027998
1505429381569212898,3785,1505429381569054061,-0.421453773975,-0.0372618325055,-0.394285470247,0.0111059788615,0.0491260103881,-0.0116920676082,0.998662471771
1505429381579419261,3786,1505429381579273949,-0.421525269747,-0.0372346490622,-0.394191801548,0.0112501410767,0.0503069758415,-0.0116187566891,0.998602867126
1505429381588578927,3787,1505429381588468344,-0.421520680189,-0.0372236259282,-0.394291728735,0.011469181627,0.0503478124738,-0.0116094844416,0.998598396778
1505429381598781681,3788,1505429381598651118,-0.421493768692,-0.0372158624232,-0.394172638655,0.0109614543617,0.0497616641223,-0.0116152046248,0.998633444309
1505429381609122050,3789,1505429381608970330,-0.421553313732,-0.0372652150691,-0.394137054682,0.0107713863254,0.0497468076646,-0.0116297407076,0.998636007309
1505429381619292264,3790,1505429381619181920,-0.421607404947,-0.0371581465006,-0.394267082214,0.0108253993094,0.049593500793,-0.0119307665154,0.998639523983
1505429381628582492,3791,1505429381628378267,-0.421497583389,-0.0372062176466,-0.394243836403,0.0110980821773,0.0497692227364,-0.0118049439043,0.998629271984
1505429381638850132,3792,1505429381638679945,-0.421541184187,-0.0371566340327,-0.394161790609,0.0111815305427,0.0499350838363,-0.0115777570754,0.998622834682
1505429381649153728,3793,1505429381648979950,-0.421508163214,-0.0371667407453,-0.394247561693,0.0113894818351,0.0500113852322,-0.0114606749266,0.998618006706
1505429381659383023,3794,1505429381659227016,-0.421477138996,-0.0372107215226,-0.394244015217,0.0115900970995,0.049845892936,-0.0114406906068,0.99862408638
1505429381668628920,3795,1505429381668482211,-0.421634316444,-0.0371503606439,-0.39423301816,0.0114522846416,0.0495860204101,-0.0114687178284,0.99863833189
1505429381678915960,3796,1505429381678767328,-0.421465784311,-0.0372397750616,-0.394251018763,0.0112008312717,0.0500589236617,-0.0111270323396,0.998621463776
1505429381689156063,3797,1505429381689029647,-0.421456545591,-0.0371316969395,-0.394108325243,0.0107833985239,0.049567360431,-0.011239294894,0.998649299145
1505429381699398929,3798,1505429381699251468,-0.421600371599,-0.0371145159006,-0.39418721199,0.0107856644318,0.0496244356036,-0.0116874594241,0.998641371727
1505429381708747452,3799,1505429381708526422,-0.421406716108,-0.0372253358364,-0.394161045551,0.0107748396695,0.0501105561852,-0.0116520728916,0.998617589474
1505429381718902830,3800,1505429381718743670,-0.421513289213,-0.0372012518346,-0.394109278917,0.0104753924534,0.0497388392687,-0.011581514962,0.998640239239
1505429381729053504,3801,1505429381728919705,-0.421558856964,-0.0371969975531,-0.394221514463,0.0106259742752,0.0499965697527,-0.0115204490721,0.998626470566
1505429381739393908,3802,1505429381739156483,-0.421392261982,-0.0371651425958,-0.394099771976,0.0106147527695,0.0500565096736,-0.0112236337736,0.998626887798
1505429381748436105,3803,1505429381748327247,-0.421561062336,-0.0371772646904,-0.394097387791,0.0104938568547,0.0496504940093,-0.0114065576345,0.998646318913
1505429381758781357,3804,1505429381758535139,-0.4215054214,-0.0371996127069,-0.394185423851,0.0107493307441,0.0500095821917,-0.0114835165441,0.99862486124
1505429381769084740,3805,1505429381768933751,-0.421426475048,-0.0371672473848,-0.394108980894,0.0106477383524,0.0498822443187,-0.011441828683,0.998632788658
1505429381779291263,3806,1505429381779163734,-0.421588510275,-0.0371511094272,-0.394129902124,0.0104635711759,0.0498885400593,-0.0114253656939,0.998634636402
1505429381788461111,3807,1505429381788324467,-0.421425521374,-0.0372150763869,-0.394108772278,0.0103565193713,0.0503369607031,-0.0112421642989,0.998615264893
1505429381798693232,3808,1505429381798574301,-0.421452134848,-0.0371926017106,-0.394059807062,0.0100820614025,0.0498483739793,-0.0113204363734,0.998641729355
1505429381808936172,3809,1505429381808780830,-0.421581834555,-0.0371462069452,-0.394171059132,0.0102865183726,0.0498538948596,-0.0116047533229,0.998636126518
1505429381819156904,3810,1505429381818996359,-0.421389341354,-0.0371759459376,-0.394068688154,0.010197641328,0.0501198098063,-0.0114358635619,0.998625695705
1505429381829355591,3811,1505429381829226204,-0.421512871981,-0.037174988538,-0.394074141979,0.0102261509746,0.0496709309518,-0.0113493306562,0.998648762703
1505429381838621020,3812,1505429381838451287,-0.421517133713,-0.0371890589595,-0.394180417061,0.0105902878568,0.0500760562718,-0.0112883197144,0.998625457287
1505429381848864207,3813,1505429381848698271,-0.421386599541,-0.0371921360493,-0.394094198942,0.0105224167928,0.0500500239432,-0.0111692911014,0.998628795147
1505429381858974533,3814,1505429381858882534,-0.421570599079,-0.0371351726353,-0.394088387489,0.0103682084009,0.0496737919748,-0.0115657905117,0.998644769192
1505429381869269191,3815,1505429381869110700,-0.421456128359,-0.0372060611844,-0.394126117229,0.0104011036456,0.0501070953906,-0.0116191636771,0.998622119427
1505429381879452522,3816,1505429381879335813,-0.421432733536,-0.0371615737677,-0.394066601992,0.0101941591129,0.0497100576758,-0.0114913005382,0.998645484447
1505429381888679569,3817,1505429381888540782,-0.421553403139,-0.0371063537896,-0.394133418798,0.0102849928662,0.0497648045421,-0.011424577795,0.998642683029
1505429381899058256,3818,1505429381898801945,-0.421355217695,-0.0371928885579,-0.39407402277,0.0102318851277,0.0502010844648,-0.0110950218514,0.998625099659
1505429381909223472,3819,1505429381909061262,-0.421471506357,-0.0371223166585,-0.394025236368,0.0100106243044,0.0497000105679,-0.0112968822941,0.998650074005
1505429381919354034,3820,1505429381919259215,-0.421550095081,-0.0371820144355,-0.394192785025,0.010371087119,0.0498619712889,-0.0114672156051,0.998636364937
1505429381928638199,3821,1505429381928496656,-0.421373218298,-0.0371280610561,-0.39405220747,0.0104192467406,0.0499667264521,-0.0114240124822,0.998631179333
1505429381938813794,3822,1505429381938661776,-0.421555876732,-0.037106089294,-0.394059419632,0.0102853020653,0.0496204867959,-0.0114618493244,0.998649477959
1505429381949125045,3823,1505429381948909079,-0.42146396637,-0.0372106544673,-0.394122242928,0.0104477489367,0.0501951128244,-0.0114032560959,0.998619616032
1505429381959439735,3824,1505429381959237695,-0.421415895224,-0.0371884442866,-0.394032895565,0.0101092141122,0.0499338917434,-0.0114749148488,0.998635411263
1505429381968589385,3825,1505429381968439910,-0.421571999788,-0.0371576473117,-0.394120454788,0.0100603951141,0.0497183613479,-0.011503838934,0.998646259308
1505429381978775412,3826,1505429381978618373,-0.421369314194,-0.0371130183339,-0.394033253193,0.0101836062968,0.0501881912351,-0.0113038849086,0.998623847961
1505429381988989334,3827,1505429381988834220,-0.42145639658,-0.0371372178197,-0.394059687853,0.0102147366852,0.0496390126646,-0.0113254683092,0.998650670052
1505429381999213584,3828,1505429381999044359,-0.421549797058,-0.0371589921415,-0.394200026989,0.0104870880023,0.0497720465064,-0.0114886891097,0.998639404774
1505429382009452475,3829,1505429382009276404,-0.421359986067,-0.0371497683227,-0.394048810005,0.0103770457208,0.0499338023365,-0.0114086102694,0.998633503914
1505429382018663437,3830,1505429382018510403,-0.421527147293,-0.037177503109,-0.394092261791,0.0102342423052,0.0495886169374,-0.0114758610725,0.998651325703
1505429382028929548,3831,1505429382028753708,-0.421458721161,-0.0371391624212,-0.394112437963,0.010538995266,0.0502360127866,-0.0114146964625,0.998616576195
1505429382039191543,3832,1505429382039014422,-0.421384423971,-0.0371544584632,-0.394036650658,0.0104712639004,0.0499435439706,-0.0113627854735,0.998632490635
1505429382049395338,3833,1505429382049250772,-0.421563386917,-0.0371084064245,-0.394134879112,0.0104493219405,0.0496121384203,-0.0114202117547,0.998648524284
1505429382058555339,3834,1505429382058425604,-0.421400517225,-0.0371203906834,-0.394042044878,0.0104796858504,0.0501165799797,-0.0113465972245,0.998623967171
1505429382068856232,3835,1505429382068672069,-0.421471178532,-0.0371775589883,-0.394029140472,0.0102287800983,0.0496512539685,-0.0114788580686,0.998648226261
1505429382079121296,3836,1505429382078922033,-0.421562254429,-0.0371372997761,-0.394149929285,0.0104630962014,0.0497993268073,-0.0116480197757,0.998636543751
1505429382089315216,3837,1505429382089153631,-0.421352505684,-0.0371663421392,-0.394080519676,0.0104376431555,0.0500965379179,-0.0114104952663,0.998624622822
1505429382098542833,3838,1505429382098346499,-0.421506136656,-0.0370831564069,-0.394045829773,0.0102631784976,0.0495555214584,-0.0114044640213,0.99865347147
1505429382108807230,3839,1505429382108616358,-0.421459764242,-0.0371376425028,-0.394110292196,0.0106422398239,0.0501020252705,-0.0112862186506,0.998623549938
1505429382119058643,3840,1505429382118870156,-0.421396911144,-0.0372025556862,-0.394106537104,0.0106273433194,0.0499378740788,-0.0113486070186,0.998631238937
1505429382129199794,3841,1505429382129091197,-0.421585947275,-0.0371261611581,-0.394093215466,0.0104097733274,0.0496441684663,-0.0114930523559,0.998646557331
1505429382139458384,3842,1505429382139290401,-0.421374946833,-0.0371400304139,-0.394031316042,0.0102287065238,0.0501069352031,-0.0113184312358,0.998627305031
1505429382148769678,3843,1505429382148565514,-0.421420842409,-0.0371077619493,-0.39401319623,0.0100152613595,0.0495846681297,-0.011296261102,0.998655855656
1505429382158894699,3844,1505429382158769944,-0.421554774046,-0.0371462255716,-0.394170105457,0.0104494001716,0.0497621744871,-0.0114237219095,0.998641073704
1505429382169138460,3845,1505429382168989763,-0.421370446682,-0.0371869914234,-0.394055217505,0.0103466799483,0.0501082986593,-0.011410064064,0.998624920845
1505429382179326900,3846,1505429382179176386,-0.421519100666,-0.0370612964034,-0.393983155489,0.010142378509,0.0497443117201,-0.0115332463756,0.998643815517
1505429382188561535,3847,1505429382188386469,-0.421423196793,-0.0371989309788,-0.394120484591,0.0105153601617,0.0502198114991,-0.0114592835307,0.998617112637
1505429382198799910,3848,1505429382198618601,-0.421334505081,-0.0370194651186,-0.394019693136,0.0100756352767,0.0499169118702,-0.0113207753748,0.99863833189
1505429382209112267,3849,1505429382208844510,-0.421477645636,-0.0366491526365,-0.394006997347,0.00871046259999,0.0493761710823,-0.0117805162445,0.998672842979
1505429382219192506,3850,1505429382219037838,-0.4212680161,-0.0365068651736,-0.393863677979,0.00811218470335,0.049545686692,-0.0122944610193,0.998663306236
1505429382229412323,3851,1505429382229265583,-0.421407163143,-0.0363540351391,-0.393927693367,0.00710479775444,0.0487621463835,-0.0131893446669,0.998698055744
1505429382238664531,3852,1505429382238486894,-0.421445429325,-0.036472953856,-0.393877714872,0.00706563191488,0.04880233109,-0.0132052777335,0.998696148396
1505429382248925952,3853,1505429382248758320,-0.421240448952,-0.0366020426154,-0.393871963024,0.00677995802835,0.0492562092841,-0.0125511884689,0.998684346676
1505429382259105868,3854,1505429382258938062,-0.421240836382,-0.0368788912892,-0.393763124943,0.00704559870064,0.0494813397527,-0.011056647636,0.998688995838
1505429382269374857,3855,1505429382269192220,-0.421259909868,-0.0370752848685,-0.393974334002,0.00802306178957,0.0499529354274,-0.0107283527032,0.998661756516
1505429382278544518,3856,1505429382278394902,-0.421274095774,-0.0371306091547,-0.393803149462,0.00905826129019,0.0496766902506,-0.0111156739295,0.998662412167
1505429382288863155,3857,1505429382288691259,-0.421460360289,-0.0370578914881,-0.394083917141,0.0102862734348,0.0492769256234,-0.0117073822767,0.998663544655
1505429382299091508,3858,1505429382298937282,-0.421309709549,-0.0368149131536,-0.394039481878,0.011063138023,0.0496743507683,-0.011859646067,0.998633742332
1505429382309283641,3859,1505429382309154722,-0.421224832535,-0.0367134772241,-0.394245564938,0.0114412726834,0.0493359751999,-0.0116131184623,0.998649179935
1505429382318536391,3860,1505429382318318037,-0.421209931374,-0.0366106107831,-0.394232660532,0.0108226286247,0.0496837906539,-0.011820060201,0.998636424541
1505429382328806532,3861,1505429382328538054,-0.421076744795,-0.0367108806968,-0.394163101912,0.0101830195636,0.0501615218818,-0.0117387566715,0.998620271683
1505429382338989490,3862,1505429382338788445,-0.42119628191,-0.0367502681911,-0.394052416086,0.00869076885283,0.0500122606754,-0.0123876668513,0.998633980751
1505429382349355617,3863,1505429382348983510,-0.421210378408,-0.0368578061461,-0.393946319818,0.00784037820995,0.0500597916543,-0.0123770060018,0.998638749123
1505429382358567911,3864,1505429382358342085,-0.421192586422,-0.0368224866688,-0.393852621317,0.00672822771594,0.0495973452926,-0.0122032985091,0.998672127724
1505429382368702086,3865,1505429382368537336,-0.421285301447,-0.0368277728558,-0.393863111734,0.00699321785942,0.0490686409175,-0.0116726495326,0.998702704906
1505429382378828480,3866,1505429382378719992,-0.421254009008,-0.0368489734828,-0.393877327442,0.00759731046855,0.0496317632496,-0.011561867781,0.998671710491
1505429382389053699,3867,1505429382388900323,-0.42120668292,-0.0368321575224,-0.39386895299,0.00784495007247,0.0492132976651,-0.0116356704384,0.998689711094
1505429382399283605,3868,1505429382399141671,-0.421391606331,-0.0368589684367,-0.393864482641,0.00823148246855,0.04964517802,-0.0120979622006,0.998659729958
1505429382408519718,3869,1505429382408330364,-0.421240329742,-0.0369580127299,-0.393866360188,0.00872120354325,0.0495040491223,-0.0120270112529,0.998663425446
1505429382418852878,3870,1505429382418580290,-0.4212898314,-0.0369027219713,-0.393968075514,0.00896171294153,0.0488957129419,-0.0115791261196,0.998696506023
1505429382428976678,3871,1505429382428827256,-0.421246498823,-0.0369182899594,-0.393950670958,0.0091499472037,0.0493053905666,-0.0108588552102,0.99868285656
1505429382439188106,3872,1505429382439020153,-0.421155571938,-0.0368687584996,-0.393979996443,0.00875774584711,0.0492620952427,-0.0111932074651,0.998684704304
1505429382449448343,3873,1505429382449293140,-0.421431750059,-0.0368560031056,-0.393852502108,0.00883884821087,0.0490660443902,-0.0119889164343,0.998684465885
1505429382458893713,3874,1505429382458692743,-0.421306908131,-0.0368775390089,-0.393983334303,0.00886388774961,0.0501103661954,-0.0120638785884,0.998631477356
1505429382469020043,3875,1505429382468894155,-0.421132713556,-0.0368541777134,-0.393821269274,0.00829586293548,0.0494167171419,-0.0114361960441,0.998678326607
1505429382479477944,3876,1505429382479317957,-0.421304732561,-0.0367733538151,-0.39396572113,0.00790467020124,0.0496073849499,-0.0113396318629,0.998673081398
1505429382488824430,3877,1505429382488544264,-0.421106100082,-0.0368222557008,-0.39380261302,0.00782319810241,0.0497236177325,-0.0116095794365,0.998664855957
1505429382498983840,3878,1505429382498795607,-0.42130151391,-0.0368535928428,-0.393961191177,0.00793762411922,0.0493509694934,-0.0115907378495,0.998682677746
1505429382509180083,3879,1505429382509057832,-0.421225130558,-0.0370031744242,-0.393826365471,0.00801502075046,0.049848433584,-0.0111411418766,0.998662412167
1505429382519362854,3880,1505429382519267956,-0.421052128077,-0.0370282232761,-0.394005447626,0.00809546560049,0.0500085055828,-0.0109982164577,0.998655378819
1505429382528618213,3881,1505429382528461477,-0.421351134777,-0.0370547436178,-0.393751949072,0.00803688634187,0.0493098422885,-0.0115053914487,0.998684883118
1505429382538884867,3882,1505429382538696799,-0.421161949635,-0.0369157902896,-0.394009798765,0.00849526934326,0.0499253459275,-0.0116738565266,0.998648643494
1505429382549066167,3883,1505429382548907662,-0.421172946692,-0.0368359349668,-0.393757522106,0.00824566930532,0.0492279604077,-0.0115036955103,0.998687207699
1505429382559303673,3884,1505429382559148184,-0.421307295561,-0.0368505343795,-0.393993794918,0.00838482286781,0.0497919917107,-0.0114515647292,0.998658776283
1505429382568632012,3885,1505429382568450668,-0.42105486989,-0.036800455302,-0.393758445978,0.00807969179004,0.0502269975841,-0.0116178914905,0.998637616634
1505429382578823823,3886,1505429382578695082,-0.421273559332,-0.0367629416287,-0.393913835287,0.00766972871497,0.049807857722,-0.0116644501686,0.998661279678
1505429382589161551,3887,1505429382588895161,-0.421153515577,-0.0368438959122,-0.393720954657,0.00750397192314,0.0499002039433,-0.0116371419281,0.998658180237
1505429382599237557,3888,1505429382599121930,-0.421063095331,-0.0369393154979,-0.393982768059,0.00749341631308,0.0497349910438,-0.0116396844387,0.998666405678
1505429382609522805,3889,1505429382609405584,-0.421237081289,-0.036957487464,-0.393719613552,0.00740768993273,0.0491884313524,-0.0116317030042,0.998694300652
1505429382618805897,3890,1505429382618624242,-0.421078294516,-0.0369230657816,-0.393887728453,0.00767248403281,0.0501238703728,-0.0113908033818,0.998648583889
1505429382629047712,3891,1505429382628885708,-0.421116054058,-0.0368542633951,-0.39367005229,0.00781754311174,0.0497635602951,-0.0113661540672,0.998665750027
1505429382639237975,3892,1505429382639136836,-0.421218544245,-0.0367935709655,-0.393973469734,0.00844286289066,0.0499601364136,-0.0115329148248,0.998648881912
1505429382648542534,3893,1505429382648335599,-0.421017318964,-0.0367205217481,-0.393803834915,0.00864532869309,0.0499242171645,-0.0116362776607,0.998647868633
1505429382658770306,3894,1505429382658592664,-0.421201109886,-0.0366445407271,-0.394098013639,0.00865598022938,0.0491626150906,-0.0119316587225,0.998682022095
1505429382669073316,3895,1505429382668877899,-0.421173840761,-0.0367654934525,-0.39386895299,0.00844378955662,0.0494550131261,-0.0119432238862,0.998669207096
1505429382679250131,3896,1505429382679087186,-0.421057969332,-0.0367837324739,-0.394010335207,0.00821191631258,0.0494820997119,-0.0117132915184,0.998672544956
1505429382689650537,3897,1505429382689296865,-0.421163201332,-0.0367200225592,-0.393690377474,0.00757236685604,0.0496104061604,-0.0117682376876,0.998670637608
1505429382698698200,3898,1505429382698552008,-0.421015918255,-0.036662440747,-0.393739134073,0.00729684252292,0.0503008402884,-0.011783647351,0.998637974262
1505429382709100518,3899,1505429382708887280,-0.421090006828,-0.0366040095687,-0.393658727407,0.00664752302691,0.0499283410609,-0.0119901522994,0.998658716679
1505429382719382045,3900,1505429382719155870,-0.421143531799,-0.0367163009942,-0.393735766411,0.00690124696121,0.0498587749898,-0.0118177849799,0.998662531376
1505429382728470732,3901,1505429382728333518,-0.4209638834,-0.0366200245917,-0.393760234118,0.00673140073195,0.0498301498592,-0.0118704913184,0.998664438725
1505429382738741540,3902,1505429382738586278,-0.421109050512,-0.0366093590856,-0.393773764372,0.00734090665355,0.0497854538262,-0.0117895696312,0.998663425446
1505429382749045991,3903,1505429382748839314,-0.420973598957,-0.0365849398077,-0.3938575387,0.00760676059872,0.0501573607326,-0.0119282379746,0.998641133308
1505429382759170270,3904,1505429382759041338,-0.420961350203,-0.0365218631923,-0.39379248023,0.00775564368814,0.0497576333582,-0.0121121266857,0.998657822609
1505429382769408525,3905,1505429382769307382,-0.421070098877,-0.0365536250174,-0.393903970718,0.00818327721208,0.0501433312893,-0.0121175423265,0.998635053635
1505429382778693471,3906,1505429382778519159,-0.420948237181,-0.0364975184202,-0.393716454506,0.00767261395231,0.0501232743263,-0.0121841123328,0.998639285564
1505429382789017564,3907,1505429382788806992,-0.421053022146,-0.0364652499557,-0.3938986063,0.0077235205099,0.0501443631947,-0.0121371122077,0.99863833189
1505429382799135751,3908,1505429382798982478,-0.421004146338,-0.0365769788623,-0.393688559532,0.00694694463164,0.0499875433743,-0.0120946364477,0.998652517796
1505429382809400078,3909,1505429382809235205,-0.420969694853,-0.0365019179881,-0.393849283457,0.00683403713629,0.0498045161366,-0.0118624344468,0.998665213585
1505429382818630456,3910,1505429382818440473,-0.421122729778,-0.0364850983024,-0.393603742123,0.00631758663803,0.0499991737306,-0.0120915779844,0.998656094074
1505429382829011920,3911,1505429382828838845,-0.42093372345,-0.0365617610514,-0.393655657768,0.00625533796847,0.0497061796486,-0.0118602802977,0.998673856258
1505429382839216986,3912,1505429382839055746,-0.42100712657,-0.0365444719791,-0.39361590147,0.00613815383986,0.0501360557973,-0.0118256621063,0.998653590679
1505429382849437080,3913,1505429382849309248,-0.420924276114,-0.0365005321801,-0.39357021451,0.00630258303136,0.0500808805227,-0.011799460277,0.998655617237
1505429382858670091,3914,1505429382858513979,-0.420945525169,-0.0363503731787,-0.393744021654,0.00664945552126,0.050020288676,-0.0122653832659,0.998650789261
1505429382869135519,3915,1505429382868896186,-0.421000599861,-0.0363365858793,-0.393648147583,0.00671044457704,0.0502090975642,-0.0120885549113,0.998643040657
1505429382879325866,3916,1505429382879140343,-0.420925676823,-0.0362645126879,-0.393916457891,0.00710576539859,0.0500897653401,-0.0122744720429,0.998643994331
1505429382888474533,3917,1505429382888309307,-0.421065539122,-0.0361337698996,-0.393702417612,0.00728069897741,0.0502099245787,-0.012769616209,0.998630464077
1505429382898736167,3918,1505429382898566842,-0.420899480581,-0.0361459702253,-0.393863648176,0.00751699507236,0.0500434264541,-0.012770245783,0.998637139797
1505429382908995783,3919,1505429382908844180,-0.420874148607,-0.0360882990062,-0.393754422665,0.00729253329337,0.0501024611294,-0.0126219084486,0.998637735844
1505429382919230918,3920,1505429382919068763,-0.420824348927,-0.0361022725701,-0.393719732761,0.00733042508364,0.0502602420747,-0.0122551321983,0.99863409996
1505429382929553379,3921,1505429382929395792,-0.420757889748,-0.0360351838171,-0.393698960543,0.00709266262129,0.0506385788321,-0.0126709742472,0.998611450195
1505429382938803492,3922,1505429382938619002,-0.420909613371,-0.0359593294561,-0.393455535173,0.00639780191705,0.0510886907578,-0.0129296630621,0.998589932919
1505429382949130066,3923,1505429382948878451,-0.420801639557,-0.0359536744654,-0.393541097641,0.00596007984132,0.0513976588845,-0.0128695359454,0.998577535152
1505429382959257743,3924,1505429382959084130,-0.42077755928,-0.0358746610582,-0.393371760845,0.00523837842047,0.0515719689429,-0.012572186999,0.998576402664
1505429382968511281,3925,1505429382968369374,-0.420691251755,-0.0357370600104,-0.393426835537,0.00491596385837,0.0511971972883,-0.0128578953445,0.998593628407
1505429382978701818,3926,1505429382978556266,-0.42055991292,-0.0356072820723,-0.393303543329,0.00449059298262,0.0515130981803,-0.0129990437999,0.998577654362
1505429382988923011,3927,1505429382988758065,-0.420443683863,-0.0354985967278,-0.393421083689,0.00425005983561,0.0513126887381,-0.0126075390726,0.998594045639
1505429382999109768,3928,1505429382998950705,-0.420268446207,-0.0352796092629,-0.393336683512,0.00370139093138,0.0516405627131,-0.0126360962167,0.998578906059
1505429383009259340,3929,1505429383009159019,-0.420210957527,-0.0350583083928,-0.393409609795,0.0030949478969,0.0516913346946,-0.0124344453216,0.998580932617
1505429383018532204,3930,1505429383018326252,-0.420134305954,-0.0347565114498,-0.393351852894,0.00217246171087,0.051732480526,-0.0128574529663,0.998575866222
1505429383028767858,3931,1505429383028616853,-0.420000195503,-0.0344606973231,-0.39329123497,0.000767625344452,0.0520447716117,-0.0126949250698,0.998563766479
1505429383039013807,3932,1505429383038831512,-0.419965803623,-0.0341743081808,-0.393335461617,-0.000594578625169,0.0523829236627,-0.0126861101016,0.998546302319
1505429383049301250,3933,1505429383049061738,-0.419769883156,-0.0338239111006,-0.39310002327,-0.001867700601,0.0529561117291,-0.0129147181287,0.998511552811
1505429383059456971,3934,1505429383059292758,-0.419703215361,-0.0334314703941,-0.393278926611,-0.00370909436606,0.0528422705829,-0.0127091063187,0.998515069485
1505429383068673146,3935,1505429383068532566,-0.419449746609,-0.0331058576703,-0.393038779497,-0.00498489616439,0.0529205575585,-0.0120656983927,0.998513400555
1505429383078927002,3936,1505429383078744579,-0.419399440289,-0.0325631722808,-0.393258720636,-0.00699127884582,0.0528356581926,-0.011789245531,0.99850922823
1505429383089191521,3937,1505429383089023908,-0.419270515442,-0.0320847332478,-0.393162161112,-0.00835461169481,0.0528159886599,-0.0113255660981,0.998505055904
1505429383098471356,3938,1505429383098306011,-0.419284522533,-0.0313158407807,-0.393073171377,-0.0109057091177,0.0528411492705,-0.0118237994611,0.998473346233
1505429383108721641,3939,1505429383108520059,-0.419169038534,-0.0307995639741,-0.393212974072,-0.012658007443,0.0529110878706,-0.0118617843837,0.998448550701
1505429383118906607,3940,1505429383118748702,-0.419150054455,-0.0299816336483,-0.393099278212,-0.0153763061389,0.0528877601027,-0.0124491406605,0.998404502869
1505429383129188810,3941,1505429383129025633,-0.419089078903,-0.0292671211064,-0.393094092607,-0.0177271012217,0.0530342943966,-0.0124080972746,0.998358309269
1505429383139511481,3942,1505429383139250290,-0.419008821249,-0.0285478197038,-0.393234491348,-0.0211948342621,0.0531988404691,-0.012639763765,0.998278975487
1505429383148691951,3943,1505429383148497046,-0.418954014778,-0.0277170836926,-0.393075764179,-0.0242301914841,0.0528601929545,-0.0124808484688,0.998229861259
1505429383158965458,3944,1505429383158735409,-0.418954521418,-0.0269547216594,-0.393642902374,-0.0275579635054,0.0521843396127,-0.0117996362969,0.998187422752
