%time,field.header.seq,field.header.stamp,field.header.frame_id,field.vector.x,field.vector.y,field.vector.z
1505429379367805545,6174,1505429379367279104,0.830683767796,0.210057973862,0.515596807003
1505429379369123844,6175,1505429379368875134,0.830683767796,0.210057973862,0.515596807003
1505429379376042863,6176,1505429379375759453,0.833254575729,0.209531858563,0.511647582054
1505429379379408889,6177,1505429379379253024,0.833254575729,0.209531858563,0.511647582054
1505429379384313726,6178,1505429379384002062,0.844612121582,0.202895656228,0.495442867279
1505429379390298202,6179,1505429379390133474,0.844612121582,0.202895656228,0.495442867279
1505429379401033108,6180,1505429379400740683,0.836371719837,0.233406051993,0.495987862349
1505429379401036820,6181,1505429379400772030,0.836371719837,0.233406051993,0.495987862349
1505429379405537552,6182,1505429379405328427,0.843230724335,0.232615381479,0.48461535573
1505429379411728795,6183,1505429379411543298,0.843230724335,0.232615381479,0.48461535573
1505429379417530070,6184,1505429379417354379,0.849157571793,0.187604576349,0.493696242571
1505429379419307239,6185,1505429379419108898,0.849157571793,0.187604576349,0.493696242571
1505429379424393042,6186,1505429379424164683,0.835010766983,0.205174073577,0.510549426079
1505429379433511311,6187,1505429379433347902,0.835010766983,0.205174073577,0.510549426079
1505429379434629271,6188,1505429379434449215,0.85395526886,0.201495066285,0.479750156403
1505429379439376716,6189,1505429379439201353,0.85395526886,0.201495066285,0.479750156403
1505429379444716738,6190,1505429379444441708,0.826190948486,0.22532479465,0.516369342804
1505429379450635621,6191,1505429379450478972,0.826190948486,0.22532479465,0.516369342804
1505429379462178404,6192,1505429379461839823,0.841100037098,0.222359776497,0.493058621883
1505429379462252109,6193,1505429379461887128,0.841100037098,0.222359776497,0.493058621883
1505429379467527491,6194,1505429379467289986,0.835398375988,0.193510353565,0.514454364777
1505429379469719358,6195,1505429379469332397,0.835398375988,0.193510353565,0.514454364777
1505429379474950932,6196,1505429379474810395,0.827037632465,0.223786652088,0.515682280064
1505429379481127471,6197,1505429379480953371,0.827037632465,0.223786652088,0.515682280064
1505429379484629851,6198,1505429379484452200,0.85053896904,0.177796289325,0.494946420193
1505429379489442193,6199,1505429379489336292,0.85053896904,0.177796289325,0.494946420193
1505429379494749046,6200,1505429379494508944,0.846621394157,0.218789801002,0.485142588615
1505429379500057340,6201,1505429379499871197,0.846621394157,0.218789801002,0.485142588615
1505429379504846802,6202,1505429379504601308,0.841961324215,0.199539959431,0.501283347607
1505429379511524176,6203,1505429379510977577,0.841961324215,0.199539959431,0.501283347607
1505429379518383766,6204,1505429379518181488,0.844580590725,0.20386429131,0.495098978281
1505429379519732684,6205,1505429379519549065,0.844580590725,0.20386429131,0.495098978281
1505429379524809190,6206,1505429379524572781,0.841394782066,0.216358661652,0.495220929384
1505429379533358131,6207,1505429379533185648,0.841394782066,0.216358661652,0.495220929384
1505429379534763091,6208,1505429379534600999,0.839070439339,0.206171602011,0.503442287445
1505429379541872703,6209,1505429379541550222,0.839070439339,0.206171602011,0.503442287445
1505429379548699921,6210,1505429379548492253,0.847329795361,0.202203705907,0.491066128016
1505429379550022827,6211,1505429379549719999,0.847329795361,0.202203705907,0.491066128016
1505429379555114486,6212,1505429379554861062,0.842251896858,0.18770185113,0.505351126194
1505429379560140801,6213,1505429379559824017,0.842251896858,0.18770185113,0.505351126194
1505429379567621630,6214,1505429379567349327,0.849521875381,0.211207106709,0.483429580927
1505429379569845178,6215,1505429379569626328,0.849521875381,0.211207106709,0.483429580927
1505429379575404471,6216,1505429379575198627,0.841762900352,0.205546751618,0.49918499589
1505429379580702768,6217,1505429379580521733,0.841762900352,0.205546751618,0.49918499589
1505429379585261460,6218,1505429379584971287,0.83882945776,0.212117791176,0.501369357109
1505429379590157778,6219,1505429379589949154,0.83882945776,0.212117791176,0.501369357109
1505429379601525212,6220,1505429379601332602,0.844904899597,0.192023843527,0.499262005091
1505429379603898078,6221,1505429379603707622,0.844904899597,0.192023843527,0.499262005091
1505429379611729249,6222,1505429379611556170,0.841652572155,0.210413143039,0.497340172529
1505429379612364586,6223,1505429379611582238,0.841652572155,0.210413143039,0.497340172529
1505429379615183541,6224,1505429379615043004,0.846047341824,0.19962914288,0.494319796562
1505429379620200071,6225,1505429379620043766,0.846047341824,0.19962914288,0.494319796562
1505429379633858017,6226,1505429379633430270,0.835936963558,0.21384434402,0.505450248718
1505429379633876623,6227,1505429379633466408,0.835936963558,0.21384434402,0.505450248718
1505429379635237465,6228,1505429379635058667,0.831927061081,0.201828464866,0.516877770424
1505429379643482541,6229,1505429379643156242,0.831927061081,0.201828464866,0.516877770424
1505429379646760506,6230,1505429379646528160,0.839254319668,0.205151066184,0.503552615643
1505429379653421020,6231,1505429379653217961,0.839254319668,0.205151066184,0.503552615643
1505429379655652263,6232,1505429379655459387,0.844111382961,0.215935483575,0.49076244235
1505429379661009958,6233,1505429379660689087,0.844111382961,0.215935483575,0.49076244235
1505429379667418549,6234,1505429379666937156,0.841394782066,0.216358661652,0.495220929384
1505429379670693763,6235,1505429379670487486,0.841394782066,0.216358661652,0.495220929384
1505429379675910422,6236,1505429379675748130,0.839925646782,0.219526022673,0.496319711208
1505429379680491860,6237,1505429379680319066,0.839925646782,0.219526022673,0.496319711208
1505429379685797503,6238,1505429379685331952,0.836464703083,0.206766560674,0.507517933846
1505429379690645782,6239,1505429379690478283,0.836464703083,0.206766560674,0.507517933846
1505429379699911907,6240,1505429379699643214,0.842061817646,0.198688745499,0.501452505589
1505429379700734981,6241,1505429379700477525,0.842061817646,0.198688745499,0.501452505589
1505429379709235245,6242,1505429379708859126,0.83388286829,0.191697210073,0.517582476139
1505429379714848057,6243,1505429379714602537,0.83388286829,0.191697210073,0.517582476139
1505429379716378319,6244,1505429379716163040,0.833342790604,0.214288145304,0.509529590607
1505429379720812929,6245,1505429379720513442,0.833342790604,0.214288145304,0.509529590607
1505429379725899241,6246,1505429379725532462,0.837123632431,0.216667294502,0.502274155617
1505429379737033346,6247,1505429379736714114,0.837123632431,0.216667294502,0.502274155617
1505429379740549834,6248,1505429379739544988,0.850012481213,0.200564742088,0.487085789442
1505429379743706596,6249,1505429379743410328,0.850012481213,0.200564742088,0.487085789442
1505429379746021024,6250,1505429379745711167,0.838011860847,0.19264639914,0.510512948036
1505429379750921639,6251,1505429379750693032,0.838011860847,0.19264639914,0.510512948036
1505429379755916852,6252,1505429379755756623,0.851173520088,0.202212482691,0.484369456768
1505429379767964650,6253,1505429379767739879,0.851173520088,0.202212482691,0.484369456768
1505429379769814558,6254,1505429379769576250,0.851483225822,0.197236225009,0.48587462306
1505429379774876500,6255,1505429379774702926,0.851483225822,0.197236225009,0.48587462306
1505429379776119708,6256,1505429379775949317,0.859109759331,0.215925991535,0.464011162519
1505429379780923370,6257,1505429379780736737,0.859109759331,0.215925991535,0.464011162519
1505429379786139525,6258,1505429379785858295,0.832675039768,0.189244329929,0.520421862602
1505429379791102778,6259,1505429379790873824,0.832675039768,0.189244329929,0.520421862602
1505429379800660073,6260,1505429379800460431,0.8488047719,0.198862835765,0.489881634712
1505429379810023816,6261,1505429379809716516,0.8488047719,0.198862835765,0.489881634712
1505429379811248457,6262,1505429379811006514,0.834765255451,0.211090058088,0.508535146713
1505429379812325997,6263,1505429379812129178,0.834765255451,0.211090058088,0.508535146713
1505429379816411173,6264,1505429379816069656,0.832215845585,0.21158029139,0.512494504452
1505429379821457686,6265,1505429379820972446,0.832215845585,0.21158029139,0.512494504452
1505429379826236305,6266,1505429379826030409,0.832703351974,0.226225763559,0.505397975445
1505429379833374080,6267,1505429379833173254,0.832703351974,0.226225763559,0.505397975445
1505429379836731487,6268,1505429379836598330,0.852630615234,0.198947146535,0.483157366514
1505429379842690580,6269,1505429379842396776,0.852630615234,0.198947146535,0.483157366514
1505429379849830661,6270,1505429379849662661,0.841762900352,0.205546751618,0.49918499589
1505429379851239318,6271,1505429379851050567,0.841762900352,0.205546751618,0.49918499589
1505429379856317214,6272,1505429379856117396,0.832086622715,0.206819221377,0.514643192291
1505429379861265090,6273,1505429379861029879,0.832086622715,0.206819221377,0.514643192291
1505429379869874698,6274,1505429379869721953,0.840845406055,0.19110122323,0.506418228149
1505429379872365734,6275,1505429379872173876,0.840845406055,0.19110122323,0.506418228149
1505429379876637639,6276,1505429379876440281,0.840961873531,0.185296684504,0.508378088474
1505429379881854662,6277,1505429379881566941,0.840961873531,0.185296684504,0.508378088474
1505429379887994598,6278,1505429379887732688,0.840845406055,0.19110122323,0.506418228149
1505429379892757639,6279,1505429379892480096,0.840845406055,0.19110122323,0.506418228149
1505429379899723607,6280,1505429379899535623,0.836276710033,0.237578615546,0.494163513184
1505429379905234394,6281,1505429379905059202,0.836276710033,0.237578615546,0.494163513184
1505429379912959772,6282,1505429379912725905,0.844612121582,0.202895656228,0.495442867279
1505429379914308201,6283,1505429379913987013,0.844612121582,0.202895656228,0.495442867279
1505429379918570415,6284,1505429379918358738,0.851937174797,0.180123850703,0.491689443588
1505429379921821800,6285,1505429379921518180,0.851937174797,0.180123850703,0.491689443588
1505429379926648866,6286,1505429379926440292,0.836422502995,0.201895087957,0.509544730186
1505429379934746958,6287,1505429379934546763,0.836422502995,0.201895087957,0.509544730186
1505429379941189130,6288,1505429379940904000,0.844612121582,0.202895656228,0.495442867279
1505429379942588485,6289,1505429379942084443,0.844612121582,0.202895656228,0.495442867279
1505429379946823492,6290,1505429379946579312,0.834765255451,0.211090058088,0.508535146713
1505429379951733238,6291,1505429379951583778,0.834765255451,0.211090058088,0.508535146713
1505429379956723421,6292,1505429379956603731,0.841874539852,0.204523190856,0.499417096376
1505429379961923978,6293,1505429379961554184,0.841874539852,0.204523190856,0.499417096376
1505429379970826237,6294,1505429379970598655,0.838133215904,0.228581786156,0.495260536671
1505429379971789139,6295,1505429379971680636,0.838133215904,0.228581786156,0.495260536671
1505429379977005446,6296,1505429379976810684,0.83927410841,0.195180013776,0.507468044758
1505429379982044438,6297,1505429379981813787,0.83927410841,0.195180013776,0.507468044758
1505429379986890123,6298,1505429379986718491,0.831821084023,0.212791442871,0.512633919716
1505429379993119124,6299,1505429379992933750,0.831821084023,0.212791442871,0.512633919716
1505429380005415082,6300,1505429380004888207,0.84389424324,0.220563262701,0.489075064659
1505429380005426039,6301,1505429380004924419,0.84389424324,0.220563262701,0.489075064659
1505429380007477857,6302,1505429380007236184,0.842076361179,0.229657188058,0.48802152276
1505429380011964819,6303,1505429380011805411,0.842076361179,0.229657188058,0.48802152276
1505429380018372722,6304,1505429380018124703,0.846328258514,0.224731236696,0.482933104038
1505429380023463971,6305,1505429380023145419,0.846328258514,0.224731236696,0.482933104038
1505429380034346376,6306,1505429380033982010,0.824999034405,0.19038438797,0.532099962234
1505429380034361493,6307,1505429380034018304,0.824999034405,0.19038438797,0.532099962234
1505429380037167920,6308,1505429380036991225,0.836677014828,0.200989454985,0.509484887123
1505429380042381530,6309,1505429380042074339,0.836677014828,0.200989454985,0.509484887123
1505429380047187422,6310,1505429380047014614,0.847329795361,0.202203705907,0.491066128016
1505429380052130544,6311,1505429380052005152,0.847329795361,0.202203705907,0.491066128016
1505429380057127833,6312,1505429380056953657,0.856647014618,0.194047108293,0.47801849246
1505429380067374116,6313,1505429380067143647,0.856647014618,0.194047108293,0.47801849246
1505429380071068561,6314,1505429380070885537,0.847132384777,0.208152532578,0.488916397095
1505429380072555567,6315,1505429380072375765,0.847132384777,0.208152532578,0.488916397095
1505429380077566334,6316,1505429380077334949,0.843312740326,0.201245084405,0.498321175575
1505429380083842419,6317,1505429380083585952,0.843312740326,0.201245084405,0.498321175575
1505429380092050858,6318,1505429380091885791,0.839100062847,0.235702261329,0.490260690451
1505429380093216524,6319,1505429380093083474,0.839100062847,0.235702261329,0.490260690451
1505429380100118773,6320,1505429380099888825,0.8488047719,0.198862835765,0.489881634712
1505429380102561753,6321,1505429380102312998,0.8488047719,0.198862835765,0.489881634712
1505429380107486228,6322,1505429380107353912,0.826295852661,0.214932456613,0.520614147186
1505429380112631862,6323,1505429380112498078,0.826295852661,0.214932456613,0.520614147186
1505429380118004720,6324,1505429380117349623,0.843111634254,0.207164570689,0.496231406927
1505429380122623877,6325,1505429380122402871,0.843111634254,0.207164570689,0.496231406927
1505429380134855353,6326,1505429380134655702,0.831179082394,0.224907279015,0.508486032486
1505429380140127298,6327,1505429380139935768,0.831179082394,0.224907279015,0.508486032486
1505429380141312202,6328,1505429380141093419,0.844760298729,0.197915270925,0.497201770544
1505429380143843529,6329,1505429380143543160,0.844760298729,0.197915270925,0.497201770544
1505429380147675086,6330,1505429380147460988,0.84019356966,0.238691359758,0.486930370331
1505429380152625210,6331,1505429380152423009,0.84019356966,0.238691359758,0.486930370331
1505429380158888222,6332,1505429380158651072,0.843111634254,0.207164570689,0.496231406927
1505429380167299531,6333,1505429380167105216,0.843111634254,0.207164570689,0.496231406927
1505429380168105229,6334,1505429380167938406,0.836612224579,0.196006298065,0.511528611183
1505429380172905555,6335,1505429380172722933,0.836612224579,0.196006298065,0.511528611183
1505429380177823129,6336,1505429380177640007,0.850516855717,0.219796493649,0.477818459272
1505429380182789597,6337,1505429380182569006,0.850516855717,0.219796493649,0.477818459272
1505429380189195201,6338,1505429380188776636,0.842600166798,0.219173461199,0.491922646761
1505429380202415123,6339,1505429380202181725,0.842600166798,0.219173461199,0.491922646761
1505429380202979861,6340,1505429380202529843,0.829738736153,0.190744534135,0.5245475173
1505429380204390497,6341,1505429380204243045,0.829738736153,0.190744534135,0.5245475173
1505429380211499030,6342,1505429380211336323,0.839070439339,0.206171602011,0.503442287445
1505429380214646294,6343,1505429380214470502,0.839070439339,0.206171602011,0.503442287445
1505429380218100530,6344,1505429380217932827,0.855571508408,0.192263260484,0.480658173561
1505429380223164223,6345,1505429380222898819,0.855571508408,0.192263260484,0.480658173561
1505429380230959121,6346,1505429380230765109,0.836612224579,0.196006298065,0.511528611183
1505429380234223972,6347,1505429380234024726,0.836612224579,0.196006298065,0.511528611183
1505429380243881429,6348,1505429380243498715,0.839447259903,0.194448232651,0.507462501526
1505429380243885857,6349,1505429380243542869,0.839447259903,0.194448232651,0.507462501526
1505429380248179752,6350,1505429380247966518,0.816883325577,0.24081531167,0.524127483368
1505429380253014804,6351,1505429380252851538,0.816883325577,0.24081531167,0.524127483368
1505429380258582961,6352,1505429380258297693,0.848716795444,0.19803391397,0.490369707346
1505429380267440941,6353,1505429380267163428,0.848716795444,0.19803391397,0.490369707346
1505429380269537886,6354,1505429380269315635,0.837640285492,0.20454005897,0.506480157375
1505429380276794514,6355,1505429380276562518,0.837640285492,0.20454005897,0.506480157375
1505429380278581762,6356,1505429380278399385,0.833796679974,0.233463063836,0.500277996063
1505429380283510772,6357,1505429380283180999,0.833796679974,0.233463063836,0.500277996063
1505429380291657671,6358,1505429380291470090,0.832327365875,0.232277408242,0.503267705441
1505429380301420125,6359,1505429380301219754,0.832327365875,0.232277408242,0.503267705441
1505429380308272972,6360,1505429380307723269,0.83927410841,0.195180013776,0.507468044758
1505429380308331214,6361,1505429380307760556,0.83927410841,0.195180013776,0.507468044758
1505429380308881087,6362,1505429380308651400,0.853130936623,0.182129085064,0.488872796297
1505429380313568993,6363,1505429380313334487,0.853130936623,0.182129085064,0.488872796297
1505429380318480459,6364,1505429380318265691,0.832703351974,0.226225763559,0.505397975445
1505429380325004998,6365,1505429380324774189,0.832703351974,0.226225763559,0.505397975445
1505429380335586980,6366,1505429380335432814,0.848114013672,0.215622216463,0.483952075243
1505429380336676276,6367,1505429380336465733,0.848114013672,0.215622216463,0.483952075243
1505429380339063546,6368,1505429380338890843,0.855451881886,0.198155522346,0.478473097086
1505429380343739461,6369,1505429380343431382,0.855451881886,0.198155522346,0.478473097086
1505429380348519618,6370,1505429380348361727,0.851130664349,0.209134966135,0.481496781111
1505429380356000320,6371,1505429380355807496,0.851130664349,0.209134966135,0.481496781111
1505429380359568738,6372,1505429380358786641,0.831821084023,0.212791442871,0.512633919716
1505429380367453598,6373,1505429380367221768,0.831821084023,0.212791442871,0.512633919716
1505429380368784552,6374,1505429380368561268,0.8513250947,0.203157112002,0.483707427979
1505429380373643102,6375,1505429380373492013,0.8513250947,0.203157112002,0.483707427979
1505429380379199163,6376,1505429380378861321,0.835221409798,0.199314206839,0.512522220612
1505429380383651821,6377,1505429380383372144,0.835221409798,0.199314206839,0.512522220612
1505429380390167815,6378,1505429380389959634,0.832086622715,0.206819221377,0.514643192291
1505429380400935276,6379,1505429380400690264,0.832086622715,0.206819221377,0.514643192291
1505429380400938386,6380,1505429380400727062,0.825714826584,0.216258645058,0.520986735821
1505429380410646965,6381,1505429380410308705,0.825714826584,0.216258645058,0.520986735821
1505429380410650017,6382,1505429380410351262,0.843111634254,0.207164570689,0.496231406927
1505429380413836971,6383,1505429380413705400,0.843111634254,0.207164570689,0.496231406927
1505429380420480742,6384,1505429380420275142,0.839275956154,0.200281769037,0.505473017693
1505429380424277320,6385,1505429380424066680,0.839275956154,0.200281769037,0.505473017693
1505429380434321751,6386,1505429380434077427,0.848716795444,0.19803391397,0.490369707346
1505429380440466748,6387,1505429380440244472,0.848716795444,0.19803391397,0.490369707346
1505429380441306927,6388,1505429380441120269,0.838146030903,0.186786830425,0.512466430664
1505429380443963172,6389,1505429380443774376,0.838146030903,0.186786830425,0.512466430664
1505429380448975898,6390,1505429380448737978,0.841394782066,0.216358661652,0.495220929384
1505429380453984919,6391,1505429380453801991,0.841394782066,0.216358661652,0.495220929384
1505429380461835762,6392,1505429380461496642,0.840445816517,0.20775064826,0.500490188599
1505429380467190442,6393,1505429380466970660,0.840445816517,0.20775064826,0.500490188599
1505429380469396137,6394,1505429380469055219,0.840203523636,0.213611066341,0.498425841331
1505429380475663131,6395,1505429380475260113,0.840203523636,0.213611066341,0.498425841331
1505429380485501798,6396,1505429380485188867,0.835936963558,0.21384434402,0.505450248718
1505429380516245112,6397,1505429380516000576,0.847329795361,0.202203705907,0.491066128016
1505429380524099090,6398,1505429380523598959,0.846047341824,0.19962914288,0.494319796562
1505429380524791636,6399,1505429380524466085,0.846047341824,0.19962914288,0.494319796562
1505429380532978130,6400,1505429380532797344,0.845864236355,0.205492451787,0.492226094007
1505429380534517129,6401,1505429380534320928,0.845864236355,0.205492451787,0.492226094007
1505429380539499708,6402,1505429380539278922,0.833608448505,0.208402112126,0.511532485485
1505429380544664368,6403,1505429380544331584,0.833608448505,0.208402112126,0.511532485485
1505429380551437478,6404,1505429380551269158,0.843111634254,0.207164570689,0.496231406927
1505429380554374019,6405,1505429380554225661,0.843111634254,0.207164570689,0.496231406927
1505429380559701312,6406,1505429380559479974,0.835936963558,0.21384434402,0.505450248718
1505429380567261122,6407,1505429380566981260,0.835936963558,0.21384434402,0.505450248718
1505429380569783356,6408,1505429380569555481,0.842600166798,0.219173461199,0.491922646761
1505429380574798183,6409,1505429380574661557,0.842600166798,0.219173461199,0.491922646761
1505429380582605071,6410,1505429380582265697,0.844408392906,0.20873016119,0.493362188339
1505429380585005789,6411,1505429380584768373,0.844408392906,0.20873016119,0.493362188339
1505429380590948702,6412,1505429380590767533,0.830683767796,0.210057973862,0.515596807003
1505429380604489506,6413,1505429380604202445,0.830683767796,0.210057973862,0.515596807003
1505429380606569471,6414,1505429380606122351,0.847329795361,0.202203705907,0.491066128016
1505429380606574296,6415,1505429380606149639,0.847329795361,0.202203705907,0.491066128016
1505429380609766172,6416,1505429380609575894,0.84389424324,0.220563262701,0.489075064659
1505429380617942485,6417,1505429380617774979,0.84389424324,0.220563262701,0.489075064659
1505429380621451269,6418,1505429380621220598,0.836422502995,0.201895087957,0.509544730186
1505429380634303697,6419,1505429380633848044,0.836422502995,0.201895087957,0.509544730186
1505429380634306971,6420,1505429380633881325,0.846395254135,0.182372450829,0.500355184078
1505429380634943986,6421,1505429380634724263,0.846395254135,0.182372450829,0.500355184078
1505429380640259577,6422,1505429380640002794,0.858223259449,0.179189473391,0.480982273817
1505429380646435057,6423,1505429380646193053,0.858223259449,0.179189473391,0.480982273817
1505429380650112229,6424,1505429380649946683,0.842061817646,0.198688745499,0.501452505589
1505429380654494250,6425,1505429380654330713,0.842061817646,0.198688745499,0.501452505589
1505429380660653308,6426,1505429380660466823,0.836768090725,0.190174564719,0.51347130537
1505429380666783904,6427,1505429380666571418,0.836768090725,0.190174564719,0.51347130537
1505429380670014618,6428,1505429380669843345,0.8488047719,0.198862835765,0.489881634712
1505429380674954783,6429,1505429380674746298,0.8488047719,0.198862835765,0.489881634712
1505429380681604995,6430,1505429380681336508,0.84233635664,0.18718585372,0.505401790142
1505429380691582742,6431,1505429380691286985,0.84233635664,0.18718585372,0.505401790142
1505429380692567836,6432,1505429380692339139,0.848350346088,0.209704577923,0.486133366823
1505429380700553693,6433,1505429380699608390,0.848350346088,0.209704577923,0.486133366823
1505429380701506190,6434,1505429380700421966,0.832512557507,0.195045799017,0.518536388874
1505429380707303910,6435,1505429380707046171,0.832512557507,0.195045799017,0.518536388874
1505429380710397824,6436,1505429380710245809,0.839258670807,0.231519624591,0.491979211569
1505429380715600243,6437,1505429380715430968,0.839258670807,0.231519624591,0.491979211569
1505429380720353171,6438,1505429380720181384,0.845645785332,0.211411446333,0.490090161562
1505429380734656988,6439,1505429380734385134,0.845645785332,0.211411446333,0.490090161562
1505429380737312275,6440,1505429380737138371,0.833499252796,0.203528881073,0.513668119907
1505429380741117961,6441,1505429380740834687,0.833499252796,0.203528881073,0.513668119907
1505429380742006339,6442,1505429380741486953,0.838551938534,0.218120455742,0.499253481627
1505429380745397791,6443,1505429380745155877,0.838551938534,0.218120455742,0.499253481627
1505429380750737634,6444,1505429380750503489,0.834807217121,0.215736687183,0.506512224674
1505429380755898527,6445,1505429380755681001,0.834807217121,0.215736687183,0.506512224674
1505429380760643064,6446,1505429380760418756,0.836464703083,0.206766560674,0.507517933846
1505429380766163502,6447,1505429380765936301,0.836464703083,0.206766560674,0.507517933846
1505429380771570838,6448,1505429380771375582,0.84152585268,0.215056613088,0.495565235615
1505429380775442030,6449,1505429380775267768,0.84152585268,0.215056613088,0.495565235615
1505429380781003348,6450,1505429380780713515,0.84478187561,0.197115764022,0.497482657433
1505429380788296240,6451,1505429380788055472,0.84478187561,0.197115764022,0.497482657433
1505429380799546153,6452,1505429380799277554,0.844364702702,0.209870994091,0.492952793837
1505429380800225693,6453,1505429380800003562,0.844364702702,0.209870994091,0.492952793837
1505429380801443811,6454,1505429380801147933,0.836745262146,0.22732385993,0.498177826405
1505429380805503190,6455,1505429380805322910,0.836745262146,0.22732385993,0.498177826405
1505429380810781221,6456,1505429380810602439,0.827037632465,0.223786652088,0.515682280064
1505429380817237053,6457,1505429380817071977,0.827037632465,0.223786652088,0.515682280064
1505429380823307378,6458,1505429380823097892,0.84347897768,0.195382133126,0.500368893147
1505429380825716801,6459,1505429380825555817,0.84347897768,0.195382133126,0.500368893147
1505429380833086961,6460,1505429380832875816,0.84347897768,0.195382133126,0.500368893147
1505429380835882956,6461,1505429380835713006,0.84347897768,0.195382133126,0.500368893147
1505429380841053458,6462,1505429380840840730,0.837080359459,0.221297115088,0.50032389164
1505429380846250212,6463,1505429380846042758,0.837080359459,0.221297115088,0.50032389164
1505429380850845642,6464,1505429380850682933,0.830075621605,0.221996963024,0.511558234692
1505429380856091865,6465,1505429380855968680,0.830075621605,0.221996963024,0.511558234692
1505429380861460268,6466,1505429380860843958,0.834483921528,0.217062279582,0.506478667259
1505429380866574044,6467,1505429380866358477,0.834483921528,0.217062279582,0.506478667259
1505429380870781917,6468,1505429380870590384,0.845864236355,0.205492451787,0.492226094007
1505429380877296621,6469,1505429380877123308,0.845864236355,0.205492451787,0.492226094007
1505429380883987573,6470,1505429380883539602,0.851763546467,0.222620025277,0.474277436733
1505429380886510038,6471,1505429380886361675,0.851763546467,0.222620025277,0.474277436733
1505429380891120387,6472,1505429380890975844,0.836612224579,0.196006298065,0.511528611183
1505429380899464822,6473,1505429380899327904,0.836612224579,0.196006298065,0.511528611183
1505429380901139186,6474,1505429380900920188,0.841652572155,0.210413143039,0.497340172529
1505429380907613500,6475,1505429380907375195,0.841652572155,0.210413143039,0.497340172529
1505429380916748458,6476,1505429380916387069,0.839275956154,0.200281769037,0.505473017693
1505429380917895369,6477,1505429380917713806,0.839275956154,0.200281769037,0.505473017693
1505429380922791348,6478,1505429380921168119,0.840933382511,0.226768553257,0.491331875324
1505429380926542191,6479,1505429380926301976,0.840933382511,0.226768553257,0.491331875324
1505429380933094211,6480,1505429380932923194,0.841874539852,0.204523190856,0.499417096376
1505429380936392681,6481,1505429380936210899,0.841874539852,0.204523190856,0.499417096376
1505429380941492810,6482,1505429380941213580,0.846047341824,0.19962914288,0.494319796562
1505429380946749807,6483,1505429380946535910,0.846047341824,0.19962914288,0.494319796562
1505429380951381960,6484,1505429380951249448,0.840926229954,0.179851278663,0.510388731956
1505429380956369934,6485,1505429380956240582,0.840926229954,0.179851278663,0.510388731956
1505429380966848832,6486,1505429380966613656,0.842962145805,0.211917862296,0.494475007057
1505429380966851922,6487,1505429380966653774,0.842962145805,0.211917862296,0.494475007057
1505429380971520439,6488,1505429380971331472,0.844485461712,0.206629425287,0.494113862514
1505429380976708200,6489,1505429380976568878,0.844485461712,0.206629425287,0.494113862514
1505429380982944830,6490,1505429380982651799,0.833359599113,0.198418959975,0.515889286995
1505429380994529052,6491,1505429380994289444,0.833359599113,0.198418959975,0.515889286995
1505429380999857116,6492,1505429380999671318,0.871254086494,0.112419880927,0.477784514427
1505429380999860230,6493,1505429380999701011,0.871254086494,0.112419880927,0.477784514427
1505429381001820707,6494,1505429381001593158,0.871331691742,0.197621613741,0.449140042067
1505429381006729975,6495,1505429381006471717,0.871331691742,0.197621613741,0.449140042067
1505429381015214182,6496,1505429381015088340,0.85278904438,0.263426989317,0.45095127821
1505429381021656471,6497,1505429381021461405,0.85278904438,0.263426989317,0.45095127821
1505429381023812143,6498,1505429381023506899,0.831114172935,0.305211424828,0.464860469103
1505429381026676865,6499,1505429381026474965,0.831114172935,0.305211424828,0.464860469103
1505429381033942293,6500,1505429381033734421,0.815393149853,0.254810363054,0.519813120365
1505429381036911175,6501,1505429381036642559,0.815393149853,0.254810363054,0.519813120365
1505429381042327008,6502,1505429381042019864,0.812939822674,0.274304836988,0.513698160648
1505429381046876804,6503,1505429381046592731,0.812939822674,0.274304836988,0.513698160648
1505429381052070231,6504,1505429381051792680,0.844907999039,0.258287936449,0.468420505524
1505429381056955450,6505,1505429381056730084,0.844907999039,0.258287936449,0.468420505524
1505429381067103575,6506,1505429381066858486,0.861059010029,0.195902317762,0.469254404306
1505429381067257235,6507,1505429381066899606,0.861059010029,0.195902317762,0.469254404306
1505429381073260858,6508,1505429381073085529,0.857553124428,0.17865690589,0.48237362504
1505429381079309130,6509,1505429381079138444,0.857553124428,0.17865690589,0.48237362504
1505429381082822987,6510,1505429381082520870,0.870833814144,0.149820879102,0.468190222979
1505429381087209377,6511,1505429381086854808,0.870833814144,0.149820879102,0.468190222979
1505429381094529895,6512,1505429381094338980,0.872626543045,0.224117204547,0.433929055929
1505429381099554730,6513,1505429381099372767,0.872626543045,0.224117204547,0.433929055929
1505429381102129307,6514,1505429381101874335,0.851472496986,0.280985921621,0.442765712738
1505429381108147359,6515,1505429381107901629,0.851472496986,0.280985921621,0.442765712738
1505429381112140024,6516,1505429381111842509,0.857951641083,0.151403233409,0.490913510323
1505429381118418007,6517,1505429381118254966,0.857951641083,0.151403233409,0.490913510323
1505429381124820616,6518,1505429381124556596,0.845865309238,0.206548497081,0.491782158613
1505429381127543972,6519,1505429381127338706,0.845865309238,0.206548497081,0.491782158613
1505429381133583416,6520,1505429381133259092,0.889207482338,0.212908834219,0.404944270849
1505429381137696684,6521,1505429381137459146,0.889207482338,0.212908834219,0.404944270849
1505429381142414012,6522,1505429381142152500,0.850289165974,0.195468783379,0.488671958447
1505429381148518405,6523,1505429381148342030,0.850289165974,0.195468783379,0.488671958447
1505429381152415426,6524,1505429381152187799,0.849204838276,0.215743929148,0.481981098652
1505429381157687616,6525,1505429381157503972,0.849204838276,0.215743929148,0.481981098652
1505429381166102246,6526,1505429381165901699,0.863945364952,0.235621467233,0.445062786341
1505429381167407204,6527,1505429381167235352,0.863945364952,0.235621467233,0.445062786341
1505429381172600656,6528,1505429381172461015,0.846311807632,0.188069298863,0.498383641243
1505429381180215533,6529,1505429381179949560,0.846311807632,0.188069298863,0.498383641243
1505429381186511838,6530,1505429381186236700,0.870623707771,0.225088074803,0.43743532896
1505429381187839170,6531,1505429381187533862,0.870623707771,0.225088074803,0.43743532896
1505429381192601469,6532,1505429381192386376,0.854277431965,0.184070825577,0.486135751009
1505429381201190027,6533,1505429381200976450,0.854277431965,0.184070825577,0.486135751009
1505429381203008122,6534,1505429381202782075,0.860545396805,0.242028385401,0.44820073247
1505429381209879659,6535,1505429381209589589,0.860545396805,0.242028385401,0.44820073247
1505429381216447604,6536,1505429381216239393,0.871312916279,0.139410063624,0.47050896287
1505429381219182364,6537,1505429381219000706,0.871312916279,0.139410063624,0.47050896287
1505429381222611274,6538,1505429381222354369,0.80894112587,0.266582876444,0.523973226547
1505429381227762985,6539,1505429381227563886,0.80894112587,0.266582876444,0.523973226547
1505429381232741159,6540,1505429381232547705,0.882203102112,0.193424209952,0.42930740118
1505429381237789915,6541,1505429381237639363,0.882203102112,0.193424209952,0.42930740118
1505429381242876658,6542,1505429381242609499,0.856519937515,0.176742196083,0.484908103943
1505429381247704111,6543,1505429381247538725,0.856519937515,0.176742196083,0.484908103943
1505429381252745786,6544,1505429381252593495,0.846483170986,0.239912346005,0.475298047066
1505429381258092352,6545,1505429381257941254,0.846483170986,0.239912346005,0.475298047066
1505429381266632952,6546,1505429381266305459,0.880030274391,0.220007568598,0.420884042978
1505429381269597855,6547,1505429381269305357,0.880030274391,0.220007568598,0.420884042978
1505429381277854385,6548,1505429381277662260,0.886595189571,0.132046088576,0.443297594786
1505429381283539494,6549,1505429381283271622,0.847603738308,0.172980353236,0.501643061638
1505429381287984858,6550,1505429381287821624,0.847603738308,0.172980353236,0.501643061638
1505429381293193055,6551,1505429381292976095,0.844715535641,0.19950568676,0.496641814709
1505429381303011015,6552,1505429381302725554,0.844715535641,0.19950568676,0.496641814709
1505429381303756428,6553,1505429381303534345,0.857108712196,0.223205387592,0.464267224073
1505429381309346029,6554,1505429381309158249,0.857108712196,0.223205387592,0.464267224073
1505429381314348953,6555,1505429381314157791,0.871360719204,0.221226289868,0.437937766314
1505429381323756535,6556,1505429381323327577,0.871360719204,0.221226289868,0.437937766314
1505429381323765056,6557,1505429381323365005,0.851882219315,0.215310886502,0.477428495884
1505429381331642278,6558,1505429381331302194,0.851882219315,0.215310886502,0.477428495884
1505429381334141371,6559,1505429381333919408,0.855298936367,0.191624343395,0.481397747993
1505429381338354335,6560,1505429381338173533,0.855298936367,0.191624343395,0.481397747993
1505429381343388254,6561,1505429381342987222,0.842425644398,0.181517124176,0.507317125797
1505429381348335675,6562,1505429381348154225,0.842425644398,0.181517124176,0.507317125797
1505429381353274516,6563,1505429381353068623,0.839447259903,0.194448232651,0.507462501526
1505429381358688283,6564,1505429381358520332,0.839447259903,0.194448232651,0.507462501526
1505429381367150409,6565,1505429381366900465,0.843658447266,0.189016371965,0.502506911755
1505429381368606704,6566,1505429381368380448,0.843658447266,0.189016371965,0.502506911755
1505429381378250821,6567,1505429381378044302,0.851523399353,0.185113787651,0.490551531315
1505429381381210492,6568,1505429381380983306,0.851523399353,0.185113787651,0.490551531315
1505429381385871055,6569,1505429381385399006,0.846447527409,0.176730796695,0.502287566662
1505429381388250397,6570,1505429381388060189,0.846447527409,0.176730796695,0.502287566662
1505429381393559808,6571,1505429381393318459,0.856519937515,0.176742196083,0.484908103943
1505429381402973618,6572,1505429381402728226,0.856519937515,0.176742196083,0.484908103943
1505429381405054103,6573,1505429381404858452,0.884764432907,0.193542227149,0.423949629068
1505429381411417570,6574,1505429381411135764,0.884764432907,0.193542227149,0.423949629068
1505429381414036906,6575,1505429381413807311,0.887585163116,0.236999183893,0.394998639822
1505429381418663120,6576,1505429381418399156,0.887585163116,0.236999183893,0.394998639822
1505429381424039436,6577,1505429381423819112,0.881289243698,0.216861754656,0.419881254435
1505429381432899955,6578,1505429381432733478,0.881289243698,0.216861754656,0.419881254435
1505429381434574211,6579,1505429381434423172,0.834126234055,0.235731318593,0.498662412167
1505429381442081376,6580,1505429381441831319,0.834126234055,0.235731318593,0.498662412167
1505429381443879862,6581,1505429381443565017,0.823137521744,0.19264921546,0.534163713455
1505429381448820816,6582,1505429381448641424,0.823137521744,0.19264921546,0.534163713455
1505429381453496945,6583,1505429381453343992,0.885807573795,0.188469693065,0.42405679822
1505429381459246780,6584,1505429381458982756,0.885807573795,0.188469693065,0.42405679822
1505429381467572151,6585,1505429381467310070,0.874064564705,0.202414959669,0.441632628441
1505429381475703639,6586,1505429381475364530,0.874064564705,0.202414959669,0.441632628441
1505429381475712183,6587,1505429381475395279,0.841648459435,0.213824212551,0.495890170336
1505429381478786439,6588,1505429381478574708,0.841648459435,0.213824212551,0.495890170336
1505429381484110742,6589,1505429381483910658,0.841648459435,0.213824212551,0.495890170336
1505429381488967243,6590,1505429381488810059,0.841648459435,0.213824212551,0.495890170336
1505429381494679651,6591,1505429381494497246,0.859316885471,0.21025839448,0.466225117445
1505429381509607371,6592,1505429381509340013,0.859316885471,0.21025839448,0.466225117445
1505429381510432498,6593,1505429381510253812,0.835930049419,0.192219212651,0.514074623585
1505429381510740827,6594,1505429381510638532,0.835930049419,0.192219212651,0.514074623585
1505429381514026157,6595,1505429381513825909,0.860895395279,0.218569293618,0.459441572428
1505429381519172936,6596,1505429381518937829,0.860895395279,0.218569293618,0.459441572428
1505429381526570431,6597,1505429381526294986,0.884238481522,0.216356232762,0.41389888525
1505429381533674113,6598,1505429381533528088,0.884238481522,0.216356232762,0.41389888525
1505429381535481989,6599,1505429381535293684,0.846614539623,0.217436522245,0.485762417316
1505429381539062815,6600,1505429381538919179,0.846614539623,0.217436522245,0.485762417316
1505429381544300197,6601,1505429381544081626,0.859257698059,0.181140810251,0.478397548199
1505429381549181382,6602,1505429381549000487,0.859257698059,0.181140810251,0.478397548199
1505429381554213735,6603,1505429381554034035,0.858906388283,0.148397430778,0.490161240101
1505429381559261520,6604,1505429381559155497,0.858906388283,0.148397430778,0.490161240101
1505429381566462111,6605,1505429381566192928,0.843533277512,0.194661527872,0.500558197498
1505429381570928994,6606,1505429381570741257,0.843533277512,0.194661527872,0.500558197498
1505429381577891615,6607,1505429381577544311,0.869470655918,0.254152953625,0.423588275909
1505429381579902337,6608,1505429381579683505,0.869470655918,0.254152953625,0.423588275909
1505429381584785313,6609,1505429381584461255,0.858778774738,0.191854834557,0.475069135427
1505429381589396935,6610,1505429381589272072,0.858778774738,0.191854834557,0.475069135427
1505429381597144095,6611,1505429381596982238,0.875028073788,0.175005614758,0.451330274343
1505429381604864694,6612,1505429381604574188,0.875028073788,0.175005614758,0.451330274343
1505429381605630397,6613,1505429381605483485,0.878755867481,0.206238627434,0.430411040783
1505429381609544144,6614,1505429381609376939,0.878755867481,0.206238627434,0.430411040783
1505429381615737537,6615,1505429381615563037,0.855664014816,0.255817085505,0.449885219336
1505429381623403306,6616,1505429381623083876,0.855664014816,0.255817085505,0.449885219336
1505429381633756782,6617,1505429381633461286,0.846348941326,0.255667924881,0.467255145311
1505429381633763539,6618,1505429381633516198,0.846348941326,0.255667924881,0.467255145311
1505429381637212255,6619,1505429381637013609,0.850904047489,0.231223925948,0.471696794033
1505429381639426942,6620,1505429381639251984,0.850904047489,0.231223925948,0.471696794033
1505429381644880259,6621,1505429381644591310,0.869290351868,0.147964313626,0.471636265516
1505429381650824864,6622,1505429381650627718,0.869290351868,0.147964313626,0.471636265516
1505429381654735447,6623,1505429381654510274,0.861923575401,0.234218373895,0.449699282646
1505429381661186616,6624,1505429381660763802,0.861923575401,0.234218373895,0.449699282646
1505429381672255445,6625,1505429381672145538,0.857108712196,0.223205387592,0.464267224073
1505429381672600487,6626,1505429381672193699,0.857108712196,0.223205387592,0.464267224073
1505429381674610998,6627,1505429381674456719,0.855326235294,0.158393740654,0.493283361197
1505429381680016955,6628,1505429381679634269,0.855326235294,0.158393740654,0.493283361197
1505429381685065538,6629,1505429381684671695,0.854049861431,0.132852196693,0.502940475941
1505429381691043132,6630,1505429381690828582,0.854049861431,0.132852196693,0.502940475941
1505429381702076585,6631,1505429381701541417,0.868858039379,0.210355103016,0.448147833347
1505429381703677886,6632,1505429381703059017,0.868858039379,0.210355103016,0.448147833347
1505429381704798372,6633,1505429381704612316,0.849341988564,0.26236218214,0.458022117615
1505429381710436839,6634,1505429381710183459,0.849341988564,0.26236218214,0.458022117615
1505429381714930527,6635,1505429381714717382,0.857735574245,0.229908511043,0.459817022085
1505429381719850290,6636,1505429381719572759,0.857735574245,0.229908511043,0.459817022085
1505429381725160476,6637,1505429381725007942,0.84706568718,0.20604300499,0.489924490452
1505429381732934792,6638,1505429381732753963,0.84706568718,0.20604300499,0.489924490452
1505429381735087718,6639,1505429381734903970,0.876987636089,0.154762521386,0.454908013344
1505429381740524604,6640,1505429381739926284,0.876987636089,0.154762521386,0.454908013344
1505429381746873410,6641,1505429381746548367,0.856788098812,0.165829956532,0.488277107477
1505429381751300973,6642,1505429381751148605,0.856788098812,0.165829956532,0.488277107477
1505429381758903164,6643,1505429381758446521,0.86764895916,0.190233200788,0.459343582392
1505429381760754172,6644,1505429381760531760,0.86764895916,0.190233200788,0.459343582392
1505429381767656936,6645,1505429381767420069,0.863478004932,0.229086011648,0.449361026287
1505429381770193786,6646,1505429381770003806,0.863478004932,0.229086011648,0.449361026287
1505429381776362332,6647,1505429381776210291,0.848165273666,0.206548020244,0.487804889679
1505429381780142042,6648,1505429381780007739,0.848165273666,0.206548020244,0.487804889679
1505429381785260309,6649,1505429381785050264,0.849061667919,0.169812336564,0.500257968903
1505429381790473174,6650,1505429381790306384,0.849061667919,0.169812336564,0.500257968903
1505429381800263224,6651,1505429381800020068,0.868685007095,0.156648114324,0.469944357872
1505429381807082186,6652,1505429381806734908,0.868685007095,0.156648114324,0.469944357872
1505429381808218614,6653,1505429381807987200,0.873383700848,0.200831547379,0.443697601557
1505429381814062946,6654,1505429381813846365,0.873383700848,0.200831547379,0.443697601557
1505429381815349629,6655,1505429381815138225,0.849264323711,0.250309497118,0.464860498905
1505429381820222750,6656,1505429381820007682,0.849264323711,0.250309497118,0.464860498905
1505429381825820309,6657,1505429381825587211,0.854515552521,0.223488673568,0.468888014555
1505429381833686830,6658,1505429381833505846,0.854515552521,0.223488673568,0.468888014555
1505429381835363721,6659,1505429381835214104,0.855445981026,0.174768522382,0.487512201071
1505429381840526847,6660,1505429381840339002,0.855445981026,0.174768522382,0.487512201071
1505429381845804323,6661,1505429381845552231,0.855445981026,0.174768522382,0.487512201071
1505429381850542742,6662,1505429381850329760,0.855445981026,0.174768522382,0.487512201071
1505429381855883086,6663,1505429381855737118,0.863139688969,0.205509454012,0.461254537106
1505429381860696867,6664,1505429381860506704,0.863139688969,0.205509454012,0.461254537106
1505429381866012874,6665,1505429381865751661,0.845275998116,0.254924505949,0.469597756863
1505429381871929128,6666,1505429381871715238,0.845275998116,0.254924505949,0.469597756863
1505429381878521070,6667,1505429381878332610,0.860895395279,0.218569293618,0.459441572428
1505429381880931179,6668,1505429381880663247,0.860895395279,0.218569293618,0.459441572428
1505429381887222323,6669,1505429381886966714,0.861096143723,0.172219231725,0.478386759758
1505429381897621196,6670,1505429381897360054,0.861096143723,0.172219231725,0.478386759758
1505429381899291670,6671,1505429381898988512,0.872843384743,0.176425784826,0.454992830753
1505429381902133658,6672,1505429381901795853,0.872843384743,0.176425784826,0.454992830753
1505429381905834659,6673,1505429381905620643,0.867650985718,0.225950777531,0.44286352396
1505429381913980434,6674,1505429381913787169,0.867650985718,0.225950777531,0.44286352396
1505429381915651648,6675,1505429381915500741,0.856829702854,0.228786990047,0.46205997467
1505429381921141064,6676,1505429381920922843,0.856829702854,0.228786990047,0.46205997467
1505429381926578522,6677,1505429381926324397,0.846469640732,0.171144127846,0.50418138504
1505429381932700010,6678,1505429381932527973,0.846469640732,0.171144127846,0.50418138504
1505429381935838348,6679,1505429381935691875,0.872086942196,0.180104911327,0.455001860857
1505429381940998790,6680,1505429381940767558,0.872086942196,0.180104911327,0.455001860857
1505429381947399570,6681,1505429381947130164,0.867909014225,0.214644163847,0.447953045368
1505429381953518290,6682,1505429381953363792,0.867909014225,0.214644163847,0.447953045368
1505429381957721733,6683,1505429381957506459,0.864738643169,0.243900641799,0.439021140337
1505429381965303653,6684,1505429381965132580,0.864738643169,0.243900641799,0.439021140337
1505429381966213222,6685,1505429381966073818,0.845436632633,0.214786604047,0.488982260227
1505429381971195069,6686,1505429381970967958,0.845436632633,0.214786604047,0.488982260227
1505429381976163403,6687,1505429381976001871,0.855601131916,0.15810020268,0.492900639772
1505429381981101838,6688,1505429381980932077,0.855601131916,0.15810020268,0.492900639772
1505429381986360311,6689,1505429381986114690,0.869240701199,0.2173101753,0.444068610668
1505429381997558476,6690,1505429381997364430,0.869240701199,0.2173101753,0.444068610668
1505429382005921817,6691,1505429382005607596,0.863243460655,0.246640995145,0.440430343151
1505429382006248167,6692,1505429382005946981,0.863243460655,0.246640995145,0.440430343151
1505429382006991600,6693,1505429382006811535,0.858983337879,0.209182471037,0.467322528362
1505429382011311853,6694,1505429382011135932,0.858983337879,0.209182471037,0.467322528362
1505429382019598690,6695,1505429382019390955,0.849053919315,0.175348088145,0.498357743025
1505429382021547125,6696,1505429382021329524,0.849053919315,0.175348088145,0.498357743025
1505429382027608574,6697,1505429382027352289,0.869061946869,0.192602917552,0.455670326948
1505429382032877709,6698,1505429382032706681,0.869061946869,0.192602917552,0.455670326948
1505429382040073852,6699,1505429382039852061,0.866244077682,0.241119489074,0.437587231398
1505429382041928899,6700,1505429382041154926,0.866244077682,0.241119489074,0.437587231398
1505429382046479443,6701,1505429382046308555,0.85658967495,0.227258488536,0.463257700205
1505429382053071092,6702,1505429382052902166,0.85658967495,0.227258488536,0.463257700205
1505429382060467443,6703,1505429382060253401,0.860678017139,0.177748724818,0.477114975452
1505429382065976061,6704,1505429382065713206,0.860678017139,0.177748724818,0.477114975452
1505429382068707303,6705,1505429382068468401,0.862014353275,0.163083791733,0.479932308197
1505429382071588509,6706,1505429382071418990,0.862014353275,0.163083791733,0.479932308197
1505429382076626951,6707,1505429382076432536,0.873271584511,0.225069999695,0.432134389877
1505429382084093490,6708,1505429382082998683,0.873271584511,0.225069999695,0.432134389877
1505429382090122349,6709,1505429382089918200,0.857074558735,0.241052210331,0.455320864916
1505429382091951393,6710,1505429382091755184,0.857074558735,0.241052210331,0.455320864916
1505429382099410702,6711,1505429382099206108,0.857107877731,0.165739104152,0.487746477127
1505429382101770984,6712,1505429382101563095,0.857107877731,0.165739104152,0.487746477127
1505429382106784222,6713,1505429382106567776,0.870604872704,0.17786552012,0.458705812693
1505429382111497399,6714,1505429382111342771,0.870604872704,0.17786552012,0.458705812693
1505429382118393361,6715,1505429382118221030,0.867155075073,0.219070762396,0.4472694695
1505429382124507888,6716,1505429382124309449,0.867155075073,0.219070762396,0.4472694695
1505429382126979840,6717,1505429382126834142,0.856829702854,0.228786990047,0.46205997467
1505429382132339088,6718,1505429382132198600,0.856829702854,0.228786990047,0.46205997467
1505429382136843664,6719,1505429382136679603,0.847558379173,0.189890116453,0.495566904545
1505429382143227255,6720,1505429382142933193,0.847558379173,0.189890116453,0.495566904545
1505429382149183199,6721,1505429382148988050,0.865387797356,0.186104908586,0.465262264013
1505429382153418041,6722,1505429382153180791,0.865387797356,0.186104908586,0.465262264013
1505429382156978107,6723,1505429382156759677,0.869237065315,0.193664222956,0.454885721207
1505429382166066732,6724,1505429382165830131,0.869237065315,0.193664222956,0.454885721207
1505429382167398878,6725,1505429382167232628,0.861210644245,0.230839967728,0.452801465988
1505429382171998941,6726,1505429382171847241,0.861210644245,0.230839967728,0.452801465988
1505429382177089503,6727,1505429382176911114,0.837135374546,0.264122903347,0.479002565145
1505429382184513003,6728,1505429382184245323,0.837135374546,0.264122903347,0.479002565145
1505429382190612746,6729,1505429382190431328,0.866852641106,0.177098929882,0.466049820185
1505429382199655761,6730,1505429382199501941,0.866852641106,0.177098929882,0.466049820185
1505429382202782925,6731,1505429382202199636,0.87718886137,0.184671342373,0.443211227655
1505429382202786308,6732,1505429382202237610,0.87718886137,0.184671342373,0.443211227655
1505429382207206004,6733,1505429382206983225,0.851492702961,0.219740048051,0.476103425026
1505429382214949288,6734,1505429382214748837,0.851492702961,0.219740048051,0.476103425026
1505429382217496379,6735,1505429382217334237,0.847241938114,0.200422823429,0.491946935654
1505429382222472769,6736,1505429382222266612,0.847241938114,0.200422823429,0.491946935654
1505429382227502334,6737,1505429382227195550,0.86249423027,0.192684873939,0.467949002981
1505429382232326053,6738,1505429382232093315,0.86249423027,0.192684873939,0.467949002981
1505429382237304865,6739,1505429382237155362,0.855817139149,0.20376598835,0.475453972816
1505429382243298511,6740,1505429382243003567,0.855817139149,0.20376598835,0.475453972816
1505429382252654228,6741,1505429382252448639,0.847144067287,0.248618364334,0.46961247921
1505429382253267836,6742,1505429382253117857,0.847144067287,0.248618364334,0.46961247921
1505429382259516132,6743,1505429382259322507,0.841979265213,0.203555420041,0.499636024237
1505429382266183832,6744,1505429382265785313,0.841979265213,0.203555420041,0.499636024237
1505429382267567310,6745,1505429382267392028,0.84875780344,0.191654995084,0.492827117443
1505429382272360309,6746,1505429382272199559,0.84875780344,0.191654995084,0.492827117443
1505429382279554543,6747,1505429382279372500,0.874299764633,0.180267989635,0.450669974089
1505429382285622697,6748,1505429382285287813,0.874299764633,0.180267989635,0.450669974089
1505429382288110856,6749,1505429382287922724,0.866908669472,0.224754095078,0.444921374321
1505429382292626665,6750,1505429382292419104,0.866908669472,0.224754095078,0.444921374321
1505429382299359675,6751,1505429382299169375,0.847500562668,0.189335227013,0.495877981186
1505429382302839764,6752,1505429382302580879,0.847500562668,0.189335227013,0.495877981186
1505429382307580711,6753,1505429382307364964,0.853175103664,0.211000293493,0.477044165134
1505429382312870133,6754,1505429382312720062,0.853175103664,0.211000293493,0.477044165134
1505429382323869695,6755,1505429382323631458,0.868532657623,0.175506591797,0.463517427444
1505429382323922100,6756,1505429382323669897,0.868532657623,0.175506591797,0.463517427444
1505429382333049922,6757,1505429382332842564,0.866416871548,0.223303318024,0.446606636047
1505429382333169141,6758,1505429382332872740,0.866416871548,0.223303318024,0.446606636047
1505429382338995060,6759,1505429382338835937,0.851215958595,0.243861868978,0.464717894793
1505429382349246470,6760,1505429382348910952,0.851215958595,0.243861868978,0.464717894793
1505429382350297198,6761,1505429382350118833,0.844641208649,0.201979413629,0.495767652988
1505429382355223760,6762,1505429382354980854,0.844641208649,0.201979413629,0.495767652988
1505429382357794309,6763,1505429382357645209,0.859631717205,0.199072599411,0.470535248518
1505429382365893861,6764,1505429382365645802,0.859631717205,0.199072599411,0.470535248518
1505429382368111915,6765,1505429382367929314,0.870604872704,0.17786552012,0.458705812693
1505429382372789055,6766,1505429382372630744,0.870604872704,0.17786552012,0.458705812693
1505429382378246506,6767,1505429382378046658,0.863811314106,0.212560907006,0.456779807806
1505429382386964299,6768,1505429382386681075,0.863811314106,0.212560907006,0.456779807806
1505429382392063915,6769,1505429382391874961,0.847098648548,0.207068562508,0.48943477869
1505429382397918368,6770,1505429382397607731,0.847098648548,0.207068562508,0.48943477869
1505429382399012088,6771,1505429382398807952,0.843533277512,0.194661527872,0.500558197498
1505429382404295678,6772,1505429382403992895,0.843533277512,0.194661527872,0.500558197498
1505429382408290346,6773,1505429382408103570,0.872127950191,0.187210708857,0.452045381069
1505429382413435553,6774,1505429382413221474,0.872127950191,0.187210708857,0.452045381069
1505429382418843804,6775,1505429382418534467,0.858559191227,0.220258638263,0.462992668152
1505429382425736948,6776,1505429382425498432,0.858559191227,0.220258638263,0.462992668152
1505429382432330705,6777,1505429382432153514,0.855041980743,0.237262964249,0.461095929146
1505429382433308254,6778,1505429382433139862,0.855041980743,0.237262964249,0.461095929146
1505429382438154355,6779,1505429382437991318,0.854419529438,0.21360488236,0.473645627499
1505429382444985861,6780,1505429382444687504,0.854419529438,0.21360488236,0.473645627499
1505429382452854068,6781,1505429382452569390,0.865662336349,0.192867770791,0.461985617876
1505429382453675769,6782,1505429382453430516,0.865662336349,0.192867770791,0.461985617876
1505429382458372109,6783,1505429382458192280,0.873539090157,0.190670967102,0.447855055332
1505429382465849947,6784,1505429382465533216,0.873539090157,0.190670967102,0.447855055332
1505429382468460221,6785,1505429382468247334,0.850904047489,0.231223925948,0.471696794033
1505429382473772018,6786,1505429382473459432,0.850904047489,0.231223925948,0.471696794033
1505429382478611237,6787,1505429382478420235,0.852606475353,0.239090710878,0.464647978544
1505429382484042624,6788,1505429382483484046,0.852606475353,0.239090710878,0.464647978544
1505429382490019903,6789,1505429382489693687,0.855298936367,0.191624343395,0.481397747993
1505429382500281099,6790,1505429382500130868,0.855298936367,0.191624343395,0.481397747993
1505429382500840250,6791,1505429382500693420,0.862592577934,0.170721441507,0.476222962141
1505429382503460005,6792,1505429382503268620,0.862592577934,0.170721441507,0.476222962141
1505429382508847912,6793,1505429382508570919,0.855783998966,0.245810300112,0.455204278231
1505429382513761589,6794,1505429382513615866,0.855783998966,0.245810300112,0.455204278231
1505429382518705312,6795,1505429382518443229,0.852537155151,0.221028149128,0.473631739616
1505429382523693031,6796,1505429382523479528,0.852537155151,0.221028149128,0.473631739616
1505429382532381970,6797,1505429382532139089,0.858906388283,0.175378784537,0.481167435646
1505429382537862115,6798,1505429382537639978,0.858906388283,0.175378784537,0.481167435646
1505429382544537086,6799,1505429382544204317,0.872127950191,0.187210708857,0.452045381069
1505429382544540310,6800,1505429382544244853,0.872127950191,0.187210708857,0.452045381069
1505429382550390159,6801,1505429382550254414,0.857365548611,0.195061996579,0.47631418705
1505429382553712170,6802,1505429382553557204,0.857365548611,0.195061996579,0.47631418705
1505429382558800461,6803,1505429382558670976,0.848604977131,0.225692808628,0.478468745947
1505429382565848153,6804,1505429382565560176,0.848604977131,0.225692808628,0.478468745947
1505429382568781139,6805,1505429382568648332,0.840952515602,0.195464640856,0.50457149744
1505429382574179334,6806,1505429382573979741,0.840952515602,0.195464640856,0.50457149744
1505429382580251929,6807,1505429382579965681,0.872825860977,0.187704488635,0.450490772724
1505429382587678862,6808,1505429382587409312,0.872825860977,0.187704488635,0.450490772724
1505429382589048055,6809,1505429382588860117,0.854624271393,0.207881584764,0.475817859173
1505429382594084979,6810,1505429382593792342,0.854624271393,0.207881584764,0.475817859173
1505429382598915703,6811,1505429382598744834,0.839212059975,0.209803014994,0.501702845097
1505429382604236046,6812,1505429382603970860,0.839212059975,0.209803014994,0.501702845097
1505429382609350381,6813,1505429382609172399,0.870519638062,0.166695252061,0.463042348623
1505429382613974128,6814,1505429382613807216,0.870519638062,0.166695252061,0.463042348623
1505429382622035674,6815,1505429382621635451,0.855228960514,0.23909625411,0.459800511599
1505429382624080439,6816,1505429382623862493,0.855228960514,0.23909625411,0.459800511599
1505429382635952485,6817,1505429382635743707,0.852444052696,0.198135644197,0.48381960392
1505429382636956514,6818,1505429382636792981,0.852444052696,0.198135644197,0.48381960392
1505429382640869265,6819,1505429382640619553,0.854400873184,0.206854939461,0.476665735245
1505429382649740196,6820,1505429382649416121,0.854400873184,0.206854939461,0.476665735245
1505429382649747674,6821,1505429382649450991,0.851947307587,0.232349261642,0.469254404306
1505429382655546423,6822,1505429382655346143,0.851947307587,0.232349261642,0.469254404306
1505429382659396131,6823,1505429382659235636,0.841769397259,0.209279686213,0.497620582581
1505429382665671149,6824,1505429382665298998,0.841769397259,0.209279686213,0.497620582581
1505429382670192044,6825,1505429382669935989,0.87157791853,0.215648144484,0.440281629562
1505429382678261827,6826,1505429382678081978,0.87157791853,0.215648144484,0.440281629562
1505429382680558872,6827,1505429382680366605,0.844928860664,0.224715128541,0.48538467288
1505429382684642580,6828,1505429382684262318,0.844928860664,0.224715128541,0.48538467288
1505429382689564808,6829,1505429382689383960,0.865327179432,0.191775217652,0.463066995144
1505429382696884898,6830,1505429382696724179,0.865327179432,0.191775217652,0.463066995144
1505429382699373498,6831,1505429382699242411,0.851029098034,0.201318711042,0.484995096922
1505429382704716394,6832,1505429382704486330,0.851029098034,0.201318711042,0.484995096922
1505429382709436894,6833,1505429382709317888,0.874064564705,0.202414959669,0.441632628441
1505429382714602637,6834,1505429382714428598,0.874064564705,0.202414959669,0.441632628441
1505429382719462584,6835,1505429382719319035,0.836464703083,0.206766560674,0.507517933846
1505429382724611455,6836,1505429382724321409,0.836464703083,0.206766560674,0.507517933846
1505429382737873004,6837,1505429382737658251,0.869848489761,0.194327861071,0.453431665897
1505429382746367159,6838,1505429382745810577,0.869848489761,0.194327861071,0.453431665897
1505429382746377756,6839,1505429382745848497,0.843435525894,0.19952237606,0.498805940151
1505429382746387104,6840,1505429382745860879,0.843435525894,0.19952237606,0.498805940151
