%time,field.linear.x,field.linear.y,field.linear.z,field.angular.x,field.angular.y,field.angular.z
1505429379371255593,0.0161634184573,-0.0108225455318,1.23736627102,0.0,0.0,-0.0453524344767
1505429379421154442,0.0161193039933,-0.0107921392262,1.23737813979,0.0,0.0,-0.0453476878666
1505429379471027308,0.016150860791,-0.0108192890146,1.23736846521,0.0,0.0,-0.0453476443381
1505429379521107461,0.0160921276132,-0.0107764655752,1.23740787506,0.0,0.0,-0.0453399774996
1505429379571107651,0.0161241923982,-0.0108101659153,1.23743560985,0.0,0.0,-0.0453356583438
1505429379621053598,0.0161781214488,-0.0108237837523,1.23739438951,0.0,0.0,-0.045343879277
1505429379671128205,0.01609924399,-0.0107824429426,1.23739500418,0.0,0.0,-0.0453505178526
1505429379721344198,0.01611628644,-0.0107979067145,1.23740527481,0.0,0.0,-0.0453428250563
1505429379771146909,0.016141599692,-0.0108107268634,1.23739986569,0.0,0.0,-0.0453402450549
1505429379821489398,0.0161390687014,-0.0108071632309,1.23738195077,0.0,0.0,-0.045334957984
1505429379871089937,0.0160925747374,-0.0107817195211,1.23741354495,0.0,0.0,-0.0453403827004
1505429379921096946,0.0161576372928,-0.0108196785611,1.2373991169,0.0,0.0,-0.0453404698756
1505429379971220605,0.0161607967521,-0.0108041562463,1.23735685721,0.0,0.0,-0.0453454260796
1505429380021072225,0.0160888392711,-0.0107795697735,1.23738024086,0.0,0.0,-0.0453371598641
1505429380071103284,0.0161335405041,-0.0108035645085,1.23739506006,0.0,0.0,-0.0453482810769
1505429380121106204,0.0161669078414,-0.0108224144742,1.23736766428,0.0,0.0,-0.0453401577448
1505429380171024979,0.0161206780373,-0.0107920169279,1.23736139089,0.0,0.0,-0.0453517126164
1505429380221368106,0.0160964501682,-0.0107953242551,1.23739641234,0.0,0.0,-0.0453524757988
1505429380271088345,0.0161570384258,-0.0108234736883,1.23739514574,0.0,0.0,-0.0453194473401
1505429380321085260,0.0161187708972,-0.0107913927591,1.23740285337,0.0,0.0,-0.0453460811008
1505429380371058529,0.0161292918975,-0.010807337667,1.23740371019,0.0,0.0,-0.045333636557
1505429380421102228,0.0161382822869,-0.0108114729417,1.23739375249,0.0,0.0,-0.0453335796604
1505429380471135733,0.0161198414898,-0.0107871363385,1.23739906475,0.0,0.0,-0.0453432260661
1505429380521288536,0.0161209529185,-0.0107907781362,1.23741368651,0.0,0.0,-0.0453360301985
1505429380571125467,0.0161292242394,-0.0108122867056,1.23741405532,0.0,0.0,-0.0453322656455
1505429380621211507,0.0161105096057,-0.0107784379318,1.23743145242,0.0,0.0,-0.045349665478
1505429380671069707,0.0161686243155,-0.0108270461647,1.23738772869,0.0,0.0,-0.0453476168253
1505429380721037898,0.0161465795102,-0.0107981027502,1.23734407574,0.0,0.0,-0.0453534719658
1505429380771068664,0.0160886583381,-0.0107838601374,1.23736418858,0.0,0.0,-0.0453523883754
1505429380821094632,0.0161555272258,-0.0108207121837,1.23735854477,0.0,0.0,-0.04534508544
1505429380871261613,0.0161297616364,-0.0107976479471,1.23736617789,0.0,0.0,-0.0453483015835
1505429380921203282,0.0161640245244,-0.0108203260974,1.23734017909,0.0,0.0,-0.0453468110176
1505429380971157315,0.016065544368,-0.0107773879484,1.23738972917,0.0,0.0,-0.0453796166706
1505429381021187307,0.0162432560912,-0.0108410479601,1.23734942153,0.0,0.0,-0.0449191893119
1505429381071162077,0.0160035106936,-0.0107253809034,1.23741360456,0.0,0.0,-0.04609776934
1505429381121220776,0.016192928909,-0.010857419996,1.23738673776,0.0,0.0,-0.0454173828776
1505429381171201671,0.0160753345602,-0.0107771623283,1.2374474898,0.0,0.0,-0.0452615571058
1505429381221160874,0.0161798934249,-0.0108293562717,1.23740825877,0.0,0.0,-0.0456655216465
1505429381271117251,0.0161062121441,-0.0108027804764,1.23739139438,0.0,0.0,-0.0455661849673
1505429381321123430,0.0161150632984,-0.0108104620839,1.23738889843,0.0,0.0,-0.0454680994621
1505429381371057762,0.0161078671269,-0.0107903174333,1.23741220012,0.0,0.0,-0.0455500489865
1505429381421178140,0.0161490068714,-0.0108281943365,1.23738890588,0.0,0.0,-0.0457663511323
1505429381471136399,0.0161282376736,-0.0107962967439,1.23737220541,0.0,0.0,-0.0453204788437
1505429381521392275,0.0161593866857,-0.0108318965008,1.23735098988,0.0,0.0,-0.0449724563121
1505429381571117381,0.0161890865088,-0.0108266453931,1.23726183251,0.0,0.0,-0.0448019067929
1505429381621083216,0.0162624285016,-0.0108428850973,1.2371581465,0.0,0.0,-0.0452273620633
1505429381671225417,0.0161413165309,-0.0107840295829,1.23715036064,0.0,0.0,-0.0452214839266
1505429381721068159,0.0160948805367,-0.0107555959114,1.23720125183,0.0,0.0,-0.0453521844625
1505429381771106965,0.0162086209873,-0.0108759881927,1.23716724738,0.0,0.0,-0.0454828930769
1505429381821061416,0.0161317186416,-0.0108113442514,1.23717594594,0.0,0.0,-0.0456946449199
1505429381871078509,0.016177212606,-0.0108558900686,1.23720606118,0.0,0.0,-0.0456870948945
1505429381921286375,0.0162537793788,-0.0108922097466,1.23718201444,0.0,0.0,-0.0454619858175
1505429381971142341,0.0162021161298,-0.0108129835171,1.23715764731,0.0,0.0,-0.0453285645303
1505429382021129021,0.016141569967,-0.0107983851386,1.23717750311,0.0,0.0,-0.0452118795041
1505429382071119085,0.0161799683954,-0.0108142170721,1.23717755899,0.0,0.0,-0.0452688780507
1505429382121118804,0.0161244102858,-0.0108510022298,1.23720255569,0.0,0.0,-0.0455322940652
1505429382171115331,0.0161906382961,-0.0108422328806,1.23718699142,0.0,0.0,-0.0456853616396
1505429382221178768,0.016802663767,-0.0111701070167,1.23650686517,0.0,0.0,-0.0451589606712
1505429382271017664,0.0153740744536,-0.0103631104894,1.23707528487,0.0,0.0,-0.0455149225198
1505429382321167142,0.0170576881181,-0.0115160774969,1.23661061078,0.0,0.0,-0.0453082624039
1505429382371147072,0.0158590832865,-0.0104425366848,1.23682777286,0.0,0.0,-0.0447076741229
1505429382421150002,0.0163690589576,-0.0109540848083,1.23690272197,0.0,0.0,-0.04456944821
1505429382471145289,0.0162980035758,-0.010868976752,1.23685417771,0.0,0.0,-0.0450357111157
1505429382521114002,0.016021279496,-0.0108308584917,1.23702822328,0.0,0.0,-0.0455685673925
1505429382571050670,0.0165548671822,-0.0109985784885,1.2368004553,0.0,0.0,-0.0457728088997
1505429382621128068,0.0159996644614,-0.010777713307,1.23692306578,0.0,0.0,-0.0456728575448
1505429382671160495,0.0165260562296,-0.0110143132858,1.23676549345,0.0,0.0,-0.0450767261897
1505429382721151462,0.0162109685292,-0.010810782941,1.23671630099,0.0,0.0,-0.0454271706614
1505429382771158263,0.0163759608047,-0.0110604706056,1.23655362502,0.0,0.0,-0.0457022033812
1505429382821050067,0.016311979201,-0.0107999314741,1.2364850983,0.0,0.0,-0.0455509333351
1505429382871192517,0.0163905830012,-0.0110312483888,1.23633658588,0.0,0.0,-0.045746206064
1505429382921402311,0.0164275255344,-0.011085623796,1.23610227257,0.0,0.0,-0.045800733091
1505429382971136246,0.0165557890489,-0.0110581137255,1.23573706001,0.0,0.0,-0.0466314258464
1505429383021266996,0.0169678473502,-0.0115381810694,1.23475651145,0.0,0.0,-0.0470873442433
1505429383071279208,0.017348794672,-0.0117853435205,1.23310585767,0.0,0.0,-0.048087601156
1505429383121120958,0.0189821867147,-0.0129397907569,1.22998163365,0.0,0.0,-0.0479346284723
1505429383171108505,0.0192303945551,-0.0132705934768,1.22613224834,0.0,0.0,-0.0474464013996
1505429383221228584,0.0208548949681,-0.0150689081693,1.22130630612,0.0,0.0,-0.0454499259718
1505429383271194712,0.0195985497802,-0.0142761567698,1.21803022251,0.0,0.0,-0.0441343661046
1505429383321104521,0.0301462206263,-0.0269178271565,1.20917593949,0.0,0.0,-0.0433232673391
1505429383371059806,0.0212128504863,-0.0218025798554,1.20279381103,0.0,0.0,-0.0458222852344
1505429383421207838,0.0266149040379,-0.0314179045235,1.19505928112,0.0,0.0,-0.0506253553257
1505429383471138961,0.0303960139941,-0.0395987488401,1.18534369748,0.0,0.0,-0.0544133916697
1505429383521170515,0.0351691760548,-0.0479974613923,1.17335332632,0.0,0.0,-0.055088577508
1505429383571262407,0.0392706721289,-0.0563414980935,1.15939418301,0.0,0.0,-0.0550447570534
1505429383621085629,0.0447117617158,-0.0672844190943,1.14360124692,0.0,0.0,-0.0548505094945
1505429383671127767,0.0516170855861,-0.0806834343987,1.12587544769,0.0,0.0,-0.0532038048057
1505429383721183071,0.057021327935,-0.0928936600895,1.1067516923,0.0,0.0,-0.0525445434133
1505429383771351542,0.064308482922,-0.107729321489,1.08645212352,0.0,0.0,-0.0500560806561
1505429383821119837,0.074637042262,-0.128274045624,1.06462950706,0.0,0.0,-0.0487236483179
1505429383871058618,0.088659554226,-0.155084700617,1.04071066976,0.0,0.0,-0.0461217368291
1505429383921086580,0.105039997976,-0.186852724821,1.01422197819,0.0,0.0,-0.043338097912
1505429383971111278,0.0975113290329,-0.186750744076,0.988099557161,0.0,0.0,-0.0400778264944
1505429384021111024,0.121498784327,-0.23048856026,0.960655254126,0.0,0.0,-0.0386869023299
1505429384071115754,0.135192987792,-0.261666111674,0.931766968966,0.0,0.0,-0.0368130896988
1505429384121223056,0.145371361424,-0.291767119471,0.901634585857,0.0,0.0,-0.0348993120788
1505429384171083941,0.151982562502,-0.319995315388,0.870577287674,0.0,0.0,-0.0337512136332
1505429384221267207,0.160240563576,-0.347595816436,0.838878554106,0.0,0.0,-0.0302257995177
1505429384271175360,0.179039391971,-0.397914343562,0.805937898159,0.0,0.0,-0.0310552030031
1505429384322050575,0.165366949393,-0.399185060828,0.773106259108,0.0,0.0,-0.0285338092362
1505429384371116611,0.165753776464,-0.4207509701,0.740706038475,0.0,0.0,-0.0262759793129
1505429384421079303,0.159473184983,-0.437321381654,0.708896917105,0.0,0.0,-0.0271398703183
1505429384471272400,0.234684896555,-0.699724055717,0.678690266609,0.0,0.0,-0.0246133141766
1505429384521200478,0.207303296827,-0.678071013434,0.650570046902,0.0,0.0,-0.023207589879
1505429384571876459,0.184642596627,-0.656676428829,0.624381792545,0.0,0.0,-0.0217197658564
1505429384621126641,0.173900281156,-0.687257997091,0.6000852108,0.0,0.0,-0.0205802671663
1505429384671162490,0.139856449714,-0.638849804573,0.577503633499,0.0,0.0,-0.0198752447854
1505429384721324647,0.120395012677,-0.632631262414,0.556748819351,0.0,0.0,-0.0180484762491
1505429384771032553,0.102999037684,-0.673944130152,0.536194455624,0.0,0.0,-0.0164079916913
1505429384821020510,0.0744499323654,-0.648334616447,0.515928697586,0.0,0.0,-0.0150652074395
1505429384871062142,0.0469926881535,-0.632731853585,0.495763373375,0.0,0.0,-0.0142001863625
1505429384921148379,0.0226603058989,-0.605352332221,0.475839149952,0.0,0.0,-0.0121625376212
1505429384971306678,0.00259022822485,-0.586758076386,0.45592571497,0.0,0.0,-0.00915650906439
1505429385021242827,-0.020552044199,-0.556327252055,0.43598241806,0.0,0.0,-0.00980067839233
1505429385071086156,-0.0366290479731,-0.506716750037,0.416968417168,0.0,0.0,-0.00654855319013
1505429385121328694,-0.0486259731534,-0.467998154894,0.399137449265,0.0,0.0,-0.00497699887072
1505429385171145709,-0.0617364505115,-0.45164304378,0.382191550732,0.0,0.0,-0.0025322210617
1505429385222377676,-0.0708031728767,-0.413316217976,0.366260123253,0.0,0.0,-0.00197916370515
1505429385271204126,-0.0777916471565,-0.389336694633,0.351129007339,0.0,0.0,-0.000324063357156
1505429385321262839,-0.0819892444705,-0.356302805445,0.336851966381,0.0,0.0,0.000688679450353
1505429385371292363,-0.0858026181533,-0.331985551025,0.32305945158,0.0,0.0,0.000793594931253
1505429385421809987,-0.0852815195857,-0.306171978231,0.30970890522,0.0,0.0,0.00212575498312
1505429385471302070,-0.0855489658558,-0.277891677064,0.29695315361,0.0,0.0,0.00306022213483
1505429385522135866,-0.0819049105603,-0.250023793647,0.284124386311,0.0,0.0,0.00406278952183
1505429385571100253,-0.0832962995505,-0.224523792944,0.270614337921,0.0,0.0,0.00124421906021
1505429385621115098,-0.0751955268036,-0.189085920998,0.257093024254,0.0,0.0,0.000487111448853
1505429385671300071,-0.068924550702,-0.154646091546,0.244075787067,0.0,0.0,0.000183423869465
1505429385721087274,-0.0630386732495,-0.125751293811,0.231543195248,0.0,0.0,-0.00136831484328
1505429385771072135,-0.0560560414507,-0.100744805915,0.219548237324,0.0,0.0,-0.00189337568487
1505429385821253675,-0.0483468017252,-0.0772487712583,0.208111298084,0.0,0.0,-0.00215432555103
1505429385871238156,-0.0402422739093,-0.0522349462996,0.197876524925,0.0,0.0,-0.00402971458597
1505429385921174531,-0.0330590300169,-0.0396037667958,0.188161683083,0.0,0.0,-0.00373263748026
1505429385971140662,-0.0258247945897,-0.0252257663605,0.179430198669,0.0,0.0,-0.00444468804562
1505429386021093736,-0.0192194410111,-0.0107211043982,0.171020936966,0.0,0.0,-0.00527805647834
1505429386071073933,-0.0123341877814,-0.00188622844305,0.162934494019,0.0,0.0,-0.00540641616272
1505429386121248256,-0.00549209392094,0.00172845152794,0.155062508583,0.0,0.0,-0.0060733586585
1505429386171221364,0.00110559548083,0.00623632523739,0.147507977486,0.0,0.0,-0.0069534004228
1505429386221115602,0.00709170731453,0.00790296374371,0.140521597862,0.0,0.0,-0.00765954597395
1505429386271258662,0.0122112471306,0.00628622619496,0.133913111687,0.0,0.0,-0.00928455496429
1505429386321209207,0.0176444850166,0.00036341550056,0.127105426788,0.0,0.0,-0.00792773301353
1505429386371367925,0.017851109528,-0.00751937586502,0.120574784279,0.0,0.0,-0.00898335089145
1505429386421367171,0.0189189973287,-0.0130180363248,0.114013981819,0.0,0.0,-0.010002185143
1505429386471300876,0.0190408057874,-0.0236978376123,0.107259464264,0.0,0.0,-0.0096898646373
1505429386521246838,0.0178006388006,-0.0359983484365,0.100457978249,0.0,0.0,-0.0103060090623
1505429386571319934,0.0161531524978,-0.0472461227272,0.0934947252274,0.0,0.0,-0.010051421014
1505429386625584227,0.0132327153714,-0.0615499095594,0.0863438367844,0.0,0.0,-0.0110063730099
1505429386671329309,0.00981832520365,-0.077969434914,0.0783289194107,0.0,0.0,-0.010945140392
1505429386721265831,0.0054016925854,-0.098902105816,0.0695048093796,0.0,0.0,-0.0116836135005
1505429386771338052,-6.71407013032e-05,-0.117050120685,0.0595764636993,0.0,0.0,-0.0119896594494
1505429386821161153,-0.00437348630901,-0.130967711277,0.0488280773163,0.0,0.0,-0.0126025397597
1505429386871259422,-0.00786834986452,-0.147253585931,0.0374665975571,0.0,0.0,-0.0106822810987
1505429386921193110,-0.0143392736046,-0.158769816824,0.0260959386826,0.0,0.0,-0.0120875224612
1505429386971164137,-0.017040502915,-0.166216785211,0.0157472610474,0.0,0.0,-0.012081298798
1505429387021113358,-0.0208982284738,-0.176056757892,0.00675315856934,0.0,0.0,-0.0124733770592
1505429387071142396,-0.0251341410672,-0.186518848663,-0.00097815990448,0.0,0.0,-0.0126142825757
1505429387121162338,-0.0293687084918,-0.20100462368,-0.00769047737122,0.0,0.0,-0.0133692504685
1505429387171293998,-0.032489003917,-0.213966300036,-0.014064002037,0.0,0.0,-0.0132949820263
1505429387221152166,-0.0337643145951,-0.221795297833,-0.0199012041092,0.0,0.0,-0.0132152984356
1505429387271158899,-0.0359926866132,-0.229082006295,-0.0253166437149,0.0,0.0,-0.013852291335
1505429387321281816,-0.0359721244024,-0.23534827784,-0.0301856279373,0.0,0.0,-0.0140159046048
1505429387371199744,-0.0364916099905,-0.237655441764,-0.0342045307159,0.0,0.0,-0.0144398020895
1505429387421179620,-0.0365979554704,-0.239363390459,-0.0375433444977,0.0,0.0,-0.01466729698
1505429387471312323,-0.0351076287035,-0.237624453127,-0.0400554418564,0.0,0.0,-0.0147857799173
1505429387521312776,-0.0335268439987,-0.233896224541,-0.0415004968643,0.0,0.0,-0.0156119712107
1505429387571235191,-0.0309980830244,-0.228300512799,-0.0413556575775,0.0,0.0,-0.01518199028
1505429387621234596,-0.02970438719,-0.228756442737,-0.0401869297028,0.0,0.0,-0.0154435950266
1505429387671207796,-0.0274356159905,-0.220475191186,-0.0383350133896,0.0,0.0,-0.0166350191581
1505429387721365059,-0.0244558759155,-0.207125376206,-0.0358709573746,0.0,0.0,-0.0166377244016
1505429387771260070,-0.0220576365567,-0.194215554248,-0.0331074476242,0.0,0.0,-0.017201750535
1505429387821146544,-0.0195060393413,-0.17854040868,-0.0301760911942,0.0,0.0,-0.016913988234
1505429387871155377,-0.016574849297,-0.165540256831,-0.0270793914795,0.0,0.0,-0.0177086408761
1505429387921870242,-0.011417423032,-0.151563642208,-0.0240383625031,0.0,0.0,-0.0193525083714
1505429387971249710,-0.0103235474188,-0.13529665861,-0.0205218076706,0.0,0.0,-0.0200947367602
1505429388021079109,-0.00680848190337,-0.118998746126,-0.0161250114441,0.0,0.0,-0.0195961608126
1505429388071085841,-0.00339656884774,-0.10239946686,-0.0114278078079,0.0,0.0,-0.0202225972839
1505429388121891324,0.000909822375516,-0.0801665564558,-0.00637679100037,0.0,0.0,-0.0215596775754
1505429388171068655,0.00692738441589,-0.0632202737795,-0.00116257667542,0.0,0.0,-0.0224870947477
1505429388221853279,0.0130689460008,-0.0459550303606,0.00342268943787,0.0,0.0,-0.0228921663478
1505429388271159520,0.0187983528483,-0.0308792270735,0.00649673938751,0.0,0.0,-0.0220307572217
1505429388321249406,0.0248052347972,-0.00899493493959,0.00772995948791,0.0,0.0,-0.0233264747873
1505429388371192837,0.029228128977,0.00750905000033,0.00793488025665,0.0,0.0,-0.0257768074452
1505429388421162556,0.0368308613461,0.0302269175049,0.00663764476776,0.0,0.0,-0.0257845415078
1505429388471122985,0.0446058796066,0.0456257845867,0.00347943305969,0.0,0.0,-0.0261478254254
1505429388521289330,0.0465605286255,0.0635902265604,-0.000618267059326,0.0,0.0,-0.027916554318
1505429388571254173,0.05305579287,0.088330263671,-0.00592641830444,0.0,0.0,-0.0288660783274
1505429388621911591,0.0548066497959,0.0958191338241,-0.0118331193924,0.0,0.0,-0.0281180101892
1505429388671100968,0.0545595804769,0.110639676688,-0.0171314954758,0.0,0.0,-0.0291718645826
1505429388721155910,0.0569829368816,0.122406880892,-0.0213518619537,0.0,0.0,-0.0288388584597
1505429388771285123,0.0600354989674,0.137430300694,-0.0246948480606,0.0,0.0,-0.0295019611124
1505429388821316202,0.0594362362468,0.13980372878,-0.0263668775558,0.0,0.0,-0.0287557635805
1505429388871174504,0.0603517768487,0.146847853165,-0.026705789566,0.0,0.0,-0.0302991618519
1505429388921128401,0.0579302545069,0.14435618436,-0.025227355957,0.0,0.0,-0.0307938234766
1505429388971082758,0.0552346171052,0.142663237132,-0.021653342247,0.0,0.0,-0.0309182353937
1505429389021181283,0.0518506835304,0.141597342865,-0.0155146598816,0.0,0.0,-0.0335841218948
1505429389071168566,0.0486230977267,0.141221947253,-0.00700287818909,0.0,0.0,-0.0334528932663
1505429389121641105,0.0451397630324,0.139482174685,0.0035660982132,0.0,0.0,-0.0352577887428
1505429389171153645,0.0427107586786,0.139260552065,0.0154493570328,0.0,0.0,-0.036181737356
1505429389221092331,0.0377805471304,0.133141005248,0.0286664485931,0.0,0.0,-0.0378168791582
1505429389271066531,0.0335175701876,0.133406635001,0.0425723314285,0.0,0.0,-0.0391696475924
1505429389321302145,0.0318639158021,0.138659199706,0.0559919595718,0.0,0.0,-0.041132252542
1505429389371212774,0.027214075193,0.1358836533,0.0687365055084,0.0,0.0,-0.0446794278655
1505429389421156110,0.0240317882372,0.129145619627,0.0799613714218,0.0,0.0,-0.0452695945533
1505429389471317747,0.0210998953913,0.125110751094,0.0893975019455,0.0,0.0,-0.04835008895
1505429389521416902,0.0193946887319,0.112561310855,0.0967769145966,0.0,0.0,-0.0498731921355
1505429389571271251,0.017536278901,0.108016417396,0.101894450188,0.0,0.0,-0.0518093757353
1505429389621190330,0.0149369516508,0.0993812845238,0.104734134674,0.0,0.0,-0.0534985730627
1505429389671160259,0.0175582171519,0.0854313924126,0.105723810196,0.0,0.0,-0.0564357724607
1505429389721968949,0.00948052653179,0.0799538157372,0.104781103134,0.0,0.0,-0.0574968314433
1505429389771119787,0.0110246567988,0.0684413706431,0.10250313282,0.0,0.0,-0.0597804007736
1505429389821811727,0.0108100976075,0.0587571573178,0.0991732597351,0.0,0.0,-0.0620831990855
1505429389871159895,0.0105524764187,0.0520138141759,0.0948154449463,0.0,0.0,-0.0624592491988
1505429389921157802,0.0108197883873,0.0420539795816,0.089554977417,0.0,0.0,-0.064695071529
1505429389971090691,0.0140647771418,0.0398359291084,0.0848314285278,0.0,0.0,-0.0654471624235
1505429390021138084,0.009659986114,0.0207729519712,0.0777465820312,0.0,0.0,-0.0678623084604
1505429390071313640,0.0118447092063,0.0155034062094,0.071629357338,0.0,0.0,-0.0685262461883
1505429390121830082,0.0121124771338,0.0102850399972,0.0655673265457,0.0,0.0,-0.0689549686771
1505429390171178869,0.0128859871552,0.0050574005825,0.0597023487091,0.0,0.0,-0.069956375858
1505429390221194507,0.0149724920861,-0.00131771991586,0.0541631698608,0.0,0.0,-0.0694914635593
1505429390271149849,0.0172037558887,-0.00605105259594,0.0486678600311,0.0,0.0,-0.0707353200158
1505429390321168771,0.019722817242,-0.0118001233918,0.0428127765656,0.0,0.0,-0.070675240615
1505429390371083912,0.0200332361224,-0.00688164158656,0.0384115695953,0.0,0.0,-0.0712948117033
1505429390421097092,0.0254457567382,-0.0385787323947,0.0323996067047,0.0,0.0,-0.0711493216773
1505429390471040705,0.0245889429843,-0.026101652438,0.0274756669998,0.0,0.0,-0.0729130937798
1505429390521252504,0.0243633638682,-0.0160258594675,0.0237127065659,0.0,0.0,-0.0728391168847
1505429390571212117,0.0330959335429,-0.0496333666264,0.0182587623596,0.0,0.0,-0.0720813667475
1505429390621245933,0.0285351149282,-0.0329647272785,0.0138414621353,0.0,0.0,-0.072202855848
1505429390671214957,0.0297339183207,-0.0344078100348,0.00966901779175,0.0,0.0,-0.072155185799
1505429390721328684,0.0290258118649,-0.0362992909462,0.00605828762054,0.0,0.0,-0.0727145468444
1505429390771194435,0.0296313013131,-0.0372089098179,0.00215585231781,0.0,0.0,-0.0720605025801
1505429390821311583,0.0307032505107,-0.0368162466601,-0.00187246799469,0.0,0.0,-0.0711384410697
1505429390871093258,0.0275918013889,-0.0328123563563,-0.0054158449173,0.0,0.0,-0.072346275146
1505429390921812513,0.0267148879482,-0.0299408729728,-0.00874059200287,0.0,0.0,-0.0718266013761
1505429390971116636,0.024489125725,-0.029232305599,-0.0111191749573,0.0,0.0,-0.0712855336833
1505429391021153854,0.0247923596662,-0.0177107010048,-0.0128596305847,0.0,0.0,-0.0704256109273
1505429391071265845,0.0249579564533,-0.0108519141535,-0.0139347791672,0.0,0.0,-0.0704218598046
1505429391121133099,0.0253153052028,-0.00220035570056,-0.0144335508347,0.0,0.0,-0.0694144896339
1505429391171166741,0.02508083652,0.00526626880973,-0.0141492366791,0.0,0.0,-0.0688473349501
1505429391222156617,0.0260165176372,0.0100195970098,-0.0134916782379,0.0,0.0,-0.0681360485084
1505429391271239116,0.0247876905746,0.0122817537043,-0.0122211456299,0.0,0.0,-0.0669533844091
1505429391321137380,0.0237621884753,0.0158213808759,-0.0104164361954,0.0,0.0,-0.0660318087917
1505429391371133964,0.025304889751,0.0177339772097,-0.00905339717865,0.0,0.0,-0.0654620389782
1505429391421136706,0.0238940251095,0.0179842589065,-0.00762932300568,0.0,0.0,-0.0653606689157
1505429391471164471,0.0236007100663,0.0193425950912,-0.00610046386719,0.0,0.0,-0.0654140253948
1505429391521372584,0.024557404979,0.0136384145858,-0.00495223999023,0.0,0.0,-0.0646376229502
1505429391571299312,0.0231268037263,0.0266566915673,-0.00344483852386,0.0,0.0,-0.063299466072
1505429391621136397,0.024179746738,0.0191578846695,-0.00270705223084,0.0,0.0,-0.0626184233192
1505429391673113809,0.0227770096598,0.017402461013,-0.00234739780426,0.0,0.0,-0.0639106783717
1505429391721136502,0.0217541080711,0.0119859701396,-0.00183873176575,0.0,0.0,-0.0632996802436
1505429391771216126,0.0228664389587,0.0119090103118,-0.00145487785339,0.0,0.0,-0.0633185225287
1505429391821222589,0.0212301958173,0.0102014581562,-0.000807809829712,0.0,0.0,-0.063812044446
1505429391873375651,0.0222513352684,0.0106914340603,-0.000388550758362,0.0,0.0,-0.0637136530156
1505429391921143680,0.0232852147803,0.00763248330851,-0.000189471244812,0.0,0.0,-0.0632840850881
1505429391971354736,0.02229823752,0.00497834333753,-0.000333952903748,0.0,0.0,-0.0647577128348
1505429392021202689,0.0212494002414,0.00190289647707,-0.000346112251282,0.0,0.0,-0.0656982915879
1505429392071290015,0.0217575249972,0.00193729507081,-0.000624227523804,0.0,0.0,-0.0654086058796
1505429392121212277,0.0232742689001,0.0019770888838,-0.00130860805511,0.0,0.0,-0.0664827379084
1505429392171287976,0.0235740637334,0.000778234320444,-0.00203506946564,0.0,0.0,-0.067858677924
1505429392221137850,0.0238636243624,0.00102342843899,-0.00276892185211,0.0,0.0,-0.0683737943043
1505429392271147246,0.0236940419835,0.00141394949529,-0.00342397689819,0.0,0.0,-0.0686716231515
1505429392321208109,0.0232436851501,0.00476008982952,-0.00393371582031,0.0,0.0,-0.0693736539725
1505429392371350155,0.0240068000701,1.95291951457e-05,-0.0047483921051,0.0,0.0,-0.070203248268
1505429392421163447,0.0227181942533,-0.00408905542004,-0.00553767681122,0.0,0.0,-0.0701215515129
1505429392471083119,0.0218813066959,-0.0019065042506,-0.0061972618103,0.0,0.0,-0.0717900241598
1505429392521964963,0.0209776738244,-0.00739274240391,-0.00753991603851,0.0,0.0,-0.0726870225895
1505429392571349937,0.0200570933459,-0.0121551282254,-0.00876979827881,0.0,0.0,-0.0716261049404
1505429392621921305,0.0193052572912,-0.00612991044036,-0.00950794219971,0.0,0.0,-0.0715336688714
1505429392671254709,0.0180814589349,-0.0167144313696,-0.010450053215,0.0,0.0,-0.0716512854998
1505429392721140330,0.0165041971935,-0.0124000170006,-0.0109051942825,0.0,0.0,-0.072066105618
1505429392771191344,0.0183010514102,-0.0112336840865,-0.0112729549408,0.0,0.0,-0.0704871603541
1505429392821283407,0.0106823294185,-0.0200917198635,-0.0124133110046,0.0,0.0,-0.0714808241738
1505429392871161665,0.0101736980658,-0.0181189048955,-0.0129319906235,0.0,0.0,-0.0709099180659
1505429392921907974,0.00803857182923,-0.0221147760127,-0.0137002944946,0.0,0.0,-0.0724179261449
1505429392971901038,0.00649806921473,-0.0230662148169,-0.0148532867432,0.0,0.0,-0.0738370787985
1505429393021778668,0.00209787474457,-0.0274478790375,-0.0158907651901,0.0,0.0,-0.0724614394562
1505429393071247910,-0.00166424233609,-0.0238482136523,-0.0161891460419,0.0,0.0,-0.0707083247382
1505429393121420323,-0.00283606254854,-0.0187302488501,-0.0165702581406,0.0,0.0,-0.0722355211468
1505429393171150344,-0.00538893060751,-0.0129934668626,-0.0169398069382,0.0,0.0,-0.0723230005686
1505429393221115992,-0.00773307918908,-0.00535753563945,-0.0164778709412,0.0,0.0,-0.0725005430176
1505429393271293250,-0.0104648523004,0.00153689699343,-0.0153072357178,0.0,0.0,-0.0718288586865
1505429393321131468,-0.010623927649,0.0131206259654,-0.0138841152191,0.0,0.0,-0.0716138627029
1505429393371247851,-0.0122546570539,0.0203708497242,-0.0121279239655,0.0,0.0,-0.0734738212341
1505429393421857288,-0.0125540439757,0.0297243895993,-0.00977962017059,0.0,0.0,-0.0735790396802
1505429393471049096,-0.0123693557405,0.0389232917066,-0.00701313018799,0.0,0.0,-0.0741061740245
1505429393521196895,-0.012534366773,0.0447827313404,-0.00382523536682,0.0,0.0,-0.0737670138632
1505429393571287732,-0.0117954564012,0.0529753959329,-0.000234770774841,0.0,0.0,-0.0743075418701
1505429393621112934,-0.0107779111417,0.06104192334,0.00299091339111,0.0,0.0,-0.0751326895067
1505429393671319083,-0.0090874369556,0.0643947865946,0.00591893196106,0.0,0.0,-0.0749790243233
1505429393721600162,-0.00798604512529,0.0639373386345,0.00858445167541,0.0,0.0,-0.0748905137185
1505429393771159690,-0.00539690634226,0.058571050303,0.0104341030121,0.0,0.0,-0.0743523305508
1505429393821111516,-0.00699773756511,0.0659762162702,0.0127174377441,0.0,0.0,-0.0743862835879
1505429393871254635,-0.00435042547166,0.0612372163684,0.013805937767,0.0,0.0,-0.0749421556031
1505429393921087167,-0.00387803640462,0.0527249828665,0.0139888048172,0.0,0.0,-0.0734510929809
1505429393971282593,-0.00438485142266,0.0469455948494,0.0138308525085,0.0,0.0,-0.0756999134566
1505429394021165439,-0.00396610965111,0.0446978177252,0.0124912977219,0.0,0.0,-0.0767469532016
1505429394071126768,-0.00318542506721,0.0378040695472,0.0105244636536,0.0,0.0,-0.0771145779957
1505429394121244167,-0.00254057072472,0.0371607591136,0.00871987342834,0.0,0.0,-0.0783705255983
1505429394171160364,-0.00195634974094,0.0360481053662,0.00724942684174,0.0,0.0,-0.0789993679193
1505429394221229518,-0.00259783393629,0.0398086052196,0.0060405254364,0.0,0.0,-0.0799349768654
1505429394271183006,-0.0020802880956,0.0412379107583,0.00498564243317,0.0,0.0,-0.0805595396077
1505429394321172865,-0.0033174917858,0.040405391386,0.00446243286133,0.0,0.0,-0.0812897110838
1505429394371209475,-0.00348556015564,0.0407216542217,0.00442154407501,0.0,0.0,-0.0822818452237
1505429394421373640,-0.00364106624495,0.0387100151092,0.00440175533295,0.0,0.0,-0.0827974143459
1505429394471191536,-0.0051571916219,0.0384249734427,0.00441892147064,0.0,0.0,-0.0846955374278
1505429394522105199,-0.00588841469514,0.0381580811505,0.00441355705261,0.0,0.0,-0.0861334809534
1505429394571084971,-0.00683867317464,0.0354279638832,0.00429434776306,0.0,0.0,-0.0875178371823
1505429394621116832,-0.00713379858785,0.0320227871287,0.00413389205933,0.0,0.0,-0.0883172154131
1505429394671142672,-0.00757430336382,0.0286125537009,0.00395317077637,0.0,0.0,-0.0898336225342
1505429394721203478,-0.00884419120723,0.0275291539488,0.00357444286346,0.0,0.0,-0.0909484276314
1505429394771072515,-0.00943471457308,0.021177870548,0.0030571937561,0.0,0.0,-0.0925734733755
1505429394821887964,-0.0109136288969,0.0172951664201,0.00237329006195,0.0,0.0,-0.09175345429
1505429394871139105,-0.0122531111763,0.00835549998708,0.00164265632629,0.0,0.0,-0.0924304213059
1505429394921289130,-0.0136987232597,0.00222566676783,0.000909996032715,0.0,0.0,-0.0927518746746
1505429394971382983,-0.0145688913028,-0.00668840911102,0.000107717514038,0.0,0.0,-0.0943182676402
1505429395021429640,-0.0159027458179,-0.0119848982916,-0.0010623216629,0.0,0.0,-0.0936883302975
1505429395071286111,-0.016720773875,-0.018755617922,-0.00259213447571,0.0,0.0,-0.0951973635424
1505429395121267682,-0.0184635227649,-0.023749958165,-0.00435571670532,0.0,0.0,-0.0947545735482
1505429395171146016,-0.0205632493195,-0.0277688645488,-0.00581090450287,0.0,0.0,-0.0962166217319
1505429395221098701,-0.0224892867572,-0.0307019649096,-0.00682680606842,0.0,0.0,-0.0972540506697
1505429395271335264,-0.0206981719294,-0.0263127389613,-0.00725631713867,0.0,0.0,-0.0961518088762
1505429395321203115,-0.028223089795,-0.046739589752,-0.00774018764496,0.0,0.0,-0.0955403608213
1505429395371225905,-0.0247519961334,-0.0394690668571,-0.00841073989868,0.0,0.0,-0.0969359187235
1505429395421168842,-0.0261511353745,-0.0362011673318,-0.00870411396027,0.0,0.0,-0.0968613182727
1505429395471270038,-0.0223780942782,-0.029248424164,-0.00855724811554,0.0,0.0,-0.0952464422672
1505429395521132118,-0.027251496464,-0.0352258162991,-0.00808017253876,0.0,0.0,-0.0964193961387
1505429395571266777,-0.0236873809642,-0.0186675630534,-0.00708811283112,0.0,0.0,-0.096234874591
1505429395621115499,-0.0233822813653,-0.00710570125309,-0.00552599430084,0.0,0.0,-0.097207692636
1505429395671145444,-0.0219311930469,-0.000742738972652,-0.00376110076904,0.0,0.0,-0.0964340510434
1505429395721171890,-0.0212604883566,0.00928430320285,-0.00113492012024,0.0,0.0,-0.0965523676011
1505429395771291641,-0.0188264351993,0.0168471576188,0.00133843421936,0.0,0.0,-0.096448685004
1505429395822078308,-0.0174980956051,0.036886944976,0.00551373958588,0.0,0.0,-0.094614112509
1505429395871233021,-0.0150920214449,0.046103173751,0.00976366996765,0.0,0.0,-0.0954509100803
1505429395921142900,-0.0122462998431,0.0443265862471,0.0130849599838,0.0,0.0,-0.0938566887592
1505429395971066834,-0.00513632222722,0.0709710408124,0.0182379007339,0.0,0.0,-0.0916919817195
1505429396021971142,-0.00188465608485,0.0791367987385,0.0222143650055,0.0,0.0,-0.0916374861884
1505429396071051507,0.00517499803852,0.0858452144389,0.0254662752151,0.0,0.0,-0.091931379805
1505429396121116804,0.0113953874678,0.0907119638386,0.0284378051758,0.0,0.0,-0.0920522167793
1505429396171246548,0.0171395198894,0.101886000743,0.0309669494629,0.0,0.0,-0.0925571361521
1505429396221114908,0.0167374643799,0.0942177382183,0.0322511911392,0.0,0.0,-0.0915185848013
1505429396271214592,0.036855074299,0.118377058363,0.0330043554306,0.0,0.0,-0.0911586780244
1505429396321257927,0.0277583592983,0.0927456673862,0.0326238393784,0.0,0.0,-0.0918000097614
1505429396371318710,0.049638977076,0.122288298443,0.0313882350922,0.0,0.0,-0.0919499813873
1505429396421193263,0.0457440816458,0.104035287291,0.029701423645,0.0,0.0,-0.0918771303259
1505429396471297302,0.0411524675054,0.0911267744839,0.0279554843903,0.0,0.0,-0.0914487653113
1505429396521395709,0.0678782436207,0.112304514689,0.0247103691101,0.0,0.0,-0.0921731201758
1505429396571121679,0.0577438968471,0.0875472659135,0.0215045928955,0.0,0.0,-0.0912751517897
1505429396621259875,0.0479796802373,0.0795195889412,0.0187520503998,0.0,0.0,-0.092248421414
1505429396671263368,0.0747990674679,0.0896807363035,0.0142192363739,0.0,0.0,-0.091884933003
1505429396721188199,0.0587567377966,0.0691366548536,0.0100558519363,0.0,0.0,-0.0915126025263
1505429396771334045,0.0478470127171,0.0627799807668,0.00674159526825,0.0,0.0,-0.0918998607303
1505429396821289868,0.0659541946497,0.0591481888578,0.00136942863464,0.0,0.0,-0.0916162802166
1505429396871231404,0.0434117451336,0.0499879935137,-0.00246827602386,0.0,0.0,-0.0904831707799
1505429396921162628,0.0519689665191,0.0417343500974,-0.00850348472595,0.0,0.0,-0.0915434182036
1505429396971243948,0.0354443924186,0.0357660875423,-0.0135902643204,0.0,0.0,-0.0919222552245
1505429397021151614,0.0289711944325,0.0316964354201,-0.0187091112137,0.0,0.0,-0.0911619884824
1505429397071289767,0.0223121574134,0.0314152714289,-0.0246463298798,0.0,0.0,-0.0910430871866
1505429397122012407,0.01229725952,0.0272163958848,-0.0305021286011,0.0,0.0,-0.092559748712
1505429397171350566,0.00418567790885,0.0240682119647,-0.035785484314,0.0,0.0,-0.0923555299485
1505429397221820453,0.00190288673628,0.026816677738,-0.0396202087402,0.0,0.0,-0.093203003159
1505429397271224960,-0.0176120685134,0.0145753560267,-0.0447907924652,0.0,0.0,-0.0931586603825
1505429397321115500,-0.0178073037653,0.0172688528983,-0.0485505342484,0.0,0.0,-0.0932624647221
1505429397371172333,-0.025430401017,0.0170304162141,-0.0521364688873,0.0,0.0,-0.0923845199264
1505429397421239087,-0.0315615249968,0.0126771022595,-0.0551243305206,0.0,0.0,-0.0927166712666
1505429397471148920,-0.0362050834459,0.00969301670344,-0.0578294277191,0.0,0.0,-0.0934984295178
1505429397521176069,-0.0399585209722,0.00690870364393,-0.0603464126587,0.0,0.0,-0.0938779924213
1505429397571169243,-0.0414755723786,0.00204547174989,-0.062498497963,0.0,0.0,-0.0938629577695
1505429397621137733,-0.0423836675874,-0.000168387489863,-0.0640060186386,0.0,0.0,-0.0949232484234
1505429397671247793,-0.0423982613451,-0.00696414359625,-0.0650318145752,0.0,0.0,-0.095231115618
1505429397721893352,-0.0418492507513,-0.0142056835375,-0.0653843164444,0.0,0.0,-0.0958723723458
1505429397771174033,-0.0412649492803,-0.0201706301957,-0.0650607824326,0.0,0.0,-0.0969892595396
1505429397821158942,-0.0402041962983,-0.0246487942581,-0.0642055749893,0.0,0.0,-0.0969149303426
1505429397871320659,-0.032824482877,-0.0166919703712,-0.0631826400757,0.0,0.0,-0.0969687294691
1505429397921129800,-0.0395473684396,-0.035607668359,-0.0613940238953,0.0,0.0,-0.0969584849813
1505429397971365364,-0.0320913254443,-0.0306748344503,-0.0596919536591,0.0,0.0,-0.0961249728992
1505429398021849554,-0.0253274796541,-0.0251822056616,-0.0582813501358,0.0,0.0,-0.0963587286526
1505429398071129373,-0.0265848377759,-0.0416584312152,-0.0561084032059,0.0,0.0,-0.0962177007878
1505429398121276812,-0.0205984466971,-0.0341171665198,-0.0539160251617,0.0,0.0,-0.0966428392639
1505429398171228760,-0.0167687761806,-0.024838025115,-0.0512555122375,0.0,0.0,-0.0961919674879
1505429398221159840,-0.0135298618536,-0.0317596988075,-0.0458522319794,0.0,0.0,-0.0955835848299
1505429398271264073,-0.0115085190267,-0.024561753738,-0.0398192882538,0.0,0.0,-0.0934238914179
1505429398321912652,-0.0103519059357,-0.0199405138866,-0.0346339225769,0.0,0.0,-0.0937960155937
1505429398371332414,0.00371434120237,-0.00121455661747,-0.00240998529886,0.0,0.0,-0.120528564453
1505429398421189692,0.00330324237897,0.00485899312732,-0.00242111751234,0.0,0.0,-0.118023071289
1505429398471140108,0.00836675516587,0.0187710991124,-0.00241752673139,0.0,0.0,-0.151970367432
1505429398521193829,0.00904735018946,0.0317795815705,0.0,0.0,0.0,0.0
1505429398571119930,0.00660782654058,0.0336466619296,-0.00242612858841,0.0,0.0,-0.162447814941
1505429398621173477,0.0151324131522,0.0610786170353,-0.00242469979733,0.0,0.0,-0.10293182373
1505429398671185190,0.0137810757094,0.0677665995041,-0.00241851308403,0.0,0.0,-0.114794921875
1505429398721158869,0.0118381675582,0.0639777628745,-0.00241519668195,0.0,0.0,-0.102057647705
1505429398771165805,0.0192300491458,0.0961948464127,-0.00241563835989,0.0,0.0,-0.10145904541
1505429398821184612,0.0166560008095,0.0960185009843,-0.00242579616113,0.0,0.0,-0.0964005279541
1505429398871169601,0.0129397991373,0.0908728182645,-0.00244015691474,0.0,0.0,-0.0967227935791
1505429398921174923,0.0196650429473,0.115316736075,0.0,0.0,0.0,0.0
1505429398971266724,0.0140232360133,0.104004206362,-0.00250446748458,0.0,0.0,-0.0994633483887
1505429399021090142,0.0200790174376,0.123023289974,-0.00254339221736,0.0,0.0,-0.0953356933594
1505429399071125426,0.01719306904,0.113147274917,-0.00167557145602,0.0,0.0,-0.0960631561279
1505429399121181898,0.0155944254948,0.103661241432,0.0,0.0,0.0,0.0
1505429399171343920,0.0152330796991,0.0982375617109,0.0,0.0,0.0,0.0
1505429399221281788,0.016118395802,0.0962866050131,0.0,0.0,0.0,0.0
1505429399271161663,0.0160103157411,0.0834964468221,0.0,0.0,0.0,0.0
1505429399321191141,0.0158238445472,0.0791885019668,0.0,0.0,0.0,0.0
1505429399371152995,0.0150008828967,0.0725071067409,-0.0017627165297,0.0,0.0,-0.0657036590576
1505429399421193087,0.0133562435844,0.0641252641698,-0.00177690742815,0.0,0.0,-0.0941237640381
1505429399471052538,0.0174024651432,0.0614008583718,0.0,0.0,0.0,0.0
1505429399521084615,0.0150243303741,0.0548990524659,0.0,0.0,0.0,0.0
1505429399571135459,0.0141070152953,0.0587158991634,-0.00178610994876,0.0,0.0,-0.0842848968506
1505429399621141104,0.017640843851,0.0427120381186,0.0,0.0,0.0,0.0
1505429399671179157,0.0184274734893,0.0458330751137,0.0,0.0,0.0,0.0
1505429399721168965,0.0163151246414,0.0428429707055,-0.000947164685208,0.0,0.0,-0.0809092712402
1505429399771129966,0.0185769999425,0.0399424814092,0.0,0.0,0.0,0.0
1505429399821096526,0.0173061789169,0.0494576324914,-0.00157006845637,0.0,0.0,-0.096155090332
1505429399871190942,0.0166069592119,0.0553291446707,-0.00155675993459,0.0,0.0,-0.11989730835
1505429399921796268,0.0153908237192,0.0623626700289,-0.00154907845116,0.0,0.0,-0.129423675537
1505429399971078445,0.0151534827216,0.0603781630053,-0.000795307911982,0.0,0.0,-0.0792279815674
1505429400021277203,0.0142920834556,0.062246122294,-0.0008215099971,0.0,0.0,-0.0938179016113
1505429400071184426,0.0112908625807,0.0660196150506,0.0,0.0,0.0,0.0
1505429400121776870,0.014022586664,0.0584099147824,-0.000877146026767,0.0,0.0,-0.0944993591309
1505429400171256721,0.0132918548211,0.0641596377464,-0.00172731252978,0.0,0.0,-0.111775360107
1505429400221132688,0.0112491212728,0.0650164945278,0.0,0.0,0.0,0.0
1505429400271179697,0.00959229490501,0.0425538557619,-0.000384214081789,0.0,0.0,-0.0878573608398
1505429400321230465,0.00778454375169,0.0438934819735,-0.000346786419504,0.0,0.0,-0.0745269775391
1505429400371258371,0.0059872608071,0.047720589494,-0.000284690740871,0.0,0.0,-0.088194732666
1505429400421295646,0.00478682744772,0.0391884398721,-0.000304411857196,0.0,0.0,-0.102857208252
1505429400471193259,0.00158316432749,0.032413871981,0.000345823318013,0.0,0.0,-0.067054977417
1505429400521141928,0.00175871339119,0.0401551908793,-0.00023699276727,0.0,0.0,-0.0933899688721
1505429400571164658,-0.000872671687268,0.0427947279868,-0.000948777660605,0.0,0.0,-0.117278594971
1505429400621208318,-0.00243890161655,0.0416683771714,-0.000947064503612,0.0,0.0,-0.117278594971
1505429400671090981,-0.00131269540553,0.041221307148,0.0,0.0,0.0,0.0
1505429400721399351,-0.00969369160379,0.0150979304318,0.0,0.0,0.0,0.0
1505429400771148211,-0.00643635295451,0.0189787356476,0.0,0.0,0.0,0.0
1505429400821151659,-0.00599690489515,0.0133376540944,0.0,0.0,0.0,0.0
1505429400872960504,-0.00519986447446,0.00955932477995,0.0,0.0,0.0,0.0
1505429400921157148,-0.00533081600129,0.0170311633549,-0.000885492606191,0.0,0.0,-0.10484992981
1505429400971211712,-0.00538864875071,0.015606114473,-0.00085869525893,0.0,0.0,-0.108846817017
1505429401021359142,-0.0033184591868,0.0225857284674,0.0,0.0,0.0,0.0
1505429401071365031,-0.00987033433948,-0.00767258049789,0.0,0.0,0.0,0.0
1505429401121186174,-0.00972351396633,0.00463984218741,0.0,0.0,0.0,0.0
1505429401171674066,-0.00955490802645,0.00718741851746,-0.000826598937575,0.0,0.0,-0.0905570220947
1505429401221168172,-0.0106880260161,0.00764665949256,0.0,0.0,0.0,0.0
1505429401271114334,-0.0112571740771,0.00635889455902,-0.000823880850066,0.0,0.0,-0.069909286499
1505429401321301432,-0.00796481253102,0.0162853885945,-0.000833683783932,0.0,0.0,-0.0745037841797
1505429401371133350,-0.0147961528652,-0.0051506475524,-0.00081203215574,0.0,0.0,-0.0547578430176
1505429401421255783,-0.0107666362463,0.0100091707167,-0.000837200231443,0.0,0.0,-0.056244354248
1505429401471093705,-0.011107322161,0.0108599424567,0.0,0.0,0.0,0.0
1505429401521888615,-0.011488320801,0.0163493903451,-0.000823057705244,0.0,0.0,-0.0598293304443
1505429401571398121,-0.00911653644282,0.0305822721106,0.0,0.0,0.0,0.0
1505429401621148002,-0.0132520864553,0.0218239236363,-0.00151659308202,0.0,0.0,-0.0460585021973
1505429401671180349,-0.00860795222676,0.0454264934019,-0.00150012676077,0.0,0.0,-0.0734803771973
1505429401721192413,-0.00615849509994,0.0569885998538,-0.00151809631789,0.0,0.0,-0.0653440856934
1505429401771221172,-0.00342057964364,0.0701501615667,-0.00151904284645,0.0,0.0,-0.0572036743164
1505429401821191505,-0.00131411880551,0.0780034148862,-0.00155351935626,0.0,0.0,-0.0484135437012
1505429401871097333,-0.000445566038422,0.0947642830231,-0.00157347828467,0.0,0.0,-0.0557794189453
1505429401921127324,0.000569013954687,0.103691734715,-0.00160687903398,0.0,0.0,-0.0541377258301
1505429401971138822,0.000460187344605,0.10383231306,0.0,0.0,0.0,0.0
1505429402021176150,0.000593940334258,0.110764919476,0.0,0.0,0.0,0.0
1505429402071221872,-0.000927717726228,0.138473645436,-0.00170671258783,0.0,0.0,-0.0402133178711
1505429402121258040,0.000247262495272,0.133034093443,0.0,0.0,0.0,0.0
1505429402171302781,-0.00244551594461,0.145924711711,0.0,0.0,0.0,0.0
1505429402221885459,-0.00292527297695,0.150621023257,0.0,0.0,0.0,0.0
1505429402271189286,-0.00144610282309,0.13125483985,0.0,0.0,0.0,0.0
1505429402321173305,-0.00695262157304,0.15633964564,0.0,0.0,0.0,0.0
1505429402371156804,-0.0071189347886,0.133054476645,0.0,0.0,0.0,0.0
1505429402421938764,-0.00811727296633,0.118885915155,0.0,0.0,0.0,0.0
1505429402471352037,-0.0104494177045,0.105164359867,0.0,0.0,0.0,0.0
1505429402521200592,-0.0090409015081,0.089711615653,0.0,0.0,0.0,0.0
1505429402571215477,-0.0121277728696,0.0745293882257,0.0,0.0,0.0,0.0
1505429402621183726,-0.0126336919825,0.0518673688344,0.0,0.0,0.0,0.0
1505429402671236299,-0.00782221692463,0.0566104480106,0.0,0.0,0.0,0.0
1505429402721986195,-0.0119734542235,0.0222633822162,0.0,0.0,0.0,0.0
1505429402771295842,-0.00869788173494,0.026499404814,0.0,0.0,0.0,0.0
1505429402821311664,-0.00739655113222,0.0281760278232,0.0,0.0,0.0,0.0
1505429402871277464,-0.0102743860862,0.00300066962662,0.0,0.0,0.0,0.0
1505429402921178098,-0.0104598336177,-0.0275861425425,0.0,0.0,0.0,0.0
1505429402971127608,-0.0095596779413,-0.0144124081444,0.0,0.0,0.0,0.0
1505429403021162093,-0.00871591999176,-0.00350173709124,0.0,0.0,0.0,0.0
1505429403071090989,-0.012675363854,-0.0508334478723,0.0,0.0,0.0,0.0
1505429403121214039,-0.0112818430372,-0.0244979335899,0.0,0.0,0.0,0.0
1505429403171108006,-0.0109512012703,-0.00306420423822,0.0,0.0,0.0,0.0
1505429403221220692,-0.016622108955,-0.0374270517719,0.0,0.0,0.0,0.0
1505429403271269290,-0.0164742985774,-0.014101451906,0.0,0.0,0.0,0.0
1505429403321071612,-0.0161748389892,0.0063391736342,0.0,0.0,0.0,0.0
1505429403371162523,-0.0200950894398,-0.0169084784154,0.0,0.0,0.0,0.0
1505429403421197241,-0.0188249417399,0.00201298104087,0.0,0.0,0.0,0.0
1505429403471170949,-0.017384032057,0.00467771796594,0.0,0.0,0.0,0.0
1505429403521203899,-0.0146736306731,0.0172872889052,0.0,0.0,0.0,0.0
1505429403571236832,-0.014766916109,-0.00478471921509,0.0,0.0,0.0,0.0
1505429403621256362,-0.0130368104455,0.00190830474797,0.0,0.0,0.0,0.0
1505429403671133832,-0.00922242982352,0.00958720936309,0.0,0.0,0.0,0.0
1505429403721190184,-0.00676885639861,-0.0231196888578,0.0,0.0,0.0,0.0
1505429403771134735,-0.00380490417194,-0.0257895447235,0.0,0.0,0.0,0.0
1505429403821109692,-0.00284576479507,-0.0154823678412,0.0,0.0,0.0,0.0
1505429403871304370,0.00317227838076,-0.0478782372063,0.0,0.0,0.0,0.0
1505429403921158620,0.00410762939133,-0.0161780471688,0.0,0.0,0.0,0.0
1505429403971130221,0.0126751081319,-0.0513587234582,0.0,0.0,0.0,0.0
1505429404021282002,0.0147974053306,-0.0318467575898,0.0,0.0,0.0,0.0
1505429404071322693,0.0131470442439,-0.0163742888262,0.0,0.0,0.0,0.0
1505429404121128525,0.0281566130361,-0.0385698669357,0.0,0.0,0.0,0.0
1505429404171131952,0.0262888851696,-0.0179945862663,0.0,0.0,0.0,0.0
1505429404221170593,0.0217765896759,-0.00431270287556,0.0,0.0,0.0,0.0
1505429404271080983,0.0401545430478,-0.0112690507227,0.0,0.0,0.0,0.0
1505429404321178892,0.0346335350071,0.00259450030662,0.0,0.0,0.0,0.0
1505429404371118594,0.0283731362534,0.0121973412466,0.0,0.0,0.0,0.0
1505429404421143826,0.0466746657128,0.0157668168897,0.0,0.0,0.0,0.0
1505429404471169765,0.0386771915533,0.0202368148179,0.0,0.0,0.0,0.0
1505429404521321730,0.0290779247598,0.0243426635101,0.0,0.0,0.0,0.0
1505429404571043538,0.0393885652459,0.0206984550111,0.0,0.0,0.0,0.0
1505429404621137242,0.0306852903125,0.0312452957881,0.0,0.0,0.0,0.0
1505429404671312796,0.0249151143753,0.031269153964,0.0,0.0,0.0,0.0
1505429404721136829,0.0300887009258,0.0342903250217,0.0,0.0,0.0,0.0
1505429404771132088,0.0229145823351,0.0357392516884,0.0,0.0,0.0,0.0
1505429404821296699,0.0211594107383,0.0361789945606,0.0,0.0,0.0,0.0
1505429404871167402,0.0186489680469,0.0361011601082,0.0,0.0,0.0,0.0
1505429404921135959,0.0158174810396,0.0351037899206,0.0,0.0,0.0,0.0
1505429404971179860,0.0122837686244,0.0270247330753,0.0,0.0,0.0,0.0
1505429405021108582,0.013006534282,0.0356746749069,0.0,0.0,0.0,0.0
1505429405071196798,0.0088349132183,0.0269349299104,0.0,0.0,0.0,0.0
1505429405121148660,0.00370352328173,0.0214228750271,0.0,0.0,0.0,0.0
1505429405171124374,-0.00301889342539,0.0142244443963,0.0,0.0,0.0,0.0
1505429405221309197,-0.00829548418895,0.00994732515431,0.0,0.0,0.0,0.0
1505429405271143452,-0.00838241800182,0.00683755354264,0.0,0.0,0.0,0.0
1505429405321846668,-0.021398468026,-0.00506412812951,0.0,0.0,0.0,0.0
1505429405371055910,-0.0234248704266,-0.00861248326236,0.0,0.0,0.0,0.0
1505429405421164960,-0.0215242204975,-0.00891071028735,0.0,0.0,0.0,0.0
1505429405471042191,-0.0398498113938,-0.0322698973631,0.0,0.0,0.0,0.0
1505429405522008261,-0.0282381286496,-0.0228217176055,0.0,0.0,0.0,0.0
1505429405571085853,-0.0470327834852,-0.0393124747281,0.0,0.0,0.0,0.0
1505429405621812666,-0.0342008538112,-0.0207222617338,0.0,0.0,0.0,0.0
1505429405671083528,-0.0524898566187,-0.0427729858866,0.0,0.0,0.0,0.0
1505429405721166242,-0.0470474926088,-0.0354398977869,0.0,0.0,0.0,0.0
1505429405771171741,-0.037830055871,-0.0283996683157,0.0,0.0,0.0,0.0
1505429405821146891,-0.0574853931234,-0.0465914289881,0.0,0.0,0.0,0.0
1505429405871375535,-0.0479407414333,-0.0376094962524,0.0,0.0,0.0,0.0
1505429405922017244,-0.0480352170571,-0.0363730512325,0.0,0.0,0.0,0.0
1505429405971227508,-0.0393833510203,-0.0324013217593,0.0,0.0,0.0,0.0
1505429406021229379,-0.0535843085148,-0.0393100101355,0.0,0.0,0.0,0.0
1505429406071281450,-0.0431320129292,-0.032223209207,0.0,0.0,0.0,0.0
1505429406121127557,-0.00841143296998,-0.0095638616045,0.0,0.0,0.0,0.0
1505429406171286256,-0.0739806714788,-0.0531350759798,0.0,0.0,0.0,0.0
1505429406221122565,-0.0358530743964,-0.0272801981269,0.0,0.0,0.0,0.0
1505429406271078729,-0.0288088182821,0.0449202031762,-0.00133747955824,0.0,0.0,-0.0212115478516
1505429406321161656,-0.0359431081298,0.0462376808669,0.0,0.0,0.0,0.0
1505429406371205002,-0.0290548372079,0.0452506273353,-0.0014363900359,0.0,0.0,-0.0243422698975
1505429406421275425,-0.0242817742253,0.0501180599243,-0.0015675191087,0.0,0.0,-0.016729888916
1505429406471170323,-0.0257848116944,0.0470248670318,0.0,0.0,0.0,0.0
1505429406521556542,-0.0256921030985,0.0350307921239,0.0,0.0,0.0,0.0
1505429406571092856,-0.021537193478,0.0326892861736,0.0,0.0,0.0,0.0
1505429406621136666,-0.0190332422713,0.0299601868051,0.0,0.0,0.0,0.0
1505429406671124729,-0.0182984022211,0.0247258455709,0.0,0.0,0.0,0.0
1505429406721100271,-0.0154770268383,0.0200292464673,0.0,0.0,0.0,0.0
1505429406771169221,-0.0138663482275,0.0165053798254,0.0,0.0,0.0,0.0
1505429406821148224,-0.0138297325239,0.0105815291794,0.0,0.0,0.0,0.0
1505429406871348349,-0.0117017151771,0.0134530156389,0.0,0.0,0.0,0.0
1505429406921961248,-0.0103147707734,0.0186941213391,0.0,0.0,0.0,0.0
1505429406971166365,-0.00544679788294,0.0049072947569,0.0,0.0,0.0,0.0
1505429407021182661,-0.00694449414889,0.0062930119803,0.0,0.0,0.0,0.0
1505429407071202543,-0.00795521692028,0.00906535849747,-0.0024138842961,0.0,0.0,-0.000102005004883
1505429407121173158,-0.00443407055655,0.00242707340097,-0.0024171563495,0.0,0.0,-0.00808334350586
1505429407171192458,-0.00580465382345,0.00799809143002,-0.00244376498298,0.0,0.0,-0.00205932617188
1505429407221114078,-0.00632842470387,0.0101791964791,0.0,0.0,0.0,0.0
1505429407271263285,-0.00592931058386,0.0192542590663,0.0,0.0,0.0,0.0
1505429407321310647,-0.00727734366297,0.0116643490236,-0.00245808618539,0.0,0.0,0.00853637695313
1505429407371169775,-0.00338991897758,0.020898832196,-0.00241987107603,0.0,0.0,0.00862907409668
1505429407421112044,-0.00327753055176,0.0210816103174,-0.00241303752937,0.0,0.0,0.0015690612793
1505429407471200903,-0.00516971746801,0.0261544041884,0.0,0.0,0.0,0.0
1505429407521869063,-0.00106264040263,0.0441845004549,-0.00248147566501,0.0,0.0,0.0248635864258
1505429407571092701,-0.00408789718146,0.0314906226393,0.0,0.0,0.0,0.0
1505429407621163702,-0.00575878399754,0.026999416973,-0.00244246074984,0.0,0.0,0.0207315826416
1505429407671107102,-0.0036311988365,0.0584851021157,-0.00243098429024,0.0,0.0,0.0150757598877
1505429407721653391,-0.0046057184649,0.0463222349579,0.0,0.0,0.0,0.0
1505429407771201302,-0.00659522004541,0.0375216140457,0.0,0.0,0.0,0.0
1505429407821892952,-0.00466183253822,0.0764974116808,0.0,0.0,0.0,0.0
1505429407871314452,-0.00688858526894,0.052053710066,-0.00245852306772,0.0,0.0,0.0260208129883
1505429407921183105,-0.00769570006834,0.0442822732965,0.0,0.0,0.0,0.0
1505429407971328764,-0.0083878463482,0.0761944361146,-0.00247565186624,0.0,0.0,0.0439321899414
1505429408021093070,-0.00938286464164,0.0547732650044,0.0,0.0,0.0,0.0
1505429408071321143,-0.00969369627046,0.040848113382,-0.00250818478106,0.0,0.0,0.0237269592285
1505429408121190783,-0.00981095054003,0.0562302523813,-0.00251654973842,0.0,0.0,0.0703689575195
1505429408171064903,-0.007963010136,0.0667570895545,-0.00251476459756,0.0,0.0,0.0328458404541
1505429408221160974,-0.00774110519814,0.0402648808651,-0.00251385087636,0.0,0.0,0.0438262939453
1505429408271210424,-0.0041860192211,0.0607457704146,-0.00248788037208,0.0,0.0,0.0575344848633
1505429408321114105,-0.00448250843126,0.0544356835681,0.0,0.0,0.0,0.0
1505429408371095961,-0.0042820676891,0.042191325598,0.0,0.0,0.0,0.0
1505429408421294799,0.00134211147535,0.056801394295,-0.00246396062943,0.0,0.0,0.0685012817383
1505429408471189809,0.00142133378377,0.0517168645974,-0.00245213887337,0.0,0.0,0.0396176147461
1505429408521761262,0.00367933122182,0.0500622343596,-0.00244768083263,0.0,0.0,0.0487843322754
1505429408571099546,0.00550398077492,0.0505688811644,-0.00245215472886,0.0,0.0,0.0657157897949
1505429408621124107,0.00245528163989,0.0389267748813,0.0,0.0,0.0,0.0
1505429408671348223,0.00579865860095,0.0390444704448,0.0,0.0,0.0,0.0
1505429408721188536,0.0101880299593,0.0350862223457,0.0,0.0,0.0,0.0
1505429408771119920,0.00536852443729,0.0215508291086,0.0,0.0,0.0,0.0
1505429408821155954,0.0107386038127,0.00863283841527,0.0,0.0,0.0,0.0
1505429408871094981,0.00658339815704,0.00178699354905,-0.00168283329368,0.0,0.0,0.0547196960449
1505429408921213169,0.00811089904746,-0.0175695209494,-0.00166171232333,0.0,0.0,0.0478469848633
1505429408971383539,0.00564185975493,-0.0262737630996,-0.00161523147466,0.0,0.0,0.0367501831055
1505429409021173484,0.00460575907915,-0.0371140149913,0.0,0.0,0.0,0.0
1505429409071137795,0.000334643916953,-0.0294643927773,0.0,0.0,0.0,0.0
1505429409121283036,-0.000535838879814,-0.0399764994671,0.0,0.0,0.0,0.0
1505429409171098795,-0.00255370704931,-0.0500649113094,-0.00156047608712,0.0,0.0,0.0578787994385
1505429409221121032,-0.00412405376388,-0.0549967370583,-0.0015478086182,0.0,0.0,0.0620805358887
1505429409271130738,-0.00467093845011,-0.0515332613569,0.0,0.0,0.0,0.0
1505429409321125898,-0.00567596470989,-0.047339985713,0.0,0.0,0.0,0.0
1505429409371153774,-0.006278576417,-0.0358458657785,0.0,0.0,0.0,0.0
1505429409421288468,-0.00584951763511,-0.0257029595332,0.0,0.0,0.0,0.0
1505429409471079886,-0.00634805232954,-0.0218006983651,-0.000785235779933,0.0,0.0,0.0241789245605
1505429409521161818,-0.00562162217754,-0.0138473688646,-0.000786164647146,0.0,0.0,0.0317903137207
1505429409571119495,-0.00496888061624,-0.0074216931963,0.0,0.0,0.0,0.0
1505429409621086574,-0.00430274717347,-0.00737385950375,-0.000790041955384,0.0,0.0,0.0481033325195
1505429409671114459,-0.00364730482228,0.00628949975573,0.0,0.0,0.0,0.0
1505429409721292053,-0.00205850428836,0.0127107466579,0.0,0.0,0.0,0.0
1505429409771274445,-0.00136640914837,0.00914296828218,0.0,0.0,0.0,0.0
1505429409821146103,-0.000228790214108,0.00395281781149,-0.00151540538357,0.0,0.0,0.0455799865723
1505429409871111495,0.000344812576147,0.00889177466748,-0.00152492984538,0.0,0.0,0.0584983825684
1505429409921944218,0.000621068711043,0.0123964656102,0.0,0.0,0.0,0.0
1505429409971132923,0.00271208985003,0.0190800586892,-0.00153066717218,0.0,0.0,0.0429843139648
1505429410021119170,0.00486759484772,0.0217822284084,-0.00152986076005,0.0,0.0,0.0488375091553
1505429410071049168,0.00748208819617,0.0239500200515,0.0,0.0,0.0,0.0
1505429410122034140,0.0138735806729,0.0344231823268,0.0,0.0,0.0,0.0
1505429410171317061,0.0115710348434,0.0115581642237,0.0,0.0,0.0,0.0
1505429410221159951,0.016573746377,0.0161075430738,0.0,0.0,0.0,0.0
1505429410271130181,0.0227192727595,0.0164488789605,-0.00152335584552,0.0,0.0,0.027067565918
1505429410322013131,0.01455438932,-0.00105773496139,-0.00152397207489,0.0,0.0,0.0328982543945
1505429410371134395,0.0197441769711,0.00165457738841,0.0,0.0,0.0,0.0
1505429410421849624,0.0174270434412,-0.00351566888447,0.0,0.0,0.0,0.0
1505429410471130367,0.0149038790455,-0.0104098738275,0.0,0.0,0.0,0.0
1505429410521231427,0.014998636558,-0.00808810295337,0.0,0.0,0.0,0.0
1505429410571111793,0.00877953065932,-0.0206931022495,0.0,0.0,0.0,0.0
1505429410621285013,0.00751463383465,-0.023656522992,0.0,0.0,0.0,0.0
1505429410671166759,0.00644469840605,-0.0223065618784,0.0,0.0,0.0,0.0
1505429410721238845,0.0043392996332,-0.0238076365573,0.0,0.0,0.0,0.0
1505429410771301388,0.00246015653672,-0.0244818487676,-0.001532633033,0.0,0.0,0.00593856811523
1505429410821452639,-0.00136033725733,-0.0213112457331,0.0,0.0,0.0,0.0
1505429410871341538,-0.00442116047914,-0.0224815332879,0.0,0.0,0.0,0.0
1505429410921161529,-0.00485811309378,-0.0196178373731,0.0,0.0,0.0,0.0
1505429410971196536,-0.00643333341457,-0.0188989088863,0.0,0.0,0.0,0.0
1505429411021160794,-0.00806657518044,-0.0273075721386,-0.00151842148187,0.0,0.0,0.0283352661133
1505429411071157070,-0.0104095556848,-0.0239786000652,-0.00152381003882,0.0,0.0,0.00335479736328
1505429411121890254,-0.0111261798558,-0.0236686283452,0.0,0.0,0.0,0.0
1505429411171197098,-0.0118409776788,-0.0211069695086,0.0,0.0,0.0,0.0
1505429411221263882,-0.0126873789604,-0.0263579305252,-0.00152107324251,0.0,0.0,0.0240098571777
1505429411271147357,-0.0124380144632,-0.022595849469,-0.0015311579514,0.0,0.0,0.0126918029785
1505429411321162106,-0.013222004385,-0.0204065882766,0.0,0.0,0.0,0.0
1505429411371167336,-0.0132088079587,-0.0131842371774,0.0,0.0,0.0,0.0
1505429411421249339,-0.0124231069048,-0.00983401989867,0.0,0.0,0.0,0.0
1505429411471333478,-0.0134907537392,-0.00621851397294,0.0,0.0,0.0,0.0
1505429411521257893,-0.0148882944748,-0.000934571193316,0.0,0.0,0.0,0.0
1505429411571147045,-0.0154402523065,0.0081738185443,0.0,0.0,0.0,0.0
1505429411621127992,-0.0165433941822,0.0147017132754,0.0,0.0,0.0,0.0
1505429411671272636,-0.0174325639985,0.0184417439387,0.0,0.0,0.0,0.0
1505429411721184956,-0.0148183234057,0.0263127344224,-0.00155929373887,0.0,0.0,0.0204364013672
1505429411771152222,-0.0134354854496,0.0353292143173,0.0,0.0,0.0,0.0
1505429411821161113,-0.0135038490255,0.0405610656597,-0.0024428409859,0.0,0.0,0.0291931152344
1505429411871124060,-0.0103971359909,0.0430223056578,-0.00244036546191,0.0,0.0,0.0155897521973
1505429411921203912,-0.0101392001668,0.0455881897595,-0.00152884537516,0.0,0.0,0.0173809814453
1505429411971056667,-0.00773163257097,0.0501988528402,-0.00242580192738,0.0,0.0,0.0154777526855
1505429412021181571,-0.00543490906888,0.0461606228271,-0.00242627826578,0.0,0.0,0.0359141540527
1505429412071042488,-0.00466408907669,0.0408908269046,0.0,0.0,0.0,0.0
1505429412121071657,-0.00259511126567,0.0401433030636,0.0,0.0,0.0,0.0
1505429412171229167,-0.00132654595577,0.0431513266692,-0.00243306447926,0.0,0.0,0.00900665283203
1505429412221231163,-0.000905012866197,0.038806629208,-0.00243548232097,0.0,0.0,0.0265809631348
1505429412271113148,0.000314188916934,0.0343713620435,-0.00243750785447,0.0,0.0,0.0220623779297
1505429412321168952,0.000875500349108,0.0342066980054,-0.00243845514406,0.0,0.0,0.0130696105957
1505429412371182337,0.000946515620705,0.0362003618211,-0.00244052659123,0.0,0.0,0.00472122192383
1505429412421294141,0.00128824286972,0.0337774170914,-0.00243960609925,0.0,0.0,-0.000531005859375
1505429412471069803,0.00166466289229,0.0315468671013,0.0,0.0,0.0,0.0
1505429412521175973,0.00098771895439,0.0296345211268,0.0,0.0,0.0,0.0
1505429412571180522,0.00176903648344,0.0310665039901,-0.00244994435471,0.0,0.0,-0.00288635253906
1505429412621721483,0.00245003918085,0.0288364574875,-0.00244436678267,0.0,0.0,-0.0126918029785
1505429412671168312,0.00222366846102,0.0275959945623,0.0,0.0,0.0,0.0
1505429412721180828,0.00227777826913,0.0279909170319,-0.00245452268886,0.0,0.0,-0.00872856140137
1505429412771298245,0.00207942188122,0.0277735265272,-0.00244476912787,0.0,0.0,-0.00667449951172
1505429412821185632,0.00240225358311,0.028489904284,-0.00243694975233,0.0,0.0,-0.00948570251465
1505429412871126104,0.00301844084676,0.0288487893774,-0.0024457180127,0.0,0.0,-0.0218963623047
1505429412921102368,0.00356828474669,0.0315165308818,0.0,0.0,0.0,0.0
1505429412971025247,0.00361610665342,0.0304205650985,0.0,0.0,0.0,0.0
1505429413021955473,0.00209926409721,0.0362769718574,-0.00244046366719,0.0,0.0,-0.00774024963379
1505429413071046335,0.00152779876998,0.0380389827199,0.0,0.0,0.0,0.0
1505429413121778392,0.00181734528017,0.0398745640967,-0.00245047944915,0.0,0.0,-0.00695533752441
1505429413171580133,0.00302802133535,0.0420095558098,-0.0024698412475,0.0,0.0,-0.0204885864258
1505429413221124175,0.00138159249152,0.0416274665479,-0.00246984747775,0.0,0.0,-0.00983627319336
1505429413271275584,0.000972155762464,0.0404065577749,0.0,0.0,0.0,0.0
1505429413321223513,-0.000654432297531,0.0356982336967,0.0,0.0,0.0,0.0
1505429413371089249,-0.000816405264993,0.039078742938,-0.00250860767326,0.0,0.0,-0.0114111328125
1505429413421250069,-0.00218242507798,0.0345716401735,0.0,0.0,0.0,0.0
1505429413471235027,-0.00447889315191,0.0298840451372,0.0,0.0,0.0,0.0
1505429413521144136,-0.00654555764363,0.0259493858368,0.0,0.0,0.0,0.0
1505429413571260689,-0.00880735155479,0.0298350748086,-0.00251240845837,0.0,0.0,-0.0105989074707
1505429413621163328,-0.0113934658293,0.0294202368702,0.0,0.0,0.0,0.0
1505429413671117423,-0.0122675353692,0.0289475809092,0.0,0.0,0.0,0.0
