%time,field.header.seq,field.header.stamp,field.header.frame_id,field.pose.position.x,field.pose.position.y,field.pose.position.z,field.pose.orientation.x,field.pose.orientation.y,field.pose.orientation.z,field.pose.orientation.w
1505429379379191437,0,1505429379379046654,0.270580887794,0.0459447987378,-0.993281364441,-0.00537259411067,-0.999158620834,0.0051628574729,0.0403314568102
1505429379389422120,1,1505429379389307131,0.270536988974,0.0458846576512,-0.994191706181,-0.00538893882185,-0.999141693115,0.00539978407323,0.040714263916
1505429379398686875,2,1505429379398519829,0.270505785942,0.0458689630032,-0.995046615601,-0.00548878777772,-0.99913328886,0.00556763727218,0.0408838167787
1505429379409046151,3,1505429379408884905,0.270486027002,0.0458627194166,-0.99588650465,-0.0056498539634,-0.99913752079,0.00571053568274,0.0407373271883
1505429379419396175,4,1505429379419144032,0.270448237658,0.0459376908839,-0.996788442135,-0.00570133700967,-0.999147593975,0.00528172589839,0.0405420958996
1505429379429530828,5,1505429379429371157,0.270426303148,0.0459359921515,-0.99762326479,-0.00560120446607,-0.999150872231,0.00514061748981,0.040493901819
1505429379429534462,6,1505429379429396318,0.270415008068,0.0458997488022,-0.998379170895,-0.00563105707988,-0.999148011208,0.00537036219612,0.0405300073326
1505429379449057885,7,1505429379448861814,0.270428806543,0.0459869652987,-0.999125778675,-0.00585228903219,-0.999149918556,0.00517335766926,0.0404773689806
1505429379459273806,8,1505429379459081843,0.270501732826,0.0460028089583,-0.999867916107,-0.00577614502981,-0.999159157276,0.00525128748268,0.0402504839003
1505429379459278723,9,1505429379459094906,0.270500153303,0.0460153110325,-1.00067090988,-0.00575947994366,-0.999169111252,0.00528628006577,0.0399996601045
1505429379469534028,10,1505429379469372641,0.270487308502,0.0459896475077,-1.00143110752,-0.00567618571222,-0.999160051346,0.00532461702824,0.0402322150767
1505429379489203774,11,1505429379489036977,0.270467191935,0.0458968617022,-1.00222253799,-0.00551296630874,-0.999159038067,0.00555202458054,0.0402495004237
1505429379489213901,12,1505429379489069155,0.270413011312,0.045775026083,-1.00300037861,-0.005429092329,-0.999153017998,0.00595695804805,0.0403533391654
1505429379508704089,13,1505429379508558191,0.270354807377,0.0458340458572,-1.00377523899,-0.00545822223648,-0.999154150486,0.00586674688384,0.0403346754611
1505429379518912747,14,1505429379518781235,0.270300418139,0.0457771159708,-1.00455772877,-0.00546859623864,-0.999148190022,0.00591366458684,0.0404719337821
1505429379529217042,15,1505429379529023998,0.270299941301,0.0458586476743,-1.00533676147,-0.00562887359411,-0.999152421951,0.00570260128006,0.0403750576079
1505429379539328730,16,1505429379539208854,0.270312219858,0.0459678024054,-1.00615465641,-0.00575874233618,-0.999160945415,0.00556853506714,0.0401634313166
1505429379548731211,17,1505429379548484120,0.27034163475,0.045904032886,-1.00687360764,-0.00590301584452,-0.999160468578,0.00600006897002,0.0400921963155
1505429379558926734,18,1505429379558822696,0.270355284214,0.0458726249635,-1.00756967068,-0.00593536067754,-0.999160051346,0.00619716197252,0.0400683544576
1505429379569228259,19,1505429379569083781,0.270373046398,0.045826472342,-1.00832092762,-0.00588624691591,-0.999160468578,0.00602669268847,0.0400913283229
1505429379579789237,20,1505429379579335863,0.270362526178,0.0458433404565,-1.00889837742,-0.00590550666675,-0.999151349068,0.00619091466069,0.040291685611
1505429379579793008,21,1505429379579381146,0.270365655422,0.0457748100162,-1.00952780247,-0.00594348786399,-0.999144792557,0.00631392514333,0.0404290147126
1505429379599523625,22,1505429379599298411,0.270353615284,0.0456667132676,-1.01010370255,-0.00592737458646,-0.999137580395,0.00689270300791,0.0405160337687
1505429379608725829,23,1505429379608563882,0.27032455802,0.0456465035677,-1.01059496403,-0.00584907224402,-0.999141812325,0.0070082815364,0.0404023528099
1505429379619014543,24,1505429379618826385,0.270316183567,0.0455950051546,-1.01116466522,-0.00570099195465,-0.999143242836,0.00694892229512,0.0403983332217
1505429379629308747,25,1505429379629038762,0.270268082619,0.0456836186349,-1.01167082787,-0.0056406124495,-0.999144971371,0.00647500902414,0.0404433719814
1505429379639544950,26,1505429379639307837,0.270280718803,0.0457682646811,-1.01222479343,-0.0056117833592,-0.999149739742,0.00578839331865,0.0404321178794
1505429379639548727,27,1505429379639340642,0.270272195339,0.0458312369883,-1.01275420189,-0.00572546292096,-0.999153196812,0.00551433349028,0.0403677299619
1505429379659025988,28,1505429379658826328,0.27024820447,0.0458913892508,-1.01322937012,-0.00573464483023,-0.999153852463,0.00550463516265,0.0403536744416
1505429379669231822,29,1505429379669070851,0.270245879889,0.0458758547902,-1.0138219595,-0.00573198497295,-0.999156236649,0.005463948939,0.0403013862669
1505429379679429092,30,1505429379679275791,0.270243912935,0.0457956902683,-1.01438140869,-0.00569001538679,-0.999159276485,0.0056104878895,0.040210083127
1505429379688654262,31,1505429379688507379,0.270241886377,0.0457858815789,-1.01496315002,-0.00574944354594,-0.999172925949,0.00567491259426,0.0398523844779
1505429379698973896,32,1505429379698815186,0.270277649164,0.0457766167819,-1.01552784443,-0.00573238637298,-0.999180555344,0.00591841200367,0.0396275855601
1505429379709324174,33,1505429379709055239,0.270287126303,0.0457123368979,-1.01610839367,-0.00573521247134,-0.99918872118,0.00633736792952,0.0393550060689
1505429379719539832,34,1505429379719289596,0.270294398069,0.045636638999,-1.01666069031,-0.00590276299044,-0.999174058437,0.00648014713079,0.0396780855954
1505429379728719304,35,1505429379728556001,0.270262718201,0.0456307418644,-1.01710116863,-0.00607096357271,-0.999157547951,0.00688035506755,0.0399999842048
1505429379738953404,36,1505429379738794095,0.270247638226,0.0456540361047,-1.01764833927,-0.00609443197027,-0.999156057835,0.00642518140376,0.0401092916727
1505429379749172630,37,1505429379749002184,0.270244061947,0.0458104126155,-1.01813626289,-0.00606446247548,-0.999155402184,0.00558725232258,0.0402543134987
1505429379759422205,38,1505429379759234373,0.270228207111,0.0458283238113,-1.01860499382,-0.00597996264696,-0.99915677309,0.0053489767015,0.0402664579451
1505429379759491358,39,1505429379759247600,0.270198047161,0.0456664226949,-1.01901495457,-0.0058346670121,-0.999149799347,0.00603468855843,0.0403630845249
1505429379778808906,40,1505429379778658690,0.270130157471,0.0455602779984,-1.01932382584,-0.00586539972574,-0.999135375023,0.00679444475099,0.0405943505466
1505429379789050378,41,1505429379788902755,0.270111352205,0.0454016774893,-1.01962995529,-0.00574564235285,-0.999123513699,0.00733463838696,0.0408094450831
1505429379799270950,42,1505429379799097550,0.270112514496,0.0453695878386,-1.01983368397,-0.00575356697664,-0.999127864838,0.00748652499169,0.0406731292605
1505429379809580297,43,1505429379809367025,0.270154565573,0.0455291233957,-1.02005457878,-0.00578788248822,-0.999148249626,0.00662039918825,0.0403183586895
1505429379818759434,44,1505429379818515863,0.270207554102,0.0455934815109,-1.0202562809,-0.00570055330172,-0.999166667461,0.00588459195569,0.0399861447513
1505429379828867612,45,1505429379828709779,0.270254671574,0.0456484928727,-1.02038776875,-0.0057143769227,-0.999174416065,0.00552723184228,0.0398418642581
1505429379839066377,46,1505429379838916746,0.270270466805,0.0455888956785,-1.02062606812,-0.00582476519048,-0.999166548252,0.0055647790432,0.04001557827
1505429379849342201,47,1505429379849162888,0.270258098841,0.0456566624343,-1.02077376842,-0.00590016134083,-0.999159812927,0.00569545477629,0.040154684335
1505429379858504253,48,1505429379858330270,0.270246654749,0.0456260591745,-1.02103567123,-0.00604192074388,-0.999152004719,0.00592778809369,0.0402948893607
1505429379868806326,49,1505429379868608833,0.270207166672,0.0456348136067,-1.02138233185,-0.00614017574117,-0.99915510416,0.00597838032991,0.0401946045458
1505429379879004042,50,1505429379878840913,0.270189464092,0.0455875024199,-1.02158415318,-0.0061563141644,-0.999160587788,0.0063828905113,0.0399939119816
1505429379889178555,51,1505429379889066409,0.270143717527,0.0455733202398,-1.02188014984,-0.00608092872426,-0.999163269997,0.00626409612596,0.0399554744363
1505429379899425008,52,1505429379899275994,0.270116448402,0.0456143915653,-1.02209460735,-0.00606407644227,-0.999162733555,0.00620735017583,0.0399839170277
1505429379908647877,53,1505429379908483316,0.270140260458,0.045563030988,-1.02231585979,-0.00611106585711,-0.999159932137,0.00626311963424,0.0400341190398
1505429379918812761,54,1505429379918684803,0.270168721676,0.0455987714231,-1.02249395847,-0.0061016199179,-0.999164283276,0.00610565207899,0.0399523228407
1505429379929023318,55,1505429379928867877,0.27017480135,0.0456925332546,-1.02261209488,-0.00616352725774,-0.999170541763,0.00600720383227,0.0398013330996
1505429379939253862,56,1505429379939117974,0.270224332809,0.0455900654197,-1.02279043198,-0.00606937613338,-0.999174654484,0.0061770286411,0.0396866314113
1505429379949488184,57,1505429379949342848,0.270227730274,0.0455454960465,-1.02297222614,-0.00600145757198,-0.999178349972,0.00619747349992,0.0396009832621
1505429379958780703,58,1505429379958633366,0.270234078169,0.0455355197191,-1.02312195301,-0.00596185773611,-0.999180853367,0.00622724089772,0.0395371206105
1505429379969059082,59,1505429379968906200,0.270233809948,0.045602414757,-1.02323305607,-0.0060051009059,-0.999182224274,0.00597974844277,0.0395351462066
1505429379979288232,60,1505429379979105177,0.270240336657,0.0456537120044,-1.02339506149,-0.00600790185854,-0.999187469482,0.00572863174602,0.0394396148622
1505429379989424160,61,1505429379989314226,0.270260155201,0.045604236424,-1.02362501621,-0.00591292977333,-0.999191582203,0.00573505368084,0.0393495410681
1505429379998767075,62,1505429379998608167,0.270265251398,0.0456202179193,-1.02378678322,-0.00579653447494,-0.999196410179,0.00561509560794,0.0392612665892
1505429380008932709,63,1505429380008797975,0.270231097937,0.0456328466535,-1.02397012711,-0.00569429202005,-0.999194741249,0.00564596615732,0.0393140241504
1505429380019163518,64,1505429380019040996,0.270212769508,0.045569986105,-1.02411651611,-0.00574280088767,-0.999186694622,0.00603291159496,0.0394528657198
1505429380029365699,65,1505429380029224994,0.270201921463,0.0455556660891,-1.02426922321,-0.0058157555759,-0.999184668064,0.0061160903424,0.039482768625
1505429380029371015,66,1505429380029250908,0.270193189383,0.0455433800817,-1.02438402176,-0.00593827711418,-0.999183833599,0.00608538463712,0.0394880622625
1505429380048895150,67,1505429380048753937,0.270182907581,0.0455911792815,-1.02448141575,-0.00588566856459,-0.999182701111,0.00585268437862,0.0395594090223
1505429380059140950,68,1505429380058985320,0.270156115294,0.0455690249801,-1.02455890179,-0.00581342820078,-0.99917703867,0.00583142321557,0.0397173464298
1505429380069306987,69,1505429380069189874,0.270146727562,0.0455636791885,-1.02462220192,-0.00587152317166,-0.999173462391,0.00590622285381,0.0397875420749
1505429380078484728,70,1505429380078336941,0.27012950182,0.0455810278654,-1.02466988564,-0.00591191602871,-0.999169170856,0.00596855534241,0.0398794710636
1505429380088669880,71,1505429380088528891,0.270110726357,0.0456213615835,-1.02468812466,-0.00592621043324,-0.999168753624,0.00597417494282,0.0398872047663
1505429380099015302,72,1505429380098853741,0.270103186369,0.0455198734999,-1.0247194767,-0.00587755348533,-0.999165177345,0.00614146469161,0.0399581752717
1505429380109220105,73,1505429380109075652,0.270085990429,0.0455405153334,-1.024761796,-0.00584951089695,-0.999164879322,0.00584686454386,0.0400132536888
1505429380119428553,74,1505429380119265883,0.27008703351,0.045595407486,-1.02475607395,-0.00583685422316,-0.999165475368,0.0058103618212,0.0400067530572
1505429380128673273,75,1505429380128517114,0.270100086927,0.0455564707518,-1.02478373051,-0.00586757063866,-0.999166607857,0.00577357364818,0.0399794839323
1505429380138915065,76,1505429380138739980,0.270111054182,0.0455439910293,-1.02482116222,-0.00592573732138,-0.999169051647,0.0059371823445,0.0398856326938
1505429380149132958,77,1505429380148994906,0.270114600658,0.0455463416874,-1.02483069897,-0.00586833618581,-0.999167323112,0.0060095754452,0.0399255082011
1505429380159313391,78,1505429380159177355,0.270113199949,0.045536223799,-1.02482366562,-0.00585005851462,-0.999168336391,0.00610390584916,0.0398893691599
1505429380168613539,79,1505429380168469775,0.270113676786,0.0455501824617,-1.02482664585,-0.00591644225642,-0.99916768074,0.0059460522607,0.0399198234081
1505429380178845103,80,1505429380178701378,0.270116388798,0.0455095283687,-1.02487456799,-0.00591089390218,-0.999168038368,0.00588096026331,0.0399213023484
1505429380189246215,81,1505429380188899761,0.270115494728,0.0455144867301,-1.02484631538,-0.00590515416116,-0.999168038368,0.00583968544379,0.0399294346571
1505429380199337767,82,1505429380199176123,0.270112365484,0.045519374311,-1.02480745316,-0.00589094636962,-0.999166965485,0.00595889054239,0.0399399362504
1505429380208590075,83,1505429380208407933,0.270103603601,0.0455738864839,-1.02479577065,-0.00585674028844,-0.999168872833,0.00590760773048,0.03990483284
1505429380218675015,84,1505429380218582266,0.270108878613,0.0455153286457,-1.02480971813,-0.00581538351253,-0.999166488647,0.00594878382981,0.0399643108249
1505429380229030767,85,1505429380228856620,0.270118057728,0.0455118305981,-1.02483391762,-0.00586245534942,-0.999167978764,0.00590160675347,0.0399279408157
1505429380239203632,86,1505429380239069058,0.270099818707,0.0455561131239,-1.02482044697,-0.00590170547366,-0.999169886112,0.00586143508554,0.039879783988
1505429380249459154,87,1505429380249311527,0.270119488239,0.0454864799976,-1.02484464645,-0.00593698117882,-0.999167978764,0.00601531006396,0.0398991666734
1505429380258699134,88,1505429380258566489,0.270117402077,0.0455117821693,-1.02484345436,-0.00591279985383,-0.999166607857,0.00604228070006,0.0399331226945
1505429380268962658,89,1505429380268824026,0.270112931728,0.0455169565976,-1.02486157417,-0.0058820322156,-0.999168097973,0.00599225983024,0.0399066880345
1505429380279309051,90,1505429380279170513,0.270122170448,0.0455086156726,-1.02485978603,-0.00591761386022,-0.999169528484,0.00600031483918,0.0398650802672
1505429380288488932,91,1505429380288328926,0.270116716623,0.0454947017133,-1.02482402325,-0.00590545823798,-0.999167621136,0.00602408265695,0.0399101674557
1505429380298746269,92,1505429380298583807,0.270112127066,0.0454873032868,-1.02485597134,-0.00589290773496,-0.999165832996,0.00601120945066,0.0399582087994
1505429380308924497,93,1505429380308777127,0.270110994577,0.0455116629601,-1.02481639385,-0.00586757669225,-0.999168038368,0.00599809223786,0.0399114042521
1505429380319144677,94,1505429380318973121,0.270106703043,0.0454940199852,-1.02484631538,-0.00589658459648,-0.999167561531,0.00595075357705,0.03992433846
1505429380329388478,95,1505429380329263933,0.270117729902,0.0455037094653,-1.02484095097,-0.00585763016716,-0.999167442322,0.0059596602805,0.0399344339967
1505429380338665683,96,1505429380338470315,0.270116537809,0.0454914681613,-1.02482414246,-0.00590000627562,-0.999166607857,0.00598450237885,0.0399438999593
1505429380348860982,97,1505429380348702915,0.27012783289,0.0454647988081,-1.0248414278,-0.00584687339142,-0.99916779995,0.00600979151204,0.0399185046554
1505429380359806880,98,1505429380359513070,0.270122975111,0.0455262623727,-1.02482438087,-0.00590354809538,-0.999168455601,0.00593376997858,0.0399044975638
1505429380368933959,99,1505429380368753715,0.27012014389,0.0454758517444,-1.02486872673,-0.00590147031471,-0.999166190624,0.00604370515794,0.0399452261627
1505429380379353017,100,1505429380378933090,0.270123690367,0.0454611070454,-1.02486813068,-0.00589463626966,-0.999166309834,0.00608293991536,0.0399380177259
1505429380389335148,101,1505429380389215453,0.270119577646,0.0454856343567,-1.02485847473,-0.00590059580281,-0.999167501926,0.00597846833989,0.0399230867624
1505429380398542297,102,1505429380398386229,0.270115226507,0.0454660020769,-1.02482402325,-0.00588736031204,-0.999166786671,0.00601803092286,0.0399349778891
1505429380408757175,103,1505429380408608382,0.270109862089,0.0454537384212,-1.02481269836,-0.00591489905491,-0.99916779995,0.00611231802031,0.0398926921189
1505429380418972554,104,1505429380418822173,0.270122826099,0.0454626977444,-1.02484059334,-0.00585440173745,-0.999165654182,0.00603683013469,0.0399660617113
1505429380429227053,105,1505429380429083542,0.270107209682,0.045495506376,-1.02478528023,-0.00589306792244,-0.999163746834,0.00609114905819,0.0399993248284
1505429380439506095,106,1505429380439336722,0.270115345716,0.0454781465232,-1.02476716042,-0.00589637458324,-0.999167144299,0.00608883146197,0.0399140305817
1505429380448826502,107,1505429380448604725,0.270115286112,0.0454423464835,-1.02479994297,-0.00590514251962,-0.999166369438,0.006099245511,0.0399323776364
1505429380459003573,108,1505429380458840782,0.270125538111,0.0454345680773,-1.0247348547,-0.00585591094568,-0.999167978764,0.00606257095933,0.0399037338793
1505429380469282872,109,1505429380469098904,0.270111083984,0.0454467982054,-1.02474308014,-0.00584194343537,-0.999166190624,0.00599221372977,0.0399604402483
1505429380478638469,110,1505429380478486193,0.270107299089,0.045492913574,-1.0246771574,-0.0058847614564,-0.999164104462,0.00606754422188,0.0399943888187
1505429380488877831,111,1505429380488698475,0.270091533661,0.0454309843481,-1.02465426922,-0.0059156822972,-0.999157786369,0.00623705517501,0.0401216261089
1505429380499161341,112,1505429380498966917,0.270096004009,0.0453612096608,-1.02462732792,-0.00590093620121,-0.99915599823,0.00648068683222,0.0401316769421
1505429380509403099,113,1505429380509228256,0.270086616278,0.0454169511795,-1.02453958988,-0.00584537908435,-0.999161958694,0.00634221360087,0.0400118269026
1505429380518590160,114,1505429380518452795,0.270099163055,0.0453440248966,-1.02446436882,-0.00584034714848,-0.999163925648,0.00651380699128,0.0399365834892
1505429380528970498,115,1505429380528686025,0.270089000463,0.0453695580363,-1.02435410023,-0.00582590233535,-0.99916434288,0.00635891640559,0.0399524383247
1505429380539153824,116,1505429380538989373,0.270107656717,0.0454144217074,-1.02421724796,-0.0057909139432,-0.99916356802,0.00619916059077,0.0400023981929
1505429380549405805,117,1505429380549268406,0.270101726055,0.0454192347825,-1.02404427528,-0.00587442331016,-0.999161481857,0.00615675095469,0.0400497056544
1505429380558662430,118,1505429380558501861,0.270116657019,0.0453745722771,-1.02383649349,-0.00589171936736,-0.999157547951,0.00640411069617,0.0401062071323
1505429380568937905,119,1505429380568762898,0.270129561424,0.0453390926123,-1.02373051643,-0.00595656735823,-0.99916523695,0.00637871120125,0.0399079248309
1505429380579119606,120,1505429380578973264,0.270134329796,0.0453437790275,-1.02348911762,-0.00588654680178,-0.999170422554,0.00664440356195,0.0397449396551
1505429380589399517,121,1505429380589240879,0.270141005516,0.0452870614827,-1.02324581146,-0.00593262817711,-0.999173820019,0.00690375920385,0.0396078303456
1505429380598667414,122,1505429380598509622,0.270145565271,0.0453143492341,-1.02296280861,-0.00599681725726,-0.999180197716,0.00694400537759,0.0394315384328
1505429380608992148,123,1505429380608730841,0.270171761513,0.0453108735383,-1.02263426781,-0.00605596043169,-0.999174594879,0.00685792183504,0.0395782105625
1505429380619184991,124,1505429380618996100,0.270168304443,0.0452347137034,-1.02226257324,-0.00610623881221,-0.99916356802,0.00711448071525,0.0398024208844
1505429380629366807,125,1505429380629230972,0.27011731267,0.0453063547611,-1.02177906036,-0.00622671050951,-0.999151289463,0.007139143534,0.0400863587856
1505429380638554883,126,1505429380638415233,0.270106673241,0.0452496521175,-1.0212726593,-0.00600828183815,-0.999143838882,0.00728476373479,0.0402794927359
1505429380648854817,127,1505429380648677378,0.270108044147,0.0452223606408,-1.02078902721,-0.00588873866946,-0.999141395092,0.00713257677853,0.0403850376606
1505429380659001763,128,1505429380658856836,0.270135581493,0.0452696382999,-1.02038300037,-0.00578220048919,-0.999156415462,0.0065096099861,0.040133677423
1505429380669251560,129,1505429380669101360,0.270172268152,0.0453429669142,-1.01986443996,-0.00571070192382,-0.999162495136,0.0061896587722,0.0400417111814
1505429380679519485,130,1505429380679338303,0.270146012306,0.045410297811,-1.01930701733,-0.00582792377099,-0.999145328999,0.00608862238005,0.0404663309455
1505429380688695983,131,1505429380688534056,0.270123183727,0.0453806780279,-1.01887357235,-0.00591791886836,-0.999129414558,0.0062568699941,0.0408206656575
1505429380698963962,132,1505429380698776768,0.270103543997,0.0453353375196,-1.01834094524,-0.00600511394441,-0.999119460583,0.00659525906667,0.0409979745746
1505429380709275471,133,1505429380709068843,0.270086735487,0.0453236103058,-1.01775050163,-0.00604970986024,-0.999121248722,0.00700367987156,0.0408790558577
1505429380719425425,134,1505429380719264723,0.270088106394,0.0453721508384,-1.01706457138,-0.00604774197564,-0.999122202396,0.00725204963237,0.0408126153052
1505429380728725299,135,1505429380728529827,0.27014029026,0.0453718304634,-1.01647114754,-0.00592734757811,-0.999132812023,0.00699656317011,0.0406133532524
1505429380738907585,136,1505429380738742633,0.270181536674,0.045421551913,-1.01582229137,-0.00580013729632,-0.99913829565,0.0065960297361,0.04056520015
1505429380749144756,137,1505429380748972909,0.270190656185,0.0455470085144,-1.01513981819,-0.00577866565436,-0.999141633511,0.00589866610244,0.0405933745205
1505429380759349380,138,1505429380759191913,0.270214825869,0.045610729605,-1.01447033882,-0.00580138154328,-0.999145627022,0.00556701747701,0.0405381284654
1505429380768543740,139,1505429380768387787,0.270218372345,0.0455491729081,-1.01368188858,-0.00574752409011,-0.999147891998,0.00592746492475,0.0404376275837
1505429380778768495,140,1505429380778628345,0.270264267921,0.0454100519419,-1.01291954517,-0.00577204441652,-0.999143481255,0.00648363679647,0.0404596552253
1505429380789023306,141,1505429380788882581,0.270267307758,0.0453179180622,-1.01207375526,-0.00577537110075,-0.999136686325,0.00707557983696,0.0405266620219
1505429380799266119,142,1505429380799119561,0.270285010338,0.0453357249498,-1.01124227047,-0.00576158240438,-0.99914085865,0.00699408166111,0.0404413379729
1505429380809525330,143,1505429380809385698,0.270329833031,0.0453702025115,-1.01049923897,-0.00576859852299,-0.999148845673,0.00658795749769,0.0403090268373
1505429380818861823,144,1505429380818665663,0.270316213369,0.0455118827522,-1.00967812538,-0.00582902412862,-0.999148190022,0.00620803702623,0.0403770431876
1505429380829086959,145,1505429380828907778,0.270254790783,0.045560695231,-1.00880849361,-0.00588412303478,-0.99913752079,0.00621245056391,0.040630698204
1505429380839310441,146,1505429380839164833,0.270236194134,0.0456672236323,-1.00800168514,-0.00597987277433,-0.999135553837,0.00603860523552,0.0406921319664
1505429380848466372,147,1505429380848338792,0.270208537579,0.0456054545939,-1.00712442398,-0.00586158642545,-0.999130129814,0.00641859229654,0.0407852567732
1505429380858698532,148,1505429380858574408,0.270190268755,0.0456125847995,-1.00627779961,-0.00562848616391,-0.999132692814,0.00604989519343,0.0408111549914
1505429380868955327,149,1505429380868795529,0.270155549049,0.0457387641072,-1.00535786152,-0.00556191243231,-0.99913007021,0.00566120771691,0.0409403964877
1505429380879141981,150,1505429380879009248,0.270149171352,0.045690022409,-1.00451743603,-0.00534532871097,-0.99912494421,0.00564759178087,0.0410954803228
1505429380889456019,151,1505429380889229926,0.270203858614,0.0456603206694,-1.00368416309,-0.0052812313661,-0.999136686325,0.00572355045006,0.0408091656864
1505429380898611275,152,1505429380898447413,0.270326167345,0.0456330962479,-1.00281071663,-0.00546181481332,-0.999152243137,0.00582073209807,0.0403863452375
1505429380908832754,153,1505429380908711469,0.270394027233,0.0456341318786,-1.00189125538,-0.00557636283338,-0.999159276485,0.00616420339793,0.0401442460716
1505429380919065906,154,1505429380918973947,0.270405143499,0.0457375757396,-1.00090718269,-0.00576037494466,-0.999159574509,0.00613304087892,0.0401166006923
1505429380929365256,155,1505429380929223489,0.270394325256,0.0456710644066,-0.999959111214,-0.00574678834528,-0.999140799046,0.00609383871779,0.0405896566808
1505429380938580062,156,1505429380938437830,0.270331382751,0.0455333217978,-0.998821258545,-0.00574443489313,-0.999117255211,0.00670703873038,0.041071087122
1505429380948852343,157,1505429380948695795,0.270288348198,0.0455851815641,-0.997741341591,-0.00552196195349,-0.999114215374,0.0062212808989,0.041250474751
1505429380959011122,158,1505429380958859028,0.270282447338,0.0457635819912,-0.996653437614,-0.00550881912932,-0.999118745327,0.00508675910532,0.0412972606719
1505429380969233575,159,1505429380969075172,0.270328611135,0.0459307208657,-0.99550229311,-0.00550767965615,-0.999126017094,0.00438346574083,0.0412018895149
1505429380979436872,160,1505429380979287776,0.270350068808,0.0458586886525,-0.994546592236,-0.00547205610201,-0.999124765396,0.00423061288893,0.0412548072636
1505429380988633442,161,1505429380988498787,0.270372211933,0.0459227003157,-0.993510484695,-0.00547546613961,-0.999135434628,0.00444111879915,0.0409711636603
1505429380998943692,162,1505429380998757411,0.270344942808,0.045883692801,-0.992485761642,-0.00540189770982,-0.999130427837,0.00504776043817,0.0410324707627
1505429381009147274,163,1505429381008974281,0.270322859287,0.045896012336,-0.991477429867,-0.00553773250431,-0.999131083488,0.00529567431659,0.040969286114
1505429381019456276,164,1505429381019259050,0.27034124732,0.0459360480309,-0.990416407585,-0.00545566948131,-0.999136984348,0.00480667548254,0.0408958569169
1505429381028772237,165,1505429381028544409,0.270326673985,0.045923769474,-0.989369630814,-0.00540481926873,-0.999131262302,0.00461733201519,0.0410627909005
1505429381038953188,166,1505429381038784541,0.270326524973,0.0459171980619,-0.988168895245,-0.0052656554617,-0.999116957188,0.00435288576409,0.0414552874863
1505429381049231232,167,1505429381049049057,0.270324110985,0.0458862148225,-0.987043499947,-0.00527690304443,-0.999100983143,0.00460237311199,0.0418131798506
1505429381059501652,168,1505429381059325370,0.270330935717,0.0459210388362,-0.985851407051,-0.00532301748171,-0.999098658562,0.0045766509138,0.0418650023639
1505429381068715978,169,1505429381068544283,0.270323812962,0.0458803549409,-0.984562635422,-0.00538578117266,-0.99908977747,0.00484942365438,0.0420363172889
1505429381078863079,170,1505429381078728173,0.270309269428,0.0458259470761,-0.983417928219,-0.00543602416292,-0.999092698097,0.00513926707208,0.0419265069067
1505429381089129011,171,1505429381088946070,0.270321577787,0.045875005424,-0.982263684273,-0.00518052838743,-0.99909555912,0.00513455737382,0.041891682893
1505429381099325312,172,1505429381099171148,0.270329803228,0.0459765195847,-0.981129169464,-0.00522415246814,-0.999095380306,0.00463738758117,0.0419472679496
1505429381108492486,173,1505429381108344993,0.270336806774,0.0461703129113,-0.97996544838,-0.00527425855398,-0.999101698399,0.00408411817625,0.0418497659266
1505429381118688917,174,1505429381118556894,0.270367085934,0.0461966879666,-0.978716015816,-0.00525968708098,-0.999092459679,0.00387879274786,0.0420895554125
1505429381129037419,175,1505429381128851637,0.270411252975,0.0460848212242,-0.977406382561,-0.00525654572994,-0.999087810516,0.00416112411767,0.0421730540693
1505429381139269974,176,1505429381139066425,0.270211160183,0.0462708175182,-0.975935161114,-0.00556271383539,-0.999066412449,0.00325390230864,0.0427177585661
1505429381149386489,177,1505429381149267530,0.27025732398,0.0461516454816,-0.974758088589,-0.00561363622546,-0.999073386192,0.00369554338977,0.0425120964646
1505429381158666232,178,1505429381158492476,0.270316153765,0.0461288541555,-0.973452806473,-0.00573978153989,-0.999079763889,0.00405427906662,0.0423093438148
1505429381168863540,179,1505429381168709956,0.27040117979,0.0460470691323,-0.972232162952,-0.00546237267554,-0.999081075191,0.00430231401697,0.0422923266888
1505429381179067430,180,1505429381178934806,0.27036523819,0.046183899045,-0.970909297466,-0.00535960821435,-0.999066352844,0.00389354676008,0.0426916629076
1505429381189296926,181,1505429381189152095,0.270320862532,0.0464436523616,-0.969622969627,-0.00542514864355,-0.999069750309,0.00274436268955,0.0426933579147
1505429381198515889,182,1505429381198365603,0.270363867283,0.0464405938983,-0.968409836292,-0.00524946860969,-0.999063670635,0.00234294356778,0.0428810864687
1505429381208795234,183,1505429381208627343,0.270401299,0.04653820768,-0.967107772827,-0.00518360268325,-0.999081850052,0.00216267956421,0.0424723848701
1505429381218993217,184,1505429381218827675,0.270475506783,0.0463888756931,-0.96585971117,-0.00505259865895,-0.999098479748,0.00278528127819,0.0420596301556
1505429381229151754,185,1505429381229025492,0.270548433065,0.0462692379951,-0.964527130127,-0.00514334486797,-0.999101221561,0.00343995308504,0.0419342145324
1505429381239400145,186,1505429381239258351,0.270537763834,0.0460523590446,-0.963177859783,-0.00513956788927,-0.999083220959,0.0044281790033,0.0422700792551
1505429381248659893,187,1505429381248498417,0.270546853542,0.046047359705,-0.961891949177,-0.00518991658464,-0.999074459076,0.00426629465073,0.0424856059253
1505429381258945266,188,1505429381258806417,0.270628303289,0.0461324192584,-0.960503518581,-0.00508686108515,-0.999084055424,0.00375381321646,0.0423218794167
1505429381269140049,189,1505429381269006131,0.270686775446,0.0462917424738,-0.959231495857,-0.00502585154027,-0.999096691608,0.00317900627851,0.0420776866376
1505429381279341435,190,1505429381279235458,0.270663917065,0.0465307421982,-0.958002328873,-0.00513476971537,-0.99910223484,0.00239402591251,0.0419838950038
1505429381288558838,191,1505429381288444135,0.270648300648,0.0465629920363,-0.956571996212,-0.0052338396199,-0.999090373516,0.00246978458017,0.0422480776906
1505429381298820041,192,1505429381298639017,0.270698517561,0.0464179590344,-0.955178916454,-0.00511580193415,-0.999090671539,0.00295721367002,0.0422232747078
1505429381309062789,193,1505429381308910374,0.270706266165,0.0462494120002,-0.953689277172,-0.00483306730166,-0.999090611935,0.00379664916545,0.0421920195222
1505429381319272280,194,1505429381319112309,0.270672559738,0.0461650751531,-0.952274978161,-0.00481545319781,-0.999088704586,0.00373264332302,0.0422441996634
1505429381329728197,195,1505429381329355336,0.270714610815,0.0462547019124,-0.950883328915,-0.00482317991555,-0.999090015888,0.00286995945498,0.0422802269459
1505429381338743923,196,1505429381338578752,0.27079179883,0.0462655723095,-0.94944614172,-0.00463787466288,-0.999094545841,0.00249560177326,0.0422170497477
1505429381348933163,197,1505429381348795387,0.27084967494,0.0464082434773,-0.947899162769,-0.00487675191835,-0.999098479748,0.00265970919281,0.0420879796147
1505429381359223649,198,1505429381359058860,0.270869702101,0.0465012639761,-0.946380019188,-0.00505743548274,-0.999092936516,0.00226778397337,0.0422208048403
1505429381369456964,199,1505429381369281903,0.270911067724,0.0464264452457,-0.944975614548,-0.0046590748243,-0.999098539352,0.00242896471173,0.042124863714
1505429381378713098,200,1505429381378535290,0.270920068026,0.0465250574052,-0.943445146084,-0.00462220655754,-0.999093830585,0.00223139091395,0.0422511585057
1505429381388878079,201,1505429381388727937,0.270912766457,0.0464324690402,-0.941994607449,-0.00458716461435,-0.999088764191,0.00256177829579,0.0423549450934
1505429381399063070,202,1505429381398929500,0.270976066589,0.0465398430824,-0.940506994724,-0.00460863485932,-0.999094486237,0.0020114434883,0.0422480143607
1505429381409383239,203,1505429381409182189,0.271018028259,0.0462817437947,-0.938967525959,-0.00460833637044,-0.999093651772,0.00292190117761,0.0422154702246
1505429381418724746,204,1505429381418368338,0.2710968256,0.0462478175759,-0.937327563763,-0.00467731431127,-0.999110460281,0.00315124331973,0.0417906679213
1505429381428801884,205,1505429381428622075,0.271123886108,0.0463609099388,-0.935746252537,-0.00459356792271,-0.999122262001,0.00271479226649,0.0415469743311
1505429381439001807,206,1505429381438833437,0.271132290363,0.0464603677392,-0.934212565422,-0.00448898226023,-0.999118924141,0.00160710909404,0.041697114706
1505429381449191313,207,1505429381449039654,0.271203458309,0.0466288253665,-0.932637691498,-0.00440597860143,-0.999117970467,0.00122009334154,0.0417404174805
1505429381459424287,208,1505429381459230803,0.271306872368,0.0465795360506,-0.930993318558,-0.00428521446884,-0.999135017395,0.00145350082312,0.0413376763463
1505429381468661687,209,1505429381468473555,0.271312624216,0.0466191768646,-0.929403483868,-0.00437881192192,-0.999134898186,0.00142479105853,0.0413307026029
1505429381479056638,210,1505429381478845774,0.271338522434,0.0464310087264,-0.927756667137,-0.00465619564056,-0.999130129814,0.00223761401139,0.0413815975189
1505429381489176307,211,1505429381489038853,0.271316677332,0.0463856123388,-0.926132440567,-0.00448411423713,-0.999129474163,0.00199119490571,0.0414269864559
1505429381499469178,212,1505429381499313472,0.271299242973,0.0465238541365,-0.924368619919,-0.00435152929276,-0.999124288559,0.00151685916353,0.0415859594941
1505429381508723913,213,1505429381508562769,0.271318852901,0.0465328581631,-0.92271310091,-0.00433627935126,-0.999121427536,0.00134933833033,0.0416625738144
1505429381519041837,214,1505429381518838364,0.271407395601,0.0466681048274,-0.921134114265,-0.00425680167973,-0.999135792255,0.000517455046065,0.0413438044488
1505429381529197223,215,1505429381529098901,0.271491706371,0.046773403883,-0.919447243214,-0.00454087601975,-0.999150514603,0.00032384111546,0.0409570448101
1505429381538441438,216,1505429381538301439,0.27150195837,0.0467613823712,-0.917727470398,-0.00438114069402,-0.999146401882,0.000482101138914,0.0410734601319
1505429381548721981,217,1505429381548567315,0.271488040686,0.0466970950365,-0.916031479836,-0.00418603979051,-0.999132037163,0.000508091587108,0.041441462934
1505429381558922836,218,1505429381558840624,0.271547466516,0.0466879345477,-0.914396226406,-0.00414774566889,-0.999144256115,0.000583198736422,0.0411484353244
1505429381569218372,219,1505429381569071422,0.271566063166,0.0467451959848,-0.9126906991,-0.00417722715065,-0.99914419651,0.000584596418776,0.0411469638348
1505429381579422865,220,1505429381579288599,0.271636515856,0.0468329973519,-0.911119043827,-0.00464680651203,-0.999135732651,0.000162857351825,0.0413063131273
1505429381588583549,221,1505429381588483844,0.271670013666,0.0469149649143,-0.909463167191,-0.00476432591677,-0.999145627022,5.92387550569e-06,0.0410530418158
1505429381598785850,222,1505429381598677942,0.271707475185,0.046806242317,-0.907698988914,-0.00440137088299,-0.999136328697,0.000584533961955,0.0413140580058
1505429381609135539,223,1505429381608989473,0.271634846926,0.0468299500644,-0.905998289585,-0.00429381942376,-0.999120235443,0.000382640078897,0.0417152233422
1505429381619297546,224,1505429381619194072,0.271687626839,0.0468755811453,-0.904350161552,-0.00414931355044,-0.999128758907,-0.000155053974595,0.041525464505
1505429381628598253,225,1505429381628396810,0.271731317043,0.0469041764736,-0.90268522501,-0.00393495569006,-0.999145507812,-0.000149134779349,0.0411428287625
1505429381638871352,226,1505429381638696162,0.27178171277,0.046944566071,-0.901059150696,-0.00435805646703,-0.999147415161,-2.29682264035e-05,0.0410545915365
1505429381649158094,227,1505429381649001012,0.271786630154,0.0469616316259,-0.899358987808,-0.00454392004758,-0.999134421349,-0.000150424719322,0.0413494966924
1505429381659393223,228,1505429381659248816,0.272003889084,0.0471716187894,-0.897603034973,-0.00416080700234,-0.999179542065,-0.000498380861245,0.0402827039361
1505429381668633685,229,1505429381668502127,0.271866977215,0.0470460318029,-0.895869493484,-0.00407077604905,-0.999162256718,7.88248435128e-05,0.0407196246088
1505429381678920918,230,1505429381678784812,0.271736711264,0.0468960590661,-0.894219636917,-0.00381721113808,-0.999141454697,0.000539551081602,0.0412494763732
1505429381689170999,231,1505429381689046525,0.271738767624,0.0469854362309,-0.89254039526,-0.00376345519908,-0.999129533768,0.000458254304249,0.0415437854826
1505429381699407665,232,1505429381699272770,0.271737873554,0.0470709577203,-0.890875637531,-0.0038869457785,-0.999123156071,-4.90053316753e-05,0.0416866466403
1505429381708751980,233,1505429381708544665,0.271718680859,0.0470331013203,-0.889222323895,-0.00418028607965,-0.999100327492,0.000237966523855,0.042201269418
1505429381718907335,234,1505429381718756817,0.271767705679,0.0471230819821,-0.887548387051,-0.00433981511742,-0.999108433723,0.000277851446299,0.0419927835464
1505429381729078788,235,1505429381728934680,0.271832674742,0.0469754524529,-0.885777711868,-0.0040190089494,-0.999124705791,0.000683733378537,0.041632335633
1505429381739394706,236,1505429381739177697,0.271878540516,0.0469253212214,-0.883937299252,-0.00394758675247,-0.999125480652,0.00133626512252,0.0416035577655
1505429381748444237,237,1505429381748343541,0.271793633699,0.0470321364701,-0.882126748562,-0.00393477501348,-0.999103069305,0.000634498719592,0.0421566739678
1505429381758799331,238,1505429381758547521,0.271794259548,0.0470536127687,-0.880405068398,-0.00361237162724,-0.999109387398,0.000251704885159,0.042038820684
1505429381769088995,239,1505429381768951135,0.271837741137,0.0468894988298,-0.878475010395,-0.00399398151785,-0.999101161957,0.00109553616494,0.0421886146069
1505429381779307010,240,1505429381779187204,0.271924614906,0.0468591563404,-0.876655578613,-0.00408400036395,-0.999109268188,0.00117529078852,0.0419838912785
1505429381788466372,241,1505429381788340773,0.27194622159,0.0470190830529,-0.874771773815,-0.00419571343809,-0.999113202095,4.16078182752e-05,0.0418969392776
1505429381798697401,242,1505429381798586663,0.27199485898,0.046891476959,-0.872736394405,-0.00413796911016,-0.999117255211,0.000838657375425,0.0417946092784
1505429381808947726,243,1505429381808796442,0.271980583668,0.0470524430275,-0.870832383633,-0.00379975000396,-0.999110519886,-1.25902206491e-05,0.0419977605343
1505429381819160832,244,1505429381819012764,0.27201411128,0.0471410825849,-0.86889487505,-0.00380816916004,-0.999117493629,-0.0005562697188,0.041825696826
1505429381829361218,245,1505429381829241262,0.272079259157,0.0472076758742,-0.866951704025,-0.00380093720742,-0.999122202396,-0.000402641453547,0.0417158976197
1505429381838626074,246,1505429381838464766,0.272128760815,0.0472086928785,-0.864966034889,-0.00416197255254,-0.999131262302,-0.000469951395644,0.0414629280567
1505429381848875006,247,1505429381848716321,0.272185266018,0.0471092537045,-0.862995505333,-0.00426898477599,-0.999131679535,2.48402175203e-05,0.0414452105761
1505429381858991944,248,1505429381858894404,0.272123873234,0.0470145121217,-0.86104041338,-0.00424038106576,-0.999115288258,0.000172443527845,0.0418411009014
1505429381869274611,249,1505429381869128899,0.272191673517,0.0472039654851,-0.859051525593,-0.00411967607215,-0.999138593674,-0.000526320538484,0.0412889122963
1505429381879503023,250,1505429381879351008,0.272299706936,0.0470995754004,-0.856966912746,-0.00386282172985,-0.999145925045,-0.000339651538525,0.0411400161684
1505429381888699683,251,1505429381888556000,0.27230244875,0.04733857885,-0.854892730713,-0.00412063905969,-0.999149024487,-0.00122313364409,0.0410216636956
1505429381899074076,252,1505429381898819220,0.272382169962,0.0473151654005,-0.852927148342,-0.00420683948323,-0.999151706696,-0.00100028677844,0.040953848511
1505429381909231994,253,1505429381909080950,0.272434353828,0.0473815202713,-0.850897073746,-0.00428716372699,-0.999152421951,-0.001579678501,0.0409086234868
1505429381919361076,254,1505429381919270893,0.272420614958,0.0474670082331,-0.848924040794,-0.00419763987884,-0.999150395393,-0.00224853889085,0.040937345475
1505429381928642275,255,1505429381928513394,0.272441446781,0.0472608096898,-0.846893727779,-0.00428526476026,-0.999148011208,-0.00114080437925,0.0410305969417
1505429381938832013,256,1505429381938672313,0.272485822439,0.0474028289318,-0.84493792057,-0.00439257035032,-0.999152183533,-0.00156396941748,0.0409044958651
1505429381949131344,257,1505429381948925729,0.272496879101,0.0472610332072,-0.843037009239,-0.00417545996606,-0.999162793159,-0.00104965281207,0.0406848601997
1505429381959437145,258,1505429381959255212,0.27255064249,0.0472624339163,-0.840990900993,-0.004387779627,-0.999166488647,-0.000889196409844,0.0405745655298
1505429381968601810,259,1505429381968454971,0.272607654333,0.0472910813987,-0.839019417763,-0.00438877893612,-0.999166250229,-0.00137661444023,0.0405682623386
1505429381978789144,260,1505429381978631562,0.272618412971,0.0473583638668,-0.837003827095,-0.00436273170635,-0.999162077904,-0.00155304477084,0.040664896369
1505429381988994251,261,1505429381988851536,0.272668391466,0.047306958586,-0.835032165051,-0.00447831209749,-0.999159514904,-0.00147260446101,0.0407194420695
1505429381999217864,262,1505429381999057523,0.272712320089,0.0473344065249,-0.833085179329,-0.00441853934899,-0.999160289764,-0.00159297790378,0.0407016985118
1505429382009456914,263,1505429382009293653,0.272752314806,0.047266561538,-0.830915689468,-0.00462449993938,-0.99915856123,-0.000733435910661,0.0407463908195
1505429382018669211,264,1505429382018527704,0.272819161415,0.0471421703696,-0.828836739063,-0.00437254551798,-0.999164521694,-0.000908954360057,0.0406252667308
1505429382028931527,265,1505429382028768483,0.272794216871,0.0472547374666,-0.82675164938,-0.00430457852781,-0.999158859253,-0.00129712349735,0.0407594814897
1505429382039232409,266,1505429382039026517,0.272790938616,0.0473787933588,-0.824614465237,-0.00469782250002,-0.999145328999,-0.00177196925506,0.0410284698009
1505429382049405695,267,1505429382049265832,0.27285990119,0.0472666025162,-0.822577834129,-0.00466547580436,-0.999135017395,-0.00159232912119,0.04129223153
1505429382058552278,268,1505429382058438527,0.272849887609,0.0472274497151,-0.820582985878,-0.00482865376398,-0.999129474163,-0.00157353875693,0.0414070002735
1505429382068861517,269,1505429382068688261,0.272795051336,0.0471443757415,-0.818581998348,-0.00493384432048,-0.999104917049,-0.00138228992,0.0419879592955
1505429382079124254,270,1505429382078938901,0.272750556469,0.0471586547792,-0.816486358643,-0.00511932559311,-0.999099075794,-0.000617635145318,0.0421244688332
1505429382089319035,271,1505429382089171291,0.272817313671,0.047133654356,-0.814513444901,-0.00489448709413,-0.999103009701,-0.000507339835167,0.0420594997704
1505429382098577934,272,1505429382098365947,0.272929400206,0.0470369122922,-0.812518715858,-0.00503646256402,-0.99910902977,3.07640657411e-05,0.0419024303555
1505429382108806067,273,1505429382108633947,0.27307626605,0.0469560995698,-0.810565590858,-0.00517825921997,-0.999123036861,0.00066675490234,0.0415425896645
1505429382119060439,274,1505429382118884266,0.273093879223,0.0469618402421,-0.808509469032,-0.00494289584458,-0.999112427235,0.000610552961007,0.0418280661106
1505429382129226226,275,1505429382129109104,0.273137420416,0.0470926612616,-0.806381881237,-0.00514245452359,-0.999106824398,5.98732476647e-05,0.041940677911
1505429382139458581,276,1505429382139345646,0.273192256689,0.0468492284417,-0.804234206676,-0.00486585544422,-0.999109566212,0.000945941952523,0.0418988354504
1505429382148779930,277,1505429382148583847,0.273145407438,0.0467785187066,-0.802031874657,-0.00471305660903,-0.999100983143,0.000469157705083,0.0421278253198
1505429382158905872,278,1505429382158785489,0.273208677769,0.0470063909888,-0.799954414368,-0.00517957704142,-0.999109625816,-0.000270987133263,0.0418691113591
1505429382169142687,279,1505429382169006177,0.273192644119,0.0470477230847,-0.797780871391,-0.00505274394527,-0.999101996422,-0.000516419415362,0.0420634560287
1505429382179331800,280,1505429382179187860,0.273344606161,0.0470578111708,-0.79565513134,-0.00551756145433,-0.999124348164,-7.10051608621e-05,0.0414749644697
1505429382188605581,281,1505429382188403737,0.273482590914,0.0468758232892,-0.793518900871,-0.00507116457447,-0.999131083488,0.000358379300451,0.0413661040366
1505429382198804067,282,1505429382198642131,0.273400187492,0.0467275679111,-0.791240215302,-0.00470401300117,-0.999122142792,0.000721781107131,0.0416210740805
1505429382209118729,283,1505429382208863455,0.273538649082,0.0468520559371,-0.789181530476,-0.00493943179026,-0.999137163162,0.000327312445734,0.0412368029356
1505429382219197065,284,1505429382219051022,0.273606359959,0.046918310225,-0.786974668503,-0.00516727706417,-0.99912661314,-0.000135480731842,0.0414641872048
1505429382229418143,285,1505429382229282635,0.273670583963,0.0468806438148,-0.784808218479,-0.00517795188352,-0.999125301838,0.000192515100935,0.0414956025779
1505429382238672003,286,1505429382238501651,0.273627609015,0.047017570585,-0.782616376877,-0.00546992802992,-0.999117791653,-0.000396329851355,0.0416376702487
1505429382248932433,287,1505429382248778447,0.273625612259,0.0469097644091,-0.780357122421,-0.00533626275137,-0.999115645885,0.000191691025975,0.041706636548
1505429382259110424,288,1505429382258951376,0.273706823587,0.0468256250024,-0.778162539005,-0.00539213418961,-0.99912083149,0.000521490699612,0.0415701195598
1505429382269373242,289,1505429382269210903,0.273702979088,0.0467589832842,-0.775962293148,-0.00520663522184,-0.999117910862,0.000690979068168,0.0416614077985
1505429382278550377,290,1505429382278429116,0.273787438869,0.046652123332,-0.773769080639,-0.00495273061097,-0.99913495779,0.000940462108701,0.0412784479558
1505429382288868546,291,1505429382288708651,0.273849368095,0.0465275868773,-0.771584331989,-0.00487452512607,-0.999126911163,0.00099773297552,0.0414804071188
1505429382299095620,292,1505429382298954880,0.273829817772,0.0468117110431,-0.769443452358,-0.0050803902559,-0.999113619328,-0.00046605503303,0.0417831912637
1505429382309290716,293,1505429382309171894,0.273879349232,0.046801302582,-0.767314910889,-0.00506836734712,-0.999110162258,-0.000196513690753,0.0418707951903
1505429382318536818,294,1505429382318331545,0.273917227983,0.0467129200697,-0.765177428722,-0.00506258616224,-0.999097287655,-0.00021821782866,0.0421775951982
1505429382328816544,295,1505429382328554172,0.273962795734,0.0467791929841,-0.763005197048,-0.0049965637736,-0.999112308025,0.000254722777754,0.0418282113969
1505429382339033391,296,1505429382338802513,0.27405834198,0.0465256981552,-0.760890722275,-0.00507654575631,-0.999124646187,0.00129676715005,0.041502289474
1505429382349360720,297,1505429382348999664,0.274117380381,0.046553760767,-0.758741080761,-0.00482205906883,-0.999138534069,0.00129441369791,0.0411982387304
1505429382358574040,298,1505429382358359307,0.274150878191,0.0465523600578,-0.756609737873,-0.00483697559685,-0.999125659466,0.00115189584903,0.0415120087564
1505429382368717213,299,1505429382368552414,0.274174034595,0.0464770421386,-0.75451952219,-0.00480711134151,-0.999116778374,0.00141690950841,0.0417206659913
1505429382378832962,300,1505429382378731562,0.274190634489,0.0466531515121,-0.752322137356,-0.00496616307646,-0.999116241932,0.000598709157202,0.0417350754142
1505429382389058525,301,1505429382388916271,0.274192988873,0.0466700606048,-0.750177621841,-0.00504508102313,-0.999111652374,0.000711379223503,0.0418311245739
1505429382399296181,302,1505429382399166945,0.274198621511,0.0466056242585,-0.748029172421,-0.00499904900789,-0.999119758606,0.000978517229669,0.0416375175118
1505429382408529615,303,1505429382408346365,0.274228841066,0.0466115064919,-0.745858132839,-0.00496248714626,-0.999125361443,0.000799595844001,0.0415141135454
1505429382418859842,304,1505429382418597685,0.274213820696,0.0465748943388,-0.743577420712,-0.00478263385594,-0.999118924141,0.00123030529357,0.0416782386601
1505429382428995880,305,1505429382428844402,0.274216711521,0.04664831236,-0.741400659084,-0.00468379678205,-0.999125301838,0.00115946307778,0.0415389202535
1505429382439205066,306,1505429382439032438,0.274274408817,0.0466645546257,-0.739217400551,-0.00463461969048,-0.999136924744,0.00124240550213,0.0412600450218
1505429382449543317,307,1505429382449311369,0.274314105511,0.046498939395,-0.736911356449,-0.00488972198218,-0.999137043953,0.00212245876901,0.0411923490465
1505429382458902582,308,1505429382458711762,0.27435362339,0.0464990884066,-0.734653174877,-0.00476207304746,-0.999140918255,0.00189609406516,0.0411234758794
1505429382469042531,309,1505429382468909436,0.27433013916,0.0465149991214,-0.73244702816,-0.00456540565938,-0.999139547348,0.0015165504301,0.0411949791014
1505429382479494140,310,1505429382479340344,0.274428546429,0.0462474487722,-0.729691505432,-0.00403506169096,-0.999123334885,0.00192119088024,0.0416240729392
1505429382488828281,311,1505429382488562722,0.274586439133,0.0462809465826,-0.727388799191,-0.0043420358561,-0.99913752079,0.00217906967737,0.0412378832698
1505429382499017427,312,1505429382498823036,0.274693012238,0.0461986251175,-0.725128173828,-0.0043420237489,-0.999156117439,0.00267531699501,0.0407550781965
1505429382509184431,313,1505429382509074781,0.274724304676,0.0462017469108,-0.722879528999,-0.00409132102504,-0.999164640903,0.00263774720952,0.0405747406185
1505429382519396197,314,1505429382519280539,0.274716824293,0.0461440347135,-0.720580935478,-0.00415618065745,-0.99915677309,0.00334200961515,0.0407107062638
1505429382528624276,315,1505429382528479948,0.274848520756,0.0458981506526,-0.718313753605,-0.00422994745895,-0.999155163765,0.00405144598335,0.0406789556146
1505429382538901870,316,1505429382538726162,0.274825572968,0.0461544245481,-0.716073453426,-0.00449621444568,-0.999155461788,0.00339353946038,0.04070238024
1505429382549071396,317,1505429382548924406,0.27489694953,0.0461852550507,-0.713869035244,-0.00468455534428,-0.999163269997,0.00336360442452,0.0404898822308
1505429382559302173,318,1505429382559212705,0.274868309498,0.0460639186203,-0.711605072021,-0.0045267934911,-0.999175548553,0.00379510386847,0.0401676148176
1505429382568637615,319,1505429382568469145,0.27490696311,0.0459675900638,-0.709390223026,-0.00440819002688,-0.99916779995,0.00412120064721,0.0403389781713
1505429382578849980,320,1505429382578711200,0.274920582771,0.0460325963795,-0.707127153873,-0.00446186028421,-0.999159991741,0.00413956632838,0.0405268482864
1505429382589193841,321,1505429382588912565,0.27494302392,0.0461412109435,-0.704782247543,-0.00461497763172,-0.999157905579,0.00383201055229,0.040588952601
1505429382599244776,322,1505429382599137639,0.27504196763,0.0459928028286,-0.702492177486,-0.00485373008996,-0.999169170856,0.00412082066759,0.0402553118765
1505429382609527893,323,1505429382609420554,0.275016993284,0.046187363565,-0.700143158436,-0.00469822855666,-0.999172925949,0.00331668253057,0.0402545630932
1505429382618824618,324,1505429382618640074,0.275065839291,0.0459902212024,-0.697600185871,-0.00500443112105,-0.999158620834,0.00444061961025,0.0404626987875
1505429382629053827,325,1505429382628905881,0.275154978037,0.0462219491601,-0.69561880827,-0.00534140598029,-0.999176740646,0.00322683295235,0.040085285902
1505429382639256443,326,1505429382639163649,0.275186061859,0.0460962727666,-0.692984998226,-0.00476900488138,-0.999181687832,0.00338657712564,0.0400218181312
1505429382648546606,327,1505429382648355466,0.275173664093,0.0462551042438,-0.690509021282,-0.00466770911589,-0.999185085297,0.00248027849011,0.0400132238865
1505429382658769768,328,1505429382658612409,0.275223314762,0.0462161414325,-0.688077330589,-0.00437235366553,-0.999189019203,0.00252438057214,0.0399468652904
1505429382669081110,329,1505429382668898364,0.275299221277,0.0461327731609,-0.685703039169,-0.0044070770964,-0.999183893204,0.00234076450579,0.040082860738
1505429382679296541,330,1505429382679103105,0.275351673365,0.046135418117,-0.683312118053,-0.00446930807084,-0.999182164669,0.00254195090383,0.0401065759361
1505429382689679130,331,1505429382689313518,0.275462508202,0.0461491569877,-0.680970847607,-0.00468351598829,-0.999184966087,0.00313144712709,0.0399703122675
1505429382698711068,332,1505429382698615186,0.275532960892,0.0460715033114,-0.678702890873,-0.00486952066422,-0.999192357063,0.00316282198764,0.0397617444396
1505429382709090700,333,1505429382708904593,0.275589257479,0.0459225922823,-0.676465809345,-0.00436632754281,-0.999199509621,0.00357857090421,0.0396053418517
1505429382719401863,334,1505429382719172503,0.275625377893,0.0458081439137,-0.674207627773,-0.00411280151457,-0.999196112156,0.00354263256304,0.0397199094296
1505429382728482029,335,1505429382728351046,0.275595545769,0.0457621775568,-0.671939730644,-0.00425905827433,-0.999186813831,0.00379412504844,0.0399145893753
1505429382738757997,336,1505429382738603527,0.275685995817,0.0457246378064,-0.669589400291,-0.00456649670377,-0.999193429947,0.0042870095931,0.0396639406681
1505429382749047731,337,1505429382748863057,0.275742888451,0.0457801520824,-0.667307376862,-0.00463820248842,-0.999185562134,0.00414452329278,0.039868272841
1505429382759167480,338,1505429382759066223,0.275898009539,0.0458544790745,-0.665009260178,-0.00475312024355,-0.999207079411,0.00396415637806,0.0393313579261
1505429382769437334,339,1505429382769324356,0.27594807744,0.0459121018648,-0.662708878517,-0.0045754108578,-0.999225735664,0.00334894517437,0.0389339327812
1505429382778722800,340,1505429382778542686,0.276037156582,0.0459505878389,-0.660411894321,-0.00472588092089,-0.999246835709,0.00299884495325,0.038398809731
1505429382789040924,341,1505429382788825941,0.276080608368,0.045941401273,-0.658014893532,-0.00469125295058,-0.999243199825,0.0027126732748,0.0385186374187
1505429382799149916,342,1505429382798996028,0.276152461767,0.0456757172942,-0.655636668205,-0.00507867150009,-0.999236822128,0.00300915818661,0.0386144146323
1505429382809406176,343,1505429382809251617,0.276141554117,0.0458373725414,-0.653061807156,-0.00507594039664,-0.999235212803,0.00280430959538,0.0386708267033
1505429382818635341,344,1505429382818505868,0.276159346104,0.0459777824581,-0.650544524193,-0.00519554689527,-0.99923145771,0.0018139044987,0.038810774684
1505429382829023475,345,1505429382828855291,0.276191055775,0.0460077486932,-0.648013591766,-0.00537424022332,-0.999235987663,0.00104760716204,0.038699220866
1505429382839232123,346,1505429382839084551,0.276175826788,0.0461053140461,-0.645395040512,-0.00486931484193,-0.99922990799,-0.00069930072641,0.038928039372
1505429382849440567,347,1505429382849324665,0.276112049818,0.0462280660868,-0.642645061016,-0.0047997799702,-0.999218702316,-0.00239240680821,0.0391547977924
1505429382858677133,348,1505429382858531485,0.276157855988,0.046199966222,-0.639817357063,-0.00428852625191,-0.999227583408,-0.00313612655737,0.0389357917011
1505429382869139435,349,1505429382868912158,0.276133358479,0.0462380610406,-0.636948168278,-0.00467749778181,-0.999203324318,-0.00477657420561,0.0393456444144
1505429382879327554,350,1505429382879158214,0.276133328676,0.0465210340917,-0.634179294109,-0.00481467694044,-0.999196767807,-0.00670015439391,0.0392149686813
1505429382888478518,351,1505429382888334815,0.276139914989,0.0465661473572,-0.631547689438,-0.00455379346386,-0.999190092087,-0.00684077944607,0.0393902137876
1505429382898752660,352,1505429382898591629,0.276179850101,0.0466343276203,-0.62930983305,-0.00453485222533,-0.999202787876,-0.00589055102319,0.0392240509391
1505429382909006999,353,1505429382908861905,0.276237249374,0.0466544367373,-0.627168655396,-0.00441788742319,-0.999209105968,-0.00360723282211,0.0393525511026
1505429382919235420,354,1505429382919115634,0.276289373636,0.0465016923845,-0.625171542168,-0.00441992236301,-0.999206900597,-0.000155712084961,0.0395728312433
1505429382929557544,355,1505429382929414558,0.276394575834,0.0462205410004,-0.623242557049,-0.00466371979564,-0.999212503433,0.00250697485171,0.0393221452832
1505429382938807040,356,1505429382938631555,0.276373267174,0.0458116158843,-0.621260762215,-0.00465514091775,-0.999194264412,0.00492835557088,0.0395573861897
1505429382949137524,357,1505429382948896173,0.27636474371,0.0454252660275,-0.61927229166,-0.00451205624267,-0.999191224575,0.00651661073789,0.0394210740924
1505429382959262457,358,1505429382959148575,0.276403605938,0.0452971607447,-0.617104172707,-0.00467999326065,-0.999193131924,0.00641334615648,0.0393712744117
1505429382968528392,359,1505429382968386248,0.276403218508,0.0452493131161,-0.61475020647,-0.0048853578046,-0.999186038971,0.00598106486723,0.0395924411714
1505429382978713379,360,1505429382978569248,0.2764570117,0.045324832201,-0.612181663513,-0.00500037241727,-0.999181389809,0.00569545570761,0.0397380068898
1505429382988919955,361,1505429382988773968,0.276446938515,0.0455463156104,-0.609643518925,-0.00468204682693,-0.99917781353,0.00416154135019,0.0400554724038
1505429382999273158,362,1505429382998963286,0.276451736689,0.0456809960306,-0.60697221756,-0.00453520799056,-0.999182879925,0.00336429290473,0.0400222428143
1505429383009283439,363,1505429383009175674,0.276515215635,0.0458697043359,-0.604378044605,-0.00446439255029,-0.99918615818,0.00229220697656,0.0400225222111
1505429383018542025,364,1505429383018350042,0.276514738798,0.0460505411029,-0.601719856262,-0.00443428521976,-0.999193429947,0.00164352671709,0.0398750975728
1505429383028775118,365,1505429383028633531,0.276544749737,0.0458699092269,-0.599246740341,-0.00457223691046,-0.999206066132,0.002187022008,0.0395146720111
1505429383039012863,366,1505429383038853561,0.276654601097,0.0458535850048,-0.59671664238,-0.00449339626357,-0.999218165874,0.00224321126007,0.0392150692642
1505429383049323091,367,1505429383049083831,0.276716023684,0.0456485636532,-0.594312608242,-0.00464640837163,-0.999220848083,0.00326775526628,0.0390552803874
1505429383059460675,368,1505429383059311809,0.276846677065,0.0456698164344,-0.591963768005,-0.00450550438836,-0.999231278896,0.002796998946,0.0388428680599
1505429383068678426,369,1505429383068549629,0.276874899864,0.0455604493618,-0.589634716511,-0.00481051392853,-0.999230861664,0.00351854041219,0.0387566462159
1505429383078929319,370,1505429383078769381,0.276894569397,0.045437630266,-0.587398171425,-0.00469771912321,-0.999222755432,0.00408025272191,0.0389246605337
1505429383089195786,371,1505429383089050923,0.276871085167,0.0455804280937,-0.584965825081,-0.0047968942672,-0.999222040176,0.00449976418167,0.0388843901455
1505429383098504753,372,1505429383098327691,0.276921898127,0.045557949692,-0.582529485226,-0.00533720990643,-0.999207794666,0.0047958092764,0.0391434915364
1505429383108721027,373,1505429383108546063,0.27691757679,0.0456154718995,-0.580132842064,-0.00530832866207,-0.999196827412,0.00446524238214,0.0394651517272
1505429383118918566,374,1505429383118771671,0.276844233274,0.0456575527787,-0.577756285667,-0.00504507916048,-0.999186813831,0.00409834831953,0.039790943265
1505429383129196264,375,1505429383129043016,0.276812881231,0.0457204803824,-0.575202584267,-0.00504390709102,-0.999184370041,0.00354809267446,0.0399079807103
1505429383139516856,376,1505429383139267982,0.2768471241,0.0457299686968,-0.572749733925,-0.00514101330191,-0.99918615818,0.0034128150437,0.0398604869843
1505429383148701429,377,1505429383148521490,0.27693721652,0.045763682574,-0.570235013962,-0.0051278071478,-0.999191820621,0.00340322568081,0.039721224457
1505429383158969428,378,1505429383158764230,0.276988387108,0.0458073765039,-0.567772686481,-0.00558229116723,-0.99920386076,0.00325904111378,0.0393691584468
1505429383169237148,379,1505429383169072388,0.277094990015,0.0459321886301,-0.565241754055,-0.00516592245549,-0.999207258224,0.00251124077477,0.0393927581608
1505429383179477301,380,1505429383179315609,0.277139902115,0.0459598377347,-0.562836170197,-0.00504174968228,-0.999206125736,0.00249240966514,0.0394388586283
