%time,field.linear.x,field.linear.y,field.linear.z,field.angular.x,field.angular.y,field.angular.z
1505429379370210835,0.0,0.0,-0.421531736851,-2000.0,0.0,-0.0997371729783
1505429379376235187,0.0,0.0,-0.421531736851,-2000.0,0.0,-0.0997753558487
1505429379379566945,0.0,0.0,-0.421530812979,-2000.0,0.0,-0.0997753558487
1505429379384530116,0.0,0.0,-0.421530812979,-2000.0,0.0,-0.0997753558487
1505429379390415566,0.0,0.0,-0.421525239944,-2000.0,0.0,-0.0997753558487
1505429379401300114,0.0,0.0,-0.421533435583,-2000.0,0.0,-0.0997753558487
1505429379401417609,0.0,0.0,-0.421533435583,-2000.0,0.0,-0.0997753558487
1505429379405859593,0.0,0.0,-0.421533435583,-2000.0,0.0,-0.0997753558487
1505429379411899928,0.0,0.0,-0.42154031992,-2000.0,0.0,-0.0997753558487
1505429379417811606,0.0,0.0,-0.42154031992,-2000.0,0.0,-0.0997753558487
1505429379419475725,0.0,0.0,-0.421533226967,-2000.0,0.0,-0.0997753558487
1505429379424554081,0.0,0.0,-0.421533226967,-2000.0,0.0,-0.0997649133066
1505429379433679242,0.0,0.0,-0.421534568071,-2000.0,0.0,-0.0997649133066
1505429379434791656,0.0,0.0,-0.421534568071,-2000.0,0.0,-0.0997649133066
1505429379439513267,0.0,0.0,-0.421534568071,-2000.0,0.0,-0.0997649133066
1505429379444893629,0.0,0.0,-0.421534568071,-2000.0,0.0,-0.0997649133066
1505429379450824132,0.0,0.0,-0.421531587839,-2000.0,0.0,-0.0997649133066
1505429379462603341,0.0,0.0,-0.421535402536,-2000.0,0.0,-0.0997649133066
1505429379467819453,0.0,0.0,-0.421535402536,-2000.0,0.0,-0.0997649133066
1505429379469777495,0.0,0.0,-0.421534657478,-2000.0,0.0,-0.0997649133066
1505429379475193701,0.0,0.0,-0.421534657478,-2000.0,0.0,-0.0997648175437
1505429379481339207,0.0,0.0,-0.421534657478,-2000.0,0.0,-0.0997648175437
1505429379484979449,0.0,0.0,-0.421534657478,-2000.0,0.0,-0.0997648175437
1505429379489648533,0.0,0.0,-0.421536237001,-2000.0,0.0,-0.0997648175437
1505429379494987353,0.0,0.0,-0.421536237001,-2000.0,0.0,-0.0997648175437
1505429379500227147,0.0,0.0,-0.421536237001,-2000.0,0.0,-0.0997648175437
1505429379505050625,0.0,0.0,-0.421536237001,-2000.0,0.0,-0.0997648175437
1505429379511855161,0.0,0.0,-0.421534717083,-2000.0,0.0,-0.0997648175437
1505429379518478812,0.0,0.0,-0.421534717083,-2000.0,0.0,-0.0997648175437
1505429379519950771,0.0,0.0,-0.421535760164,-2000.0,0.0,-0.0997648175437
1505429379524974811,0.0,0.0,-0.421535760164,-2000.0,0.0,-0.0997479504992
1505429379533650400,0.0,0.0,-0.421539276838,-2000.0,0.0,-0.0997479504992
1505429379534943170,0.0,0.0,-0.421539276838,-2000.0,0.0,-0.0997479504992
1505429379542154910,0.0,0.0,-0.421529054642,-2000.0,0.0,-0.0997479504992
1505429379548929718,0.0,0.0,-0.421533226967,-2000.0,0.0,-0.0997479504992
1505429379550850826,0.0,0.0,-0.421533226967,-2000.0,0.0,-0.0997479504992
1505429379555284786,0.0,0.0,-0.421533226967,-2000.0,0.0,-0.0997479504992
1505429379560736132,0.0,0.0,-0.421533107758,-2000.0,0.0,-0.0997479504992
1505429379567767612,0.0,0.0,-0.421533107758,-2000.0,0.0,-0.0997479504992
1505429379569996746,0.0,0.0,-0.421531230211,-2000.0,0.0,-0.0997479504992
1505429379575549053,0.0,0.0,-0.421531230211,-2000.0,0.0,-0.0997384483564
1505429379580939473,0.0,0.0,-0.421536982059,-2000.0,0.0,-0.0997384483564
1505429379585430705,0.0,0.0,-0.421536982059,-2000.0,0.0,-0.0997384483564
1505429379590249468,0.0,0.0,-0.421536982059,-2000.0,0.0,-0.0997384483564
1505429379602002084,0.0,0.0,-0.421534985304,-2000.0,0.0,-0.0997384483564
1505429379604160471,0.0,0.0,-0.421534985304,-2000.0,0.0,-0.0997384483564
1505429379612406139,0.0,0.0,-0.42152813077,-2000.0,0.0,-0.0997384483564
1505429379612410627,0.0,0.0,-0.42152813077,-2000.0,0.0,-0.0997384483564
1505429379615429552,0.0,0.0,-0.42152813077,-2000.0,0.0,-0.0997384483564
1505429379620434200,0.0,0.0,-0.421533346176,-2000.0,0.0,-0.0997384483564
1505429379634095792,0.0,0.0,-0.421542286873,-2000.0,0.0,-0.0997565344095
1505429379635514000,0.0,0.0,-0.421542286873,-2000.0,0.0,-0.0997565344095
1505429379643743951,0.0,0.0,-0.421532005072,-2000.0,0.0,-0.0997565344095
1505429379646875919,0.0,0.0,-0.421532005072,-2000.0,0.0,-0.0997565344095
1505429379653671347,0.0,0.0,-0.421532005072,-2000.0,0.0,-0.0997565344095
1505429379655746231,0.0,0.0,-0.421532005072,-2000.0,0.0,-0.0997565344095
1505429379661040027,0.0,0.0,-0.421527385712,-2000.0,0.0,-0.0997565344095
1505429379667598596,0.0,0.0,-0.421527385712,-2000.0,0.0,-0.0997565344095
1505429379671260202,0.0,0.0,-0.421532154083,-2000.0,0.0,-0.0997711392756
1505429379676012711,0.0,0.0,-0.421532154083,-2000.0,0.0,-0.0997711392756
1505429379680688825,0.0,0.0,-0.42154237628,-2000.0,0.0,-0.0997711392756
1505429379685921082,0.0,0.0,-0.42154237628,-2000.0,0.0,-0.0997711392756
1505429379690855960,0.0,0.0,-0.421535849571,-2000.0,0.0,-0.0997711392756
1505429379700039562,0.0,0.0,-0.421536892653,-2000.0,0.0,-0.0997711392756
1505429379700764326,0.0,0.0,-0.421536892653,-2000.0,0.0,-0.0997711392756
1505429379709350151,0.0,0.0,-0.421536892653,-2000.0,0.0,-0.0997711392756
1505429379714998498,0.0,0.0,-0.421535968781,-2000.0,0.0,-0.0997711392756
1505429379716492258,0.0,0.0,-0.421535968781,-2000.0,0.0,-0.0997711392756
1505429379721297460,0.0,0.0,-0.421524643898,-2000.0,0.0,-0.0997542151239
1505429379726009870,0.0,0.0,-0.421524643898,-2000.0,0.0,-0.0997542151239
1505429379737085057,0.0,0.0,-0.421532094479,-2000.0,0.0,-0.0997542151239
1505429379740580118,0.0,0.0,-0.421540349722,-2000.0,0.0,-0.0997542151239
1505429379745846644,0.0,0.0,-0.421540349722,-2000.0,0.0,-0.0997542151239
1505429379746104272,0.0,0.0,-0.421540349722,-2000.0,0.0,-0.0997542151239
1505429379751051386,0.0,0.0,-0.421529710293,-2000.0,0.0,-0.0997542151239
1505429379756136444,0.0,0.0,-0.421529710293,-2000.0,0.0,-0.0997542151239
1505429379768191898,0.0,0.0,-0.421533435583,-2000.0,0.0,-0.0997542151239
1505429379770121700,0.0,0.0,-0.421533435583,-2000.0,0.0,-0.0997542151239
1505429379775110977,0.0,0.0,-0.421533435583,-2000.0,0.0,-0.0997485391207
1505429379776365772,0.0,0.0,-0.421533435583,-2000.0,0.0,-0.0997485391207
1505429379781192353,0.0,0.0,-0.421523928642,-2000.0,0.0,-0.0997485391207
1505429379786299602,0.0,0.0,-0.421523928642,-2000.0,0.0,-0.0997485391207
1505429379791274332,0.0,0.0,-0.421530842781,-2000.0,0.0,-0.0997485391207
1505429379800885793,0.0,0.0,-0.42153275013,-2000.0,0.0,-0.0997485391207
1505429379810555527,0.0,0.0,-0.421535640955,-2000.0,0.0,-0.0997485391207
1505429379812880159,0.0,0.0,-0.421535640955,-2000.0,0.0,-0.0997485391207
1505429379813021393,0.0,0.0,-0.421535640955,-2000.0,0.0,-0.0997485391207
1505429379816487745,0.0,0.0,-0.421535640955,-2000.0,0.0,-0.0997485391207
1505429379822317618,0.0,0.0,-0.421528369188,-2000.0,0.0,-0.0997369075647
1505429379826582529,0.0,0.0,-0.421528369188,-2000.0,0.0,-0.0997369075647
1505429379833547238,0.0,0.0,-0.42152941227,-2000.0,0.0,-0.0997369075647
1505429379836919900,0.0,0.0,-0.42152941227,-2000.0,0.0,-0.0997369075647
1505429379842961594,0.0,0.0,-0.421527504921,-2000.0,0.0,-0.0997369075647
1505429379850255908,0.0,0.0,-0.421537220478,-2000.0,0.0,-0.0997369075647
1505429379851404875,0.0,0.0,-0.421537220478,-2000.0,0.0,-0.0997369075647
1505429379856621684,0.0,0.0,-0.421537220478,-2000.0,0.0,-0.0997369075647
1505429379861383736,0.0,0.0,-0.421542584896,-2000.0,0.0,-0.0997369075647
1505429379870122886,0.0,0.0,-0.421536386013,-2000.0,0.0,-0.0997369075647
1505429379872513246,0.0,0.0,-0.421536386013,-2000.0,0.0,-0.099748841941
1505429379876765396,0.0,0.0,-0.421536386013,-2000.0,0.0,-0.099748841941
1505429379882128738,0.0,0.0,-0.421525210142,-2000.0,0.0,-0.099748841941
1505429379888043666,0.0,0.0,-0.421525210142,-2000.0,0.0,-0.099748841941
1505429379892781300,0.0,0.0,-0.421535521746,-2000.0,0.0,-0.099748841941
1505429379900020624,0.0,0.0,-0.421539217234,-2000.0,0.0,-0.099748841941
1505429379905626359,0.0,0.0,-0.421539217234,-2000.0,0.0,-0.099748841941
1505429379913247216,0.0,0.0,-0.421533823013,-2000.0,0.0,-0.099748841941
1505429379914279851,0.0,0.0,-0.421533823013,-2000.0,0.0,-0.099748841941
1505429379918769851,0.0,0.0,-0.421533823013,-2000.0,0.0,-0.099748841941
1505429379921897985,0.0,0.0,-0.421530812979,-2000.0,0.0,-0.0997490337263
1505429379927010323,0.0,0.0,-0.421530812979,-2000.0,0.0,-0.0997490337263
1505429379934907823,0.0,0.0,-0.4215272367,-2000.0,0.0,-0.0997490337263
1505429379941269931,0.0,0.0,-0.421524196863,-2000.0,0.0,-0.0997490337263
1505429379942437381,0.0,0.0,-0.421524196863,-2000.0,0.0,-0.0997490337263
1505429379947029083,0.0,0.0,-0.421524196863,-2000.0,0.0,-0.0997490337263
1505429379951852148,0.0,0.0,-0.421523302794,-2000.0,0.0,-0.0997490337263
1505429379956917741,0.0,0.0,-0.421523302794,-2000.0,0.0,-0.0997490337263
1505429379962133317,0.0,0.0,-0.421533823013,-2000.0,0.0,-0.0997490337263
1505429379971150693,0.0,0.0,-0.421535909176,-2000.0,0.0,-0.099759937375
1505429379971931688,0.0,0.0,-0.421535909176,-2000.0,0.0,-0.099759937375
1505429379977186923,0.0,0.0,-0.421535909176,-2000.0,0.0,-0.099759937375
1505429379982490896,0.0,0.0,-0.421531617641,-2000.0,0.0,-0.099759937375
1505429379987250653,0.0,0.0,-0.421531617641,-2000.0,0.0,-0.099759937375
1505429379993213567,0.0,0.0,-0.421529173851,-2000.0,0.0,-0.099759937375
1505429380005532290,0.0,0.0,-0.421534538269,-2000.0,0.0,-0.099759937375
1505429380005535289,0.0,0.0,-0.421534538269,-2000.0,0.0,-0.099759937375
1505429380007528218,0.0,0.0,-0.421534538269,-2000.0,0.0,-0.099759937375
1505429380012118657,0.0,0.0,-0.421541541815,-2000.0,0.0,-0.099759937375
1505429380018532578,0.0,0.0,-0.421541541815,-2000.0,0.0,-0.099759937375
1505429380023655356,0.0,0.0,-0.421540260315,-2000.0,0.0,-0.0997417517011
1505429380037446184,0.0,0.0,-0.421534627676,-2000.0,0.0,-0.0997417517011
1505429380042638259,0.0,0.0,-0.421534627676,-2000.0,0.0,-0.0997417517011
1505429380047389638,0.0,0.0,-0.421534627676,-2000.0,0.0,-0.0997417517011
1505429380052273175,0.0,0.0,-0.42153775692,-2000.0,0.0,-0.0997417517011
1505429380057236531,0.0,0.0,-0.42153775692,-2000.0,0.0,-0.0997417517011
1505429380067666710,0.0,0.0,-0.421530246735,-2000.0,0.0,-0.0997417517011
1505429380071245315,0.0,0.0,-0.421537041664,-2000.0,0.0,-0.0997662183692
1505429380072860968,0.0,0.0,-0.421537041664,-2000.0,0.0,-0.0997662183692
1505429380077716473,0.0,0.0,-0.421537041664,-2000.0,0.0,-0.0997662183692
1505429380084239741,0.0,0.0,-0.421528816223,-2000.0,0.0,-0.0997662183692
1505429380092365195,0.0,0.0,-0.421530336142,-2000.0,0.0,-0.0997662183692
1505429380093441144,0.0,0.0,-0.421530336142,-2000.0,0.0,-0.0997662183692
1505429380100235449,0.0,0.0,-0.421534836292,-2000.0,0.0,-0.0997662183692
1505429380102790764,0.0,0.0,-0.421534836292,-2000.0,0.0,-0.0997662183692
1505429380107734076,0.0,0.0,-0.421534836292,-2000.0,0.0,-0.0997662183692
1505429380112881082,0.0,0.0,-0.421523243189,-2000.0,0.0,-0.0997662183692
1505429380118015936,0.0,0.0,-0.421523243189,-2000.0,0.0,-0.0997662183692
1505429380122850904,0.0,0.0,-0.421540617943,-2000.0,0.0,-0.0997483470385
1505429380135148899,0.0,0.0,-0.421546429396,-2000.0,0.0,-0.0997483470385
1505429380140611172,0.0,0.0,-0.42153313756,-2000.0,0.0,-0.0997483470385
1505429380141401623,0.0,0.0,-0.42153313756,-2000.0,0.0,-0.0997483470385
1505429380143966405,0.0,0.0,-0.42153313756,-2000.0,0.0,-0.0997483470385
1505429380147957843,0.0,0.0,-0.42153313756,-2000.0,0.0,-0.0997483470385
1505429380152989149,0.0,0.0,-0.421528697014,-2000.0,0.0,-0.0997483470385
1505429380158966112,0.0,0.0,-0.421528697014,-2000.0,0.0,-0.0997483470385
1505429380167497094,0.0,0.0,-0.421532899141,-2000.0,0.0,-0.0997483470385
1505429380168220622,0.0,0.0,-0.421532899141,-2000.0,0.0,-0.0997483470385
1505429380173060234,0.0,0.0,-0.421534508467,-2000.0,0.0,-0.0997737677561
1505429380177992011,0.0,0.0,-0.421534508467,-2000.0,0.0,-0.0997737677561
1505429380182953891,0.0,0.0,-0.421534329653,-2000.0,0.0,-0.0997737677561
1505429380189286109,0.0,0.0,-0.42153391242,-2000.0,0.0,-0.0997737677561
1505429380202822560,0.0,0.0,-0.421532571316,-2000.0,0.0,-0.0997737677561
1505429380202944083,0.0,0.0,-0.421532571316,-2000.0,0.0,-0.0997737677561
1505429380205076770,0.0,0.0,-0.421532571316,-2000.0,0.0,-0.0997737677561
1505429380211731509,0.0,0.0,-0.421521246433,-2000.0,0.0,-0.0997737677561
1505429380214832075,0.0,0.0,-0.421521246433,-2000.0,0.0,-0.0997737677561
1505429380218215939,0.0,0.0,-0.421521246433,-2000.0,0.0,-0.0997737677561
1505429380223413783,0.0,0.0,-0.421528100967,-2000.0,0.0,-0.0997754467574
1505429380231066504,0.0,0.0,-0.421528369188,-2000.0,0.0,-0.0997754467574
1505429380234345679,0.0,0.0,-0.421528369188,-2000.0,0.0,-0.0997754467574
1505429380243991360,0.0,0.0,-0.421534895897,-2000.0,0.0,-0.0997754467574
1505429380248379789,0.0,0.0,-0.421534895897,-2000.0,0.0,-0.0997754467574
1505429380253121337,0.0,0.0,-0.42153853178,-2000.0,0.0,-0.0997754467574
1505429380258665677,0.0,0.0,-0.42153853178,-2000.0,0.0,-0.0997754467574
1505429380267622286,0.0,0.0,-0.421534478664,-2000.0,0.0,-0.0997754467574
1505429380269705651,0.0,0.0,-0.421535789967,-2000.0,0.0,-0.0997754467574
1505429380276963813,0.0,0.0,-0.421535789967,-2000.0,0.0,-0.0997027841483
1505429380278789169,0.0,0.0,-0.421535789967,-2000.0,0.0,-0.0997027841483
1505429380283658830,0.0,0.0,-0.421538442373,-2000.0,0.0,-0.0997027841483
1505429380292027487,0.0,0.0,-0.421527862549,-2000.0,0.0,-0.0997027841483
1505429380301621055,0.0,0.0,-0.4215259552,-2000.0,0.0,-0.0997027841483
1505429380308172035,0.0,0.0,-0.4215259552,-2000.0,0.0,-0.0997027841483
1505429380308395920,0.0,0.0,-0.4215259552,-2000.0,0.0,-0.0997027841483
1505429380309031176,0.0,0.0,-0.421535462141,-2000.0,0.0,-0.0997027841483
1505429380313764714,0.0,0.0,-0.421535462141,-2000.0,0.0,-0.0997027841483
1505429380318568381,0.0,0.0,-0.421535462141,-2000.0,0.0,-0.0997027841483
1505429380325343178,0.0,0.0,-0.421530723572,-2000.0,0.0,-0.0997613784217
1505429380336017679,0.0,0.0,-0.421525657177,-2000.0,0.0,-0.0997613784217
1505429380336790760,0.0,0.0,-0.421525657177,-2000.0,0.0,-0.0997613784217
1505429380339347889,0.0,0.0,-0.421530395746,-2000.0,0.0,-0.0997613784217
1505429380343903855,0.0,0.0,-0.421530395746,-2000.0,0.0,-0.0997613784217
1505429380348853314,0.0,0.0,-0.421530395746,-2000.0,0.0,-0.0997613784217
1505429380356072397,0.0,0.0,-0.4215297997,-2000.0,0.0,-0.0997613784217
1505429380359158945,0.0,0.0,-0.4215297997,-2000.0,0.0,-0.0997613784217
1505429380367840377,0.0,0.0,-0.421540468931,-2000.0,0.0,-0.0997613784217
1505429380368869557,0.0,0.0,-0.421540468931,-2000.0,0.0,-0.0997613784217
1505429380373853906,0.0,0.0,-0.421526074409,-2000.0,0.0,-0.0997340004254
1505429380379364685,0.0,0.0,-0.421534061432,-2000.0,0.0,-0.0997340004254
1505429380383910937,0.0,0.0,-0.421534061432,-2000.0,0.0,-0.0997340004254
1505429380390250348,0.0,0.0,-0.421537876129,-2000.0,0.0,-0.0997340004254
1505429380401265869,0.0,0.0,-0.421528339386,-2000.0,0.0,-0.0997340004254
1505429380411090438,0.0,0.0,-0.421525210142,-2000.0,0.0,-0.0997340004254
1505429380414267711,0.0,0.0,-0.421525210142,-2000.0,0.0,-0.0997340004254
1505429380420690514,0.0,0.0,-0.421530932188,-2000.0,0.0,-0.0997340004254
1505429380424553530,0.0,0.0,-0.421530932188,-2000.0,0.0,-0.0997338752529
1505429380434510129,0.0,0.0,-0.421523690224,-2000.0,0.0,-0.0997338752529
1505429380441266498,0.0,0.0,-0.42153441906,-2000.0,0.0,-0.0997338752529
1505429380442205375,0.0,0.0,-0.42153441906,-2000.0,0.0,-0.0997338752529
1505429380444186556,0.0,0.0,-0.42153441906,-2000.0,0.0,-0.0997338752529
1505429380449124143,0.0,0.0,-0.421526491642,-2000.0,0.0,-0.0997338752529
1505429380454102864,0.0,0.0,-0.421526491642,-2000.0,0.0,-0.0997338752529
1505429380461987631,0.0,0.0,-0.421538412571,-2000.0,0.0,-0.0997338752529
1505429380467315646,0.0,0.0,-0.421538412571,-2000.0,0.0,-0.0997338752529
1505429380469696916,0.0,0.0,-0.421536833048,-2000.0,0.0,-0.0997338752529
1505429380475678394,0.0,0.0,-0.421536833048,-2000.0,0.0,-0.0997550973455
1505429380485669956,0.0,0.0,-0.42153096199,-2000.0,0.0,-0.0997550973455
1505429380516363798,0.0,0.0,-0.421533584595,-2000.0,0.0,-0.0997550973455
1505429380524167079,0.0,0.0,-0.421544343233,-2000.0,0.0,-0.0997392664368
1505429380524839584,0.0,0.0,-0.421544343233,-2000.0,0.0,-0.0997392664368
1505429380533159378,0.0,0.0,-0.421533048153,-2000.0,0.0,-0.0997392664368
1505429380534735751,0.0,0.0,-0.421533048153,-2000.0,0.0,-0.0997392664368
1505429380539659570,0.0,0.0,-0.421527713537,-2000.0,0.0,-0.0997392664368
1505429380544867233,0.0,0.0,-0.421527713537,-2000.0,0.0,-0.0997392664368
1505429380551576131,0.0,0.0,-0.421527177095,-2000.0,0.0,-0.0997392664368
1505429380554524873,0.0,0.0,-0.421527177095,-2000.0,0.0,-0.0997392664368
1505429380559876810,0.0,0.0,-0.421530783176,-2000.0,0.0,-0.0997392664368
1505429380567478802,0.0,0.0,-0.421530783176,-2000.0,0.0,-0.0997392664368
1505429380569907562,0.0,0.0,-0.421532958746,-2000.0,0.0,-0.0997392664368
1505429380574990218,0.0,0.0,-0.421532958746,-2000.0,0.0,-0.0997309844202
1505429380582696831,0.0,0.0,-0.421527773142,-2000.0,0.0,-0.0997309844202
1505429380585090666,0.0,0.0,-0.421527773142,-2000.0,0.0,-0.0997309844202
1505429380591146836,0.0,0.0,-0.421535402536,-2000.0,0.0,-0.0997309844202
1505429380604638341,0.0,0.0,-0.421534061432,-2000.0,0.0,-0.0997309844202
1505429380606744018,0.0,0.0,-0.421534061432,-2000.0,0.0,-0.0997309844202
1505429380606749243,0.0,0.0,-0.421534061432,-2000.0,0.0,-0.0997309844202
1505429380610413628,0.0,0.0,-0.421537220478,-2000.0,0.0,-0.0997309844202
1505429380618168055,0.0,0.0,-0.421537220478,-2000.0,0.0,-0.0997309844202
1505429380621637915,0.0,0.0,-0.421539276838,-2000.0,0.0,-0.0997692640515
1505429380634317770,0.0,0.0,-0.421542584896,-2000.0,0.0,-0.0997692640515
1505429380634350021,0.0,0.0,-0.421542584896,-2000.0,0.0,-0.0997692640515
1505429380635004516,0.0,0.0,-0.421542584896,-2000.0,0.0,-0.0997692640515
1505429380640767012,0.0,0.0,-0.421541929245,-2000.0,0.0,-0.0997692640515
1505429380646678021,0.0,0.0,-0.421541929245,-2000.0,0.0,-0.0997692640515
1505429380650239251,0.0,0.0,-0.421538829803,-2000.0,0.0,-0.0997692640515
1505429380654561972,0.0,0.0,-0.421538829803,-2000.0,0.0,-0.0997692640515
1505429380661599255,0.0,0.0,-0.421532332897,-2000.0,0.0,-0.0997692640515
1505429380667106754,0.0,0.0,-0.421532332897,-2000.0,0.0,-0.0997692640515
1505429380670229560,0.0,0.0,-0.421527504921,-2000.0,0.0,-0.0997692640515
1505429380675078992,0.0,0.0,-0.421527504921,-2000.0,0.0,-0.0997647570156
1505429380682040230,0.0,0.0,-0.421538829803,-2000.0,0.0,-0.0997647570156
1505429380691630736,0.0,0.0,-0.421538561583,-2000.0,0.0,-0.0997647570156
1505429380692620199,0.0,0.0,-0.421538561583,-2000.0,0.0,-0.0997647570156
1505429380700576078,0.0,0.0,-0.421531796455,-2000.0,0.0,-0.0997647570156
1505429380701536669,0.0,0.0,-0.421531796455,-2000.0,0.0,-0.0997647570156
1505429380707546266,0.0,0.0,-0.421531796455,-2000.0,0.0,-0.0997647570156
1505429380710490287,0.0,0.0,-0.421530604362,-2000.0,0.0,-0.0997647570156
1505429380715724841,0.0,0.0,-0.421530604362,-2000.0,0.0,-0.0997647570156
1505429380720691460,0.0,0.0,-0.421538472176,-2000.0,0.0,-0.0997647570156
1505429380734907494,0.0,0.0,-0.421537697315,-2000.0,0.0,-0.0997776383247
1505429380737560676,0.0,0.0,-0.421537697315,-2000.0,0.0,-0.0997776383247
1505429380745798889,0.0,0.0,-0.421539306641,-2000.0,0.0,-0.0997776383247
1505429380750920514,0.0,0.0,-0.421539187431,-2000.0,0.0,-0.0997776383247
1505429380756000640,0.0,0.0,-0.421539187431,-2000.0,0.0,-0.0997776383247
1505429380760718591,0.0,0.0,-0.421540081501,-2000.0,0.0,-0.0997776383247
1505429380766443904,0.0,0.0,-0.421540081501,-2000.0,0.0,-0.0997776383247
1505429380771690348,0.0,0.0,-0.42152941227,-2000.0,0.0,-0.0997752544259
1505429380775598939,0.0,0.0,-0.42152941227,-2000.0,0.0,-0.0997752544259
1505429380781020231,0.0,0.0,-0.421525150537,-2000.0,0.0,-0.0997752544259
1505429380788482734,0.0,0.0,-0.421525150537,-2000.0,0.0,-0.0997752544259
1505429380799635197,0.0,0.0,-0.421534955502,-2000.0,0.0,-0.0997752544259
1505429380800373585,0.0,0.0,-0.421534955502,-2000.0,0.0,-0.0997752544259
1505429380802052398,0.0,0.0,-0.421534955502,-2000.0,0.0,-0.0997752544259
1505429380805778512,0.0,0.0,-0.421534955502,-2000.0,0.0,-0.0997752544259
1505429380810953574,0.0,0.0,-0.42153224349,-2000.0,0.0,-0.0997752544259
1505429380817335813,0.0,0.0,-0.42153224349,-2000.0,0.0,-0.0997752544259
1505429380823705147,0.0,0.0,-0.421528607607,-2000.0,0.0,-0.0997591879679
1505429380825992215,0.0,0.0,-0.421528607607,-2000.0,0.0,-0.0997591879679
1505429380833252224,0.0,0.0,-0.421530395746,-2000.0,0.0,-0.0997591879679
1505429380836049092,0.0,0.0,-0.421530395746,-2000.0,0.0,-0.0997591879679
1505429380841331430,0.0,0.0,-0.421525835991,-2000.0,0.0,-0.0997591879679
1505429380846539489,0.0,0.0,-0.421525835991,-2000.0,0.0,-0.0997591879679
1505429380851008670,0.0,0.0,-0.421527266502,-2000.0,0.0,-0.0997591879679
1505429380856261327,0.0,0.0,-0.421527266502,-2000.0,0.0,-0.0997591879679
1505429380861466451,0.0,0.0,-0.421526998281,-2000.0,0.0,-0.0997591879679
1505429380866860896,0.0,0.0,-0.421526998281,-2000.0,0.0,-0.0997591879679
1505429380871268727,0.0,0.0,-0.42153558135,-2000.0,0.0,-0.0997662634836
1505429380877408513,0.0,0.0,-0.42153558135,-2000.0,0.0,-0.0997662634836
1505429380884201310,0.0,0.0,-0.421528607607,-2000.0,0.0,-0.0997662634836
1505429380886627107,0.0,0.0,-0.421528607607,-2000.0,0.0,-0.0997662634836
1505429380891495685,0.0,0.0,-0.421539217234,-2000.0,0.0,-0.0997662634836
1505429380899743329,0.0,0.0,-0.421530246735,-2000.0,0.0,-0.0997662634836
1505429380901304673,0.0,0.0,-0.421530246735,-2000.0,0.0,-0.0997662634836
1505429380907855841,0.0,0.0,-0.421530246735,-2000.0,0.0,-0.0997662634836
1505429380916770749,0.0,0.0,-0.421531498432,-2000.0,0.0,-0.0997662634836
1505429380918032443,0.0,0.0,-0.421531498432,-2000.0,0.0,-0.0997662634836
1505429380922798060,0.0,0.0,-0.421529322863,-2000.0,0.0,-0.0997629842388
1505429380926789461,0.0,0.0,-0.421529322863,-2000.0,0.0,-0.0997629842388
1505429380933234691,0.0,0.0,-0.421531528234,-2000.0,0.0,-0.0997629842388
1505429380936660178,0.0,0.0,-0.421531528234,-2000.0,0.0,-0.0997629842388
1505429380941827624,0.0,0.0,-0.421530216932,-2000.0,0.0,-0.0997629842388
1505429380947085484,0.0,0.0,-0.421530216932,-2000.0,0.0,-0.0997629842388
1505429380951630549,0.0,0.0,-0.421531200409,-2000.0,0.0,-0.0997629842388
1505429380956770082,0.0,0.0,-0.421531200409,-2000.0,0.0,-0.0997629842388
1505429380967125592,0.0,0.0,-0.42153891921,-2000.0,0.0,-0.0997629842388
1505429380971599743,0.0,0.0,-0.421501487494,-2000.0,0.0,-0.0998351566753
1505429380977003272,0.0,0.0,-0.421501487494,-2000.0,0.0,-0.0998351566753
1505429380983001334,0.0,0.0,-0.421560287476,-2000.0,0.0,-0.0998351566753
1505429380994729115,0.0,0.0,-0.42152312398,-2000.0,0.0,-0.0998351566753
1505429381000980495,0.0,0.0,-0.421479195356,-2000.0,0.0,-0.0998351566753
1505429381002044090,0.0,0.0,-0.421479195356,-2000.0,0.0,-0.0998351566753
1505429381006985059,0.0,0.0,-0.421479195356,-2000.0,0.0,-0.0998351566753
1505429381015546796,0.0,0.0,-0.421513557434,-2000.0,0.0,-0.0998351566753
1505429381022290544,0.0,0.0,-0.421579420567,-2000.0,0.0,-0.0988222164863
1505429381023942624,0.0,0.0,-0.421579420567,-2000.0,0.0,-0.0988222164863
1505429381026859045,0.0,0.0,-0.421579420567,-2000.0,0.0,-0.0988222164863
1505429381034236713,0.0,0.0,-0.42146474123,-2000.0,0.0,-0.0988222164863
1505429381037014007,0.0,0.0,-0.42146474123,-2000.0,0.0,-0.0988222164863
1505429381042844049,0.0,0.0,-0.421495318413,-2000.0,0.0,-0.0988222164863
1505429381047165456,0.0,0.0,-0.421495318413,-2000.0,0.0,-0.0988222164863
1505429381052327456,0.0,0.0,-0.421554148197,-2000.0,0.0,-0.0988222164863
1505429381057202414,0.0,0.0,-0.421554148197,-2000.0,0.0,-0.0988222164863
1505429381067409114,0.0,0.0,-0.421612352133,-2000.0,0.0,-0.0988222164863
1505429381073483322,0.0,0.0,-0.421490848064,-2000.0,0.0,-0.101415092548
1505429381079584749,0.0,0.0,-0.421449333429,-2000.0,0.0,-0.101415092548
1505429381082929544,0.0,0.0,-0.421449333429,-2000.0,0.0,-0.101415092548
1505429381087286267,0.0,0.0,-0.421449333429,-2000.0,0.0,-0.101415092548
1505429381094768112,0.0,0.0,-0.421575397253,-2000.0,0.0,-0.101415092548
1505429381099807542,0.0,0.0,-0.421560436487,-2000.0,0.0,-0.101415092548
1505429381102238624,0.0,0.0,-0.421560436487,-2000.0,0.0,-0.101415092548
1505429381108373025,0.0,0.0,-0.421560436487,-2000.0,0.0,-0.101415092548
1505429381112218315,0.0,0.0,-0.421477913857,-2000.0,0.0,-0.101415092548
1505429381118504582,0.0,0.0,-0.421477913857,-2000.0,0.0,-0.101415092548
1505429381125155229,0.0,0.0,-0.421495556831,-2000.0,0.0,-0.0999182423308
1505429381127828768,0.0,0.0,-0.421495556831,-2000.0,0.0,-0.0999182423308
1505429381133763675,0.0,0.0,-0.421567738056,-2000.0,0.0,-0.0999182423308
1505429381137946489,0.0,0.0,-0.421567738056,-2000.0,0.0,-0.0999182423308
1505429381142625391,0.0,0.0,-0.421554505825,-2000.0,0.0,-0.0999182423308
1505429381148744867,0.0,0.0,-0.421554505825,-2000.0,0.0,-0.0999182423308
1505429381152477255,0.0,0.0,-0.421471476555,-2000.0,0.0,-0.0999182423308
1505429381157946442,0.0,0.0,-0.421471476555,-2000.0,0.0,-0.0999182423308
1505429381166435792,0.0,0.0,-0.421492099762,-2000.0,0.0,-0.0999182423308
1505429381167575339,0.0,0.0,-0.421492099762,-2000.0,0.0,-0.0999182423308
1505429381172778412,0.0,0.0,-0.42154827714,-2000.0,0.0,-0.0995754256329
1505429381180223292,0.0,0.0,-0.421522915363,-2000.0,0.0,-0.0995754256329
1505429381186756585,0.0,0.0,-0.421522915363,-2000.0,0.0,-0.0995754256329
1505429381187855939,0.0,0.0,-0.421522915363,-2000.0,0.0,-0.0995754256329
1505429381192886433,0.0,0.0,-0.421512842178,-2000.0,0.0,-0.0995754256329
1505429381201547028,0.0,0.0,-0.421522885561,-2000.0,0.0,-0.0995754256329
1505429381203207046,0.0,0.0,-0.421522885561,-2000.0,0.0,-0.0995754256329
1505429381210123976,0.0,0.0,-0.421537280083,-2000.0,0.0,-0.0995754256329
1505429381216536853,0.0,0.0,-0.421537280083,-2000.0,0.0,-0.0995754256329
1505429381219336181,0.0,0.0,-0.421524703503,-2000.0,0.0,-0.0995754256329
1505429381222717648,0.0,0.0,-0.421524703503,-2000.0,0.0,-0.100464147622
1505429381227932811,0.0,0.0,-0.421524703503,-2000.0,0.0,-0.100464147622
1505429381232901691,0.0,0.0,-0.421509057283,-2000.0,0.0,-0.100464147622
1505429381238080121,0.0,0.0,-0.421509057283,-2000.0,0.0,-0.100464147622
1505429381243107060,0.0,0.0,-0.421532809734,-2000.0,0.0,-0.100464147622
1505429381247999545,0.0,0.0,-0.421532809734,-2000.0,0.0,-0.100464147622
1505429381252927744,0.0,0.0,-0.421519249678,-2000.0,0.0,-0.100464147622
1505429381258275325,0.0,0.0,-0.421519249678,-2000.0,0.0,-0.100464147622
1505429381266846327,0.0,0.0,-0.421519517899,-2000.0,0.0,-0.100464147622
1505429381269645455,0.0,0.0,-0.421518683434,-2000.0,0.0,-0.100464147622
1505429381278081888,0.0,0.0,-0.421518683434,-2000.0,0.0,-0.100245606928
1505429381283993612,0.0,0.0,-0.421517372131,-2000.0,0.0,-0.100245606928
1505429381288191278,0.0,0.0,-0.421517372131,-2000.0,0.0,-0.100245606928
1505429381293336938,0.0,0.0,-0.421530157328,-2000.0,0.0,-0.100245606928
1505429381303238268,0.0,0.0,-0.421522021294,-2000.0,0.0,-0.100245606928
1505429381303878850,0.0,0.0,-0.421522021294,-2000.0,0.0,-0.100245606928
1505429381309462045,0.0,0.0,-0.421511083841,-2000.0,0.0,-0.100245606928
1505429381314497614,0.0,0.0,-0.421511083841,-2000.0,0.0,-0.100245606928
1505429381324263431,0.0,0.0,-0.42151504755,-2000.0,0.0,-0.100029818817
1505429381331798503,0.0,0.0,-0.421531409025,-2000.0,0.0,-0.100029818817
1505429381334319480,0.0,0.0,-0.421531409025,-2000.0,0.0,-0.100029818817
1505429381338461888,0.0,0.0,-0.421531409025,-2000.0,0.0,-0.100029818817
1505429381343758198,0.0,0.0,-0.421528190374,-2000.0,0.0,-0.100029818817
1505429381348573203,0.0,0.0,-0.421528190374,-2000.0,0.0,-0.100029818817
1505429381353409941,0.0,0.0,-0.421506673098,-2000.0,0.0,-0.100029818817
1505429381358890548,0.0,0.0,-0.421506673098,-2000.0,0.0,-0.100029818817
1505429381367340751,0.0,0.0,-0.421526968479,-2000.0,0.0,-0.100029818817
1505429381368730452,0.0,0.0,-0.421526968479,-2000.0,0.0,-0.100029818817
1505429381378446496,0.0,0.0,-0.421531260014,-2000.0,0.0,-0.10021010777
1505429381381496517,0.0,0.0,-0.421519517899,-2000.0,0.0,-0.10021010777
1505429381385882467,0.0,0.0,-0.421519517899,-2000.0,0.0,-0.10021010777
1505429381388404634,0.0,0.0,-0.421519517899,-2000.0,0.0,-0.10021010777
1505429381393735065,0.0,0.0,-0.421527117491,-2000.0,0.0,-0.10021010777
1505429381403295962,0.0,0.0,-0.421522170305,-2000.0,0.0,-0.10021010777
1505429381405206507,0.0,0.0,-0.421522170305,-2000.0,0.0,-0.10021010777
1505429381411452250,0.0,0.0,-0.421512126923,-2000.0,0.0,-0.10021010777
1505429381414130453,0.0,0.0,-0.421512126923,-2000.0,0.0,-0.10021010777
1505429381418759494,0.0,0.0,-0.421520471573,-2000.0,0.0,-0.10021010777
1505429381424322174,0.0,0.0,-0.421520471573,-2000.0,0.0,-0.100685972491
1505429381433076267,0.0,0.0,-0.421509861946,-2000.0,0.0,-0.100685972491
1505429381434873573,0.0,0.0,-0.421509861946,-2000.0,0.0,-0.100685972491
1505429381442376043,0.0,0.0,-0.421518564224,-2000.0,0.0,-0.100685972491
1505429381443962121,0.0,0.0,-0.421518564224,-2000.0,0.0,-0.100685972491
1505429381448953591,0.0,0.0,-0.421518564224,-2000.0,0.0,-0.100685972491
1505429381453612783,0.0,0.0,-0.421530425549,-2000.0,0.0,-0.100685972491
1505429381459260922,0.0,0.0,-0.421530425549,-2000.0,0.0,-0.100685972491
1505429381467978643,0.0,0.0,-0.421531319618,-2000.0,0.0,-0.100685972491
1505429381475855331,0.0,0.0,-0.421514332294,-2000.0,0.0,-0.0997050534562
1505429381478919214,0.0,0.0,-0.421514332294,-2000.0,0.0,-0.0997050534562
1505429381484388086,0.0,0.0,-0.421530485153,-2000.0,0.0,-0.0997050534562
1505429381489310056,0.0,0.0,-0.421530485153,-2000.0,0.0,-0.0997050534562
1505429381494950079,0.0,0.0,-0.421504557133,-2000.0,0.0,-0.0997050534562
1505429381509806421,0.0,0.0,-0.421517699957,-2000.0,0.0,-0.0997050534562
1505429381510506813,0.0,0.0,-0.421517699957,-2000.0,0.0,-0.0997050534562
1505429381510950647,0.0,0.0,-0.421517699957,-2000.0,0.0,-0.0997050534562
1505429381514119601,0.0,0.0,-0.421517699957,-2000.0,0.0,-0.0997050534562
1505429381519526765,0.0,0.0,-0.421539276838,-2000.0,0.0,-0.0997050534562
1505429381526784107,0.0,0.0,-0.421539276838,-2000.0,0.0,-0.0989394038865
1505429381533948026,0.0,0.0,-0.421517938375,-2000.0,0.0,-0.0989394038865
1505429381535650163,0.0,0.0,-0.421517938375,-2000.0,0.0,-0.0989394038865
1505429381539320513,0.0,0.0,-0.421446830034,-2000.0,0.0,-0.0989394038865
1505429381544718910,0.0,0.0,-0.421446830034,-2000.0,0.0,-0.0989394038865
1505429381549290641,0.0,0.0,-0.421509176493,-2000.0,0.0,-0.0989394038865
1505429381554379914,0.0,0.0,-0.421509176493,-2000.0,0.0,-0.0989394038865
1505429381559478574,0.0,0.0,-0.421527475119,-2000.0,0.0,-0.0989394038865
1505429381566712637,0.0,0.0,-0.421527475119,-2000.0,0.0,-0.0989394038865
1505429381571342501,0.0,0.0,-0.421453773975,-2000.0,0.0,-0.0985641949444
1505429381577903343,0.0,0.0,-0.421453773975,-2000.0,0.0,-0.0985641949444
1505429381580071513,0.0,0.0,-0.421525269747,-2000.0,0.0,-0.0985641949444
1505429381584896259,0.0,0.0,-0.421525269747,-2000.0,0.0,-0.0985641949444
1505429381589510927,0.0,0.0,-0.421520680189,-2000.0,0.0,-0.0985641949444
1505429381597303287,0.0,0.0,-0.421520680189,-2000.0,0.0,-0.0985641949444
1505429381605077629,0.0,0.0,-0.421493768692,-2000.0,0.0,-0.0985641949444
1505429381605788744,0.0,0.0,-0.421493768692,-2000.0,0.0,-0.0985641949444
1505429381609656138,0.0,0.0,-0.421553313732,-2000.0,0.0,-0.0985641949444
1505429381615893891,0.0,0.0,-0.421553313732,-2000.0,0.0,-0.0985641949444
1505429381623493171,0.0,0.0,-0.421607404947,-2000.0,0.0,-0.0995001965392
1505429381634056159,0.0,0.0,-0.421497583389,-2000.0,0.0,-0.0995001965392
1505429381637311854,0.0,0.0,-0.421497583389,-2000.0,0.0,-0.0995001965392
1505429381639622881,0.0,0.0,-0.421541184187,-2000.0,0.0,-0.0995001965392
1505429381645167360,0.0,0.0,-0.421541184187,-2000.0,0.0,-0.0995001965392
1505429381651019659,0.0,0.0,-0.421508163214,-2000.0,0.0,-0.0995001965392
1505429381654929301,0.0,0.0,-0.421508163214,-2000.0,0.0,-0.0995001965392
1505429381661140843,0.0,0.0,-0.421477138996,-2000.0,0.0,-0.0995001965392
1505429381672605724,0.0,0.0,-0.421634316444,-2000.0,0.0,-0.0994872646385
1505429381672706034,0.0,0.0,-0.421634316444,-2000.0,0.0,-0.0994872646385
1505429381674823557,0.0,0.0,-0.421634316444,-2000.0,0.0,-0.0994872646385
1505429381680006744,0.0,0.0,-0.421465784311,-2000.0,0.0,-0.0994872646385
1505429381685128693,0.0,0.0,-0.421465784311,-2000.0,0.0,-0.0994872646385
1505429381691119686,0.0,0.0,-0.421456545591,-2000.0,0.0,-0.0994872646385
1505429381702215970,0.0,0.0,-0.421600371599,-2000.0,0.0,-0.0994872646385
1505429381703800625,0.0,0.0,-0.421600371599,-2000.0,0.0,-0.0994872646385
1505429381704899338,0.0,0.0,-0.421600371599,-2000.0,0.0,-0.0994872646385
1505429381710741735,0.0,0.0,-0.421406716108,-2000.0,0.0,-0.0994872646385
1505429381715115334,0.0,0.0,-0.421406716108,-2000.0,0.0,-0.0994872646385
1505429381719930225,0.0,0.0,-0.421513289213,-2000.0,0.0,-0.0994872646385
1505429381725407620,0.0,0.0,-0.421513289213,-2000.0,0.0,-0.0997748058174
1505429381733108086,0.0,0.0,-0.421558856964,-2000.0,0.0,-0.0997748058174
1505429381735374804,0.0,0.0,-0.421558856964,-2000.0,0.0,-0.0997748058174
1505429381740535749,0.0,0.0,-0.421392261982,-2000.0,0.0,-0.0997748058174
1505429381747126654,0.0,0.0,-0.421392261982,-2000.0,0.0,-0.0997748058174
1505429381751425817,0.0,0.0,-0.421561062336,-2000.0,0.0,-0.0997748058174
1505429381758931374,0.0,0.0,-0.4215054214,-2000.0,0.0,-0.0997748058174
1505429381760793021,0.0,0.0,-0.4215054214,-2000.0,0.0,-0.0997748058174
1505429381767874004,0.0,0.0,-0.4215054214,-2000.0,0.0,-0.0997748058174
1505429381770405560,0.0,0.0,-0.421426475048,-2000.0,0.0,-0.0997748058174
1505429381776519919,0.0,0.0,-0.421426475048,-2000.0,0.0,-0.100062364769
1505429381780253713,0.0,0.0,-0.421588510275,-2000.0,0.0,-0.100062364769
1505429381785483286,0.0,0.0,-0.421588510275,-2000.0,0.0,-0.100062364769
1505429381790621405,0.0,0.0,-0.421425521374,-2000.0,0.0,-0.100062364769
1505429381800410092,0.0,0.0,-0.421452134848,-2000.0,0.0,-0.100062364769
1505429381807313313,0.0,0.0,-0.421452134848,-2000.0,0.0,-0.100062364769
1505429381808314447,0.0,0.0,-0.421452134848,-2000.0,0.0,-0.100062364769
1505429381814424321,0.0,0.0,-0.421581834555,-2000.0,0.0,-0.100062364769
1505429381815627720,0.0,0.0,-0.421581834555,-2000.0,0.0,-0.100062364769
1505429381820364220,0.0,0.0,-0.421389341354,-2000.0,0.0,-0.100062364769
1505429381825999032,0.0,0.0,-0.421389341354,-2000.0,0.0,-0.100528218824
1505429381833829831,0.0,0.0,-0.421512871981,-2000.0,0.0,-0.100528218824
1505429381835501380,0.0,0.0,-0.421512871981,-2000.0,0.0,-0.100528218824
1505429381840811037,0.0,0.0,-0.421517133713,-2000.0,0.0,-0.100528218824
1505429381846134733,0.0,0.0,-0.421517133713,-2000.0,0.0,-0.100528218824
1505429381850772678,0.0,0.0,-0.421386599541,-2000.0,0.0,-0.100528218824
1505429381856088599,0.0,0.0,-0.421386599541,-2000.0,0.0,-0.100528218824
1505429381860798868,0.0,0.0,-0.421570599079,-2000.0,0.0,-0.100528218824
1505429381866261466,0.0,0.0,-0.421570599079,-2000.0,0.0,-0.100528218824
1505429381872004360,0.0,0.0,-0.421456128359,-2000.0,0.0,-0.100511608768
1505429381878856248,0.0,0.0,-0.421456128359,-2000.0,0.0,-0.100511608768
1505429381881941999,0.0,0.0,-0.421432733536,-2000.0,0.0,-0.100511608768
1505429381887460184,0.0,0.0,-0.421432733536,-2000.0,0.0,-0.100511608768
1505429381897731732,0.0,0.0,-0.421553403139,-2000.0,0.0,-0.100511608768
1505429381899525066,0.0,0.0,-0.421355217695,-2000.0,0.0,-0.100511608768
1505429381902241771,0.0,0.0,-0.421355217695,-2000.0,0.0,-0.100511608768
1505429381906010702,0.0,0.0,-0.421355217695,-2000.0,0.0,-0.100511608768
1505429381914186982,0.0,0.0,-0.421471506357,-2000.0,0.0,-0.100511608768
1505429381915793656,0.0,0.0,-0.421471506357,-2000.0,0.0,-0.100511608768
1505429381921280145,0.0,0.0,-0.421550095081,-2000.0,0.0,-0.100016368798
1505429381926757883,0.0,0.0,-0.421550095081,-2000.0,0.0,-0.100016368798
1505429381932891017,0.0,0.0,-0.421373218298,-2000.0,0.0,-0.100016368798
1505429381936121001,0.0,0.0,-0.421373218298,-2000.0,0.0,-0.100016368798
1505429381941256912,0.0,0.0,-0.421555876732,-2000.0,0.0,-0.100016368798
1505429381947628516,0.0,0.0,-0.421555876732,-2000.0,0.0,-0.100016368798
1505429381953746411,0.0,0.0,-0.42146396637,-2000.0,0.0,-0.100016368798
1505429381957797800,0.0,0.0,-0.42146396637,-2000.0,0.0,-0.100016368798
1505429381965528278,0.0,0.0,-0.421415895224,-2000.0,0.0,-0.100016368798
1505429381966378752,0.0,0.0,-0.421415895224,-2000.0,0.0,-0.100016368798
1505429381971425607,0.0,0.0,-0.421571999788,-2000.0,0.0,-0.0997228419667
1505429381976314342,0.0,0.0,-0.421571999788,-2000.0,0.0,-0.0997228419667
1505429381981402022,0.0,0.0,-0.421369314194,-2000.0,0.0,-0.0997228419667
1505429381986563009,0.0,0.0,-0.421369314194,-2000.0,0.0,-0.0997228419667
1505429381997753917,0.0,0.0,-0.42145639658,-2000.0,0.0,-0.0997228419667
1505429382006270510,0.0,0.0,-0.421549797058,-2000.0,0.0,-0.0997228419667
1505429382006297028,0.0,0.0,-0.421549797058,-2000.0,0.0,-0.0997228419667
1505429382007149180,0.0,0.0,-0.421549797058,-2000.0,0.0,-0.0997228419667
1505429382011518824,0.0,0.0,-0.421359986067,-2000.0,0.0,-0.0997228419667
1505429382019794298,0.0,0.0,-0.421527147293,-2000.0,0.0,-0.0997228419667
1505429382021721339,0.0,0.0,-0.421527147293,-2000.0,0.0,-0.0994661349091
1505429382027854280,0.0,0.0,-0.421527147293,-2000.0,0.0,-0.0994661349091
1505429382033058275,0.0,0.0,-0.421458721161,-2000.0,0.0,-0.0994661349091
1505429382040215671,0.0,0.0,-0.421384423971,-2000.0,0.0,-0.0994661349091
1505429382042102166,0.0,0.0,-0.421384423971,-2000.0,0.0,-0.0994661349091
1505429382046846811,0.0,0.0,-0.421384423971,-2000.0,0.0,-0.0994661349091
1505429382053159874,0.0,0.0,-0.421563386917,-2000.0,0.0,-0.0994661349091
1505429382060613791,0.0,0.0,-0.421400517225,-2000.0,0.0,-0.0994661349091
1505429382066333682,0.0,0.0,-0.421400517225,-2000.0,0.0,-0.0994661349091
1505429382068950935,0.0,0.0,-0.421400517225,-2000.0,0.0,-0.0994661349091
1505429382071725262,0.0,0.0,-0.421471178532,-2000.0,0.0,-0.0995915317116
1505429382076937661,0.0,0.0,-0.421471178532,-2000.0,0.0,-0.0995915317116
1505429382083844382,0.0,0.0,-0.421562254429,-2000.0,0.0,-0.0995915317116
1505429382090236298,0.0,0.0,-0.421352505684,-2000.0,0.0,-0.0995915317116
1505429382092031259,0.0,0.0,-0.421352505684,-2000.0,0.0,-0.0995915317116
1505429382099618132,0.0,0.0,-0.421506136656,-2000.0,0.0,-0.0995915317116
1505429382102092014,0.0,0.0,-0.421506136656,-2000.0,0.0,-0.0995915317116
1505429382107119644,0.0,0.0,-0.421506136656,-2000.0,0.0,-0.0995915317116
1505429382111706503,0.0,0.0,-0.421459764242,-2000.0,0.0,-0.0995915317116
1505429382118646640,0.0,0.0,-0.421459764242,-2000.0,0.0,-0.0995915317116
1505429382124858209,0.0,0.0,-0.421396911144,-2000.0,0.0,-0.100171046943
1505429382127133962,0.0,0.0,-0.421396911144,-2000.0,0.0,-0.100171046943
1505429382132480023,0.0,0.0,-0.421585947275,-2000.0,0.0,-0.100171046943
1505429382137009740,0.0,0.0,-0.421585947275,-2000.0,0.0,-0.100171046943
1505429382143723734,0.0,0.0,-0.421374946833,-2000.0,0.0,-0.100171046943
1505429382149347447,0.0,0.0,-0.421420842409,-2000.0,0.0,-0.100171046943
1505429382153598214,0.0,0.0,-0.421420842409,-2000.0,0.0,-0.100171046943
1505429382157185257,0.0,0.0,-0.421420842409,-2000.0,0.0,-0.100171046943
1505429382166333553,0.0,0.0,-0.421554774046,-2000.0,0.0,-0.100171046943
1505429382167521155,0.0,0.0,-0.421554774046,-2000.0,0.0,-0.100171046943
1505429382172245924,0.0,0.0,-0.421370446682,-2000.0,0.0,-0.100507795607
1505429382177230284,0.0,0.0,-0.421370446682,-2000.0,0.0,-0.100507795607
1505429382184694491,0.0,0.0,-0.421519100666,-2000.0,0.0,-0.100507795607
1505429382190729494,0.0,0.0,-0.421423196793,-2000.0,0.0,-0.100507795607
1505429382199827542,0.0,0.0,-0.421334505081,-2000.0,0.0,-0.100507795607
1505429382202851710,0.0,0.0,-0.421334505081,-2000.0,0.0,-0.100507795607
1505429382202871832,0.0,0.0,-0.421334505081,-2000.0,0.0,-0.100507795607
1505429382207394206,0.0,0.0,-0.421334505081,-2000.0,0.0,-0.100507795607
1505429382215287466,0.0,0.0,-0.421477645636,-2000.0,0.0,-0.100507795607
1505429382217651037,0.0,0.0,-0.421477645636,-2000.0,0.0,-0.100507795607
1505429382222621102,0.0,0.0,-0.4212680161,-2000.0,0.0,-0.0993497134766
1505429382227540157,0.0,0.0,-0.4212680161,-2000.0,0.0,-0.0993497134766
1505429382232380476,0.0,0.0,-0.421407163143,-2000.0,0.0,-0.0993497134766
1505429382237500371,0.0,0.0,-0.421407163143,-2000.0,0.0,-0.0993497134766
1505429382243775437,0.0,0.0,-0.421445429325,-2000.0,0.0,-0.0993497134766
1505429382252836818,0.0,0.0,-0.421240448952,-2000.0,0.0,-0.0993497134766
1505429382253424057,0.0,0.0,-0.421240448952,-2000.0,0.0,-0.0993497134766
1505429382259593662,0.0,0.0,-0.421240836382,-2000.0,0.0,-0.0993497134766
1505429382266264355,0.0,0.0,-0.421240836382,-2000.0,0.0,-0.0993497134766
1505429382267786499,0.0,0.0,-0.421240836382,-2000.0,0.0,-0.0993497134766
1505429382272531707,0.0,0.0,-0.421259909868,-2000.0,0.0,-0.100132829544
1505429382279760698,0.0,0.0,-0.421274095774,-2000.0,0.0,-0.100132829544
1505429382285770835,0.0,0.0,-0.421274095774,-2000.0,0.0,-0.100132829544
1505429382288211284,0.0,0.0,-0.421274095774,-2000.0,0.0,-0.100132829544
1505429382292738931,0.0,0.0,-0.421460360289,-2000.0,0.0,-0.100132829544
1505429382299539260,0.0,0.0,-0.421309709549,-2000.0,0.0,-0.100132829544
1505429382302987647,0.0,0.0,-0.421309709549,-2000.0,0.0,-0.100132829544
1505429382307718916,0.0,0.0,-0.421309709549,-2000.0,0.0,-0.100132829544
1505429382312999104,0.0,0.0,-0.421224832535,-2000.0,0.0,-0.100132829544
1505429382324059996,0.0,0.0,-0.421209931374,-2000.0,0.0,-0.0996781772886
1505429382324108525,0.0,0.0,-0.421209931374,-2000.0,0.0,-0.0996781772886
1505429382333224820,0.0,0.0,-0.421076744795,-2000.0,0.0,-0.0996781772886
1505429382339142835,0.0,0.0,-0.42119628191,-2000.0,0.0,-0.0996781772886
1505429382349633910,0.0,0.0,-0.421210378408,-2000.0,0.0,-0.0996781772886
1505429382350380925,0.0,0.0,-0.421210378408,-2000.0,0.0,-0.0996781772886
1505429382355363285,0.0,0.0,-0.421210378408,-2000.0,0.0,-0.0996781772886
1505429382358040505,0.0,0.0,-0.421210378408,-2000.0,0.0,-0.0996781772886
1505429382366305151,0.0,0.0,-0.421192586422,-2000.0,0.0,-0.0996781772886
1505429382368277679,0.0,0.0,-0.421192586422,-2000.0,0.0,-0.0996781772886
1505429382372951363,0.0,0.0,-0.421285301447,-2000.0,0.0,-0.0983568830703
1505429382378348531,0.0,0.0,-0.421285301447,-2000.0,0.0,-0.0983568830703
1505429382387167618,0.0,0.0,-0.421254009008,-2000.0,0.0,-0.0983568830703
1505429382392350286,0.0,0.0,-0.42120668292,-2000.0,0.0,-0.0983568830703
1505429382398002461,0.0,0.0,-0.42120668292,-2000.0,0.0,-0.0983568830703
1505429382399333097,0.0,0.0,-0.42120668292,-2000.0,0.0,-0.0983568830703
1505429382404591698,0.0,0.0,-0.421391606331,-2000.0,0.0,-0.0983568830703
1505429382408372488,0.0,0.0,-0.421391606331,-2000.0,0.0,-0.0983568830703
1505429382413523512,0.0,0.0,-0.421240329742,-2000.0,0.0,-0.0983568830703
1505429382418939693,0.0,0.0,-0.4212898314,-2000.0,0.0,-0.0983568830703
1505429382425949518,0.0,0.0,-0.4212898314,-2000.0,0.0,-0.098052786062
1505429382432465417,0.0,0.0,-0.421246498823,-2000.0,0.0,-0.098052786062
1505429382433398161,0.0,0.0,-0.421246498823,-2000.0,0.0,-0.098052786062
1505429382438385897,0.0,0.0,-0.421246498823,-2000.0,0.0,-0.098052786062
1505429382445129174,0.0,0.0,-0.421155571938,-2000.0,0.0,-0.098052786062
1505429382453009695,0.0,0.0,-0.421431750059,-2000.0,0.0,-0.098052786062
1505429382453753360,0.0,0.0,-0.421431750059,-2000.0,0.0,-0.098052786062
1505429382458857501,0.0,0.0,-0.421431750059,-2000.0,0.0,-0.098052786062
1505429382466132467,0.0,0.0,-0.421306908131,-2000.0,0.0,-0.098052786062
1505429382468648975,0.0,0.0,-0.421306908131,-2000.0,0.0,-0.098052786062
1505429382473899570,0.0,0.0,-0.421132713556,-2000.0,0.0,-0.0990785644546
1505429382478859549,0.0,0.0,-0.421132713556,-2000.0,0.0,-0.0990785644546
1505429382484101831,0.0,0.0,-0.421304732561,-2000.0,0.0,-0.0990785644546
1505429382489997671,0.0,0.0,-0.421106100082,-2000.0,0.0,-0.0990785644546
1505429382500477721,0.0,0.0,-0.42130151391,-2000.0,0.0,-0.0990785644546
1505429382501192119,0.0,0.0,-0.42130151391,-2000.0,0.0,-0.0990785644546
1505429382504069962,0.0,0.0,-0.42130151391,-2000.0,0.0,-0.0990785644546
1505429382509161352,0.0,0.0,-0.42130151391,-2000.0,0.0,-0.0990785644546
1505429382513899822,0.0,0.0,-0.421225130558,-2000.0,0.0,-0.0990785644546
1505429382518744151,0.0,0.0,-0.421225130558,-2000.0,0.0,-0.0990785644546
1505429382523978678,0.0,0.0,-0.421052128077,-2000.0,0.0,-0.100250848264
1505429382532580074,0.0,0.0,-0.421351134777,-2000.0,0.0,-0.100250848264
1505429382538219763,0.0,0.0,-0.421351134777,-2000.0,0.0,-0.100250848264
1505429382544675622,0.0,0.0,-0.421161949635,-2000.0,0.0,-0.100250848264
1505429382544762785,0.0,0.0,-0.421161949635,-2000.0,0.0,-0.100250848264
1505429382550584253,0.0,0.0,-0.421172946692,-2000.0,0.0,-0.100250848264
1505429382553842548,0.0,0.0,-0.421172946692,-2000.0,0.0,-0.100250848264
1505429382558986444,0.0,0.0,-0.421172946692,-2000.0,0.0,-0.100250848264
1505429382566062151,0.0,0.0,-0.421307295561,-2000.0,0.0,-0.100250848264
1505429382568990354,0.0,0.0,-0.42105486989,-2000.0,0.0,-0.100250848264
1505429382574400958,0.0,0.0,-0.42105486989,-2000.0,0.0,-0.100700179579
1505429382580304324,0.0,0.0,-0.421273559332,-2000.0,0.0,-0.100700179579
1505429382587948532,0.0,0.0,-0.421273559332,-2000.0,0.0,-0.100700179579
1505429382589313296,0.0,0.0,-0.421153515577,-2000.0,0.0,-0.100700179579
1505429382594438025,0.0,0.0,-0.421153515577,-2000.0,0.0,-0.100700179579
1505429382599009509,0.0,0.0,-0.421153515577,-2000.0,0.0,-0.100700179579
1505429382604440142,0.0,0.0,-0.421063095331,-2000.0,0.0,-0.100700179579
1505429382609673403,0.0,0.0,-0.421063095331,-2000.0,0.0,-0.100700179579
1505429382614103441,0.0,0.0,-0.421237081289,-2000.0,0.0,-0.100700179579
1505429382622072406,0.0,0.0,-0.421078294516,-2000.0,0.0,-0.100480286598
1505429382624331395,0.0,0.0,-0.421078294516,-2000.0,0.0,-0.100480286598
1505429382636142836,0.0,0.0,-0.421116054058,-2000.0,0.0,-0.100480286598
1505429382637083012,0.0,0.0,-0.421116054058,-2000.0,0.0,-0.100480286598
1505429382641052109,0.0,0.0,-0.421218544245,-2000.0,0.0,-0.100480286598
1505429382653843883,0.0,0.0,-0.421017318964,-2000.0,0.0,-0.100480286598
1505429382655779974,0.0,0.0,-0.421017318964,-2000.0,0.0,-0.100480286598
1505429382659702836,0.0,0.0,-0.421201109886,-2000.0,0.0,-0.100480286598
1505429382665847236,0.0,0.0,-0.421201109886,-2000.0,0.0,-0.100480286598
1505429382670343159,0.0,0.0,-0.421173840761,-2000.0,0.0,-0.100480286598
1505429382678367776,0.0,0.0,-0.421173840761,-2000.0,0.0,-0.0991687976173
1505429382680698633,0.0,0.0,-0.421057969332,-2000.0,0.0,-0.0991687976173
1505429382684801997,0.0,0.0,-0.421057969332,-2000.0,0.0,-0.0991687976173
1505429382689942603,0.0,0.0,-0.421163201332,-2000.0,0.0,-0.0991687976173
1505429382697070636,0.0,0.0,-0.421163201332,-2000.0,0.0,-0.0991687976173
1505429382699517850,0.0,0.0,-0.421015918255,-2000.0,0.0,-0.0991687976173
1505429382704990967,0.0,0.0,-0.421015918255,-2000.0,0.0,-0.0991687976173
1505429382709743760,0.0,0.0,-0.421090006828,-2000.0,0.0,-0.0991687976173
1505429382714783300,0.0,0.0,-0.421090006828,-2000.0,0.0,-0.0991687976173
1505429382719682436,0.0,0.0,-0.421143531799,-2000.0,0.0,-0.0991687976173
1505429382724804039,0.0,0.0,-0.421143531799,-2000.0,0.0,-0.0999397754551
1505429382737990179,0.0,0.0,-0.4209638834,-2000.0,0.0,-0.0999397754551
1505429382746291560,0.0,0.0,-0.421109050512,-2000.0,0.0,-0.0999397754551
1505429382750066714,0.0,0.0,-0.420973598957,-2000.0,0.0,-0.0999397754551
1505429382755270086,0.0,0.0,-0.420973598957,-2000.0,0.0,-0.0999397754551
1505429382759709099,0.0,0.0,-0.420961350203,-2000.0,0.0,-0.0999397754551
1505429382766161437,0.0,0.0,-0.420961350203,-2000.0,0.0,-0.0999397754551
1505429382770562905,0.0,0.0,-0.421070098877,-2000.0,0.0,-0.0999397754551
1505429382776284114,0.0,0.0,-0.421070098877,-2000.0,0.0,-0.100544847439
1505429382784602301,0.0,0.0,-0.420948237181,-2000.0,0.0,-0.100544847439
1505429382784836807,0.0,0.0,-0.420948237181,-2000.0,0.0,-0.100544847439
1505429382789980887,0.0,0.0,-0.421053022146,-2000.0,0.0,-0.100544847439
1505429382798919686,0.0,0.0,-0.421053022146,-2000.0,0.0,-0.100544847439
1505429382799941203,0.0,0.0,-0.421004146338,-2000.0,0.0,-0.100544847439
1505429382805563357,0.0,0.0,-0.421004146338,-2000.0,0.0,-0.100544847439
1505429382810652091,0.0,0.0,-0.420969694853,-2000.0,0.0,-0.100544847439
1505429382815246945,0.0,0.0,-0.420969694853,-2000.0,0.0,-0.100544847439
1505429382820269823,0.0,0.0,-0.421122729778,-2000.0,0.0,-0.100544847439
1505429382825364934,0.0,0.0,-0.421122729778,-2000.0,0.0,-0.100212053337
1505429382835838189,0.0,0.0,-0.42093372345,-2000.0,0.0,-0.100212053337
1505429382838359673,0.0,0.0,-0.42093372345,-2000.0,0.0,-0.100212053337
1505429382849143225,0.0,0.0,-0.42100712657,-2000.0,0.0,-0.100212053337
1505429382850166352,0.0,0.0,-0.420924276114,-2000.0,0.0,-0.100212053337
1505429382850729419,0.0,0.0,-0.420924276114,-2000.0,0.0,-0.100212053337
1505429382857646176,0.0,0.0,-0.420924276114,-2000.0,0.0,-0.100212053337
1505429382860481482,0.0,0.0,-0.420945525169,-2000.0,0.0,-0.100212053337
1505429382866843791,0.0,0.0,-0.420945525169,-2000.0,0.0,-0.100212053337
1505429382876582990,0.0,0.0,-0.421000599861,-2000.0,0.0,-0.100641653341
1505429382876585707,0.0,0.0,-0.421000599861,-2000.0,0.0,-0.100641653341
1505429382880556907,0.0,0.0,-0.420925676823,-2000.0,0.0,-0.100641653341
1505429382885369561,0.0,0.0,-0.420925676823,-2000.0,0.0,-0.100641653341
1505429382890548695,0.0,0.0,-0.421065539122,-2000.0,0.0,-0.100641653341
1505429382899110476,0.0,0.0,-0.420899480581,-2000.0,0.0,-0.100641653341
1505429382900748578,0.0,0.0,-0.420899480581,-2000.0,0.0,-0.100641653341
1505429382906836813,0.0,0.0,-0.420899480581,-2000.0,0.0,-0.100641653341
1505429382911033431,0.0,0.0,-0.420874148607,-2000.0,0.0,-0.100641653341
1505429382915670653,0.0,0.0,-0.420874148607,-2000.0,0.0,-0.100641653341
1505429382920450926,0.0,0.0,-0.420824348927,-2000.0,0.0,-0.100641653341
1505429382926886349,0.0,0.0,-0.420824348927,-2000.0,0.0,-0.1007616128
1505429382941451533,0.0,0.0,-0.420909613371,-2000.0,0.0,-0.1007616128
1505429382942747127,0.0,0.0,-0.420909613371,-2000.0,0.0,-0.1007616128
1505429382945849653,0.0,0.0,-0.420909613371,-2000.0,0.0,-0.1007616128
1505429382950840899,0.0,0.0,-0.420801639557,-2000.0,0.0,-0.1007616128
1505429382955720188,0.0,0.0,-0.420801639557,-2000.0,0.0,-0.1007616128
1505429382960838875,0.0,0.0,-0.42077755928,-2000.0,0.0,-0.1007616128
1505429382966403440,0.0,0.0,-0.42077755928,-2000.0,0.0,-0.1007616128
1505429382972165030,0.0,0.0,-0.420691251755,-2000.0,0.0,-0.102589136862
1505429382978680770,0.0,0.0,-0.420691251755,-2000.0,0.0,-0.102589136862
1505429382980901371,0.0,0.0,-0.42055991292,-2000.0,0.0,-0.102589136862
1505429382986085320,0.0,0.0,-0.42055991292,-2000.0,0.0,-0.102589136862
1505429382990916557,0.0,0.0,-0.420443683863,-2000.0,0.0,-0.102589136862
1505429382999428678,0.0,0.0,-0.420268446207,-2000.0,0.0,-0.102589136862
1505429383001556794,0.0,0.0,-0.420268446207,-2000.0,0.0,-0.102589136862
1505429383006066140,0.0,0.0,-0.420268446207,-2000.0,0.0,-0.102589136862
1505429383011295919,0.0,0.0,-0.420210957527,-2000.0,0.0,-0.102589136862
1505429383016280275,0.0,0.0,-0.420210957527,-2000.0,0.0,-0.102589136862
1505429383021140667,0.0,0.0,-0.420134305954,-2000.0,0.0,-0.102589136862
1505429383026155357,0.0,0.0,-0.420134305954,-2000.0,0.0,-0.103592157335
1505429383036714355,0.0,0.0,-0.420000195503,-2000.0,0.0,-0.103592157335
1505429383044707347,0.0,0.0,-0.419965803623,-2000.0,0.0,-0.103592157335
1505429383046440845,0.0,0.0,-0.419965803623,-2000.0,0.0,-0.103592157335
1505429383051501456,0.0,0.0,-0.419769883156,-2000.0,0.0,-0.103592157335
1505429383056303149,0.0,0.0,-0.419769883156,-2000.0,0.0,-0.103592157335
1505429383067548337,0.0,0.0,-0.419703215361,-2000.0,0.0,-0.103592157335
1505429383074494439,0.0,0.0,-0.419449746609,-2000.0,0.0,-0.105792722543
1505429383076570162,0.0,0.0,-0.419449746609,-2000.0,0.0,-0.105792722543
1505429383083410198,0.0,0.0,-0.419399440289,-2000.0,0.0,-0.105792722543
1505429383086433823,0.0,0.0,-0.419399440289,-2000.0,0.0,-0.105792722543
1505429383091502833,0.0,0.0,-0.419270515442,-2000.0,0.0,-0.105792722543
1505429383099206420,0.0,0.0,-0.419284522533,-2000.0,0.0,-0.105792722543
1505429383102107547,0.0,0.0,-0.419284522533,-2000.0,0.0,-0.105792722543
1505429383106672508,0.0,0.0,-0.419284522533,-2000.0,0.0,-0.105792722543
1505429383111657448,0.0,0.0,-0.419169038534,-2000.0,0.0,-0.105792722543
1505429383116438797,0.0,0.0,-0.419169038534,-2000.0,0.0,-0.105792722543
1505429383123857685,0.0,0.0,-0.419150054455,-2000.0,0.0,-0.105456182639
1505429383133827554,0.0,0.0,-0.419089078903,-2000.0,0.0,-0.105456182639
1505429383134702685,0.0,0.0,-0.419089078903,-2000.0,0.0,-0.105456182639
1505429383142213490,0.0,0.0,-0.419008821249,-2000.0,0.0,-0.105456182639
1505429383142818467,0.0,0.0,-0.419008821249,-2000.0,0.0,-0.105456182639
1505429383146805883,0.0,0.0,-0.419008821249,-2000.0,0.0,-0.105456182639
1505429383151659554,0.0,0.0,-0.418954014778,-2000.0,0.0,-0.105456182639
1505429383157976984,0.0,0.0,-0.418954014778,-2000.0,0.0,-0.105456182639
1505429383165964993,0.0,0.0,-0.418954521418,-2000.0,0.0,-0.105456182639
1505429383169830645,0.0,0.0,-0.418651670218,-2000.0,0.0,-0.105456182639
1505429383173400860,0.0,0.0,-0.418651670218,-2000.0,0.0,-0.104382083079
1505429383177788902,0.0,0.0,-0.418651670218,-2000.0,0.0,-0.104382083079
1505429383182342598,0.0,0.0,-0.418711394072,-2000.0,0.0,-0.104382083079
1505429383187210147,0.0,0.0,-0.418711394072,-2000.0,0.0,-0.104382083079
1505429383192469491,0.0,0.0,-0.41852286458,-2000.0,0.0,-0.104382083079
1505429383198862767,0.0,0.0,-0.41852286458,-2000.0,0.0,-0.104382083079
1505429383205996879,0.0,0.0,-0.418619573116,-2000.0,0.0,-0.104382083079
1505429383207058787,0.0,0.0,-0.418619573116,-2000.0,0.0,-0.104382083079
1505429383212152107,0.0,0.0,-0.418479412794,-2000.0,0.0,-0.104382083079
1505429383217049158,0.0,0.0,-0.418479412794,-2000.0,0.0,-0.104382083079
1505429383222292313,0.0,0.0,-0.418519765139,-2000.0,0.0,-0.0999898371379
1505429383234566668,0.0,0.0,-0.418563365936,-2000.0,0.0,-0.0999898371379
1505429383241949108,0.0,0.0,-0.418615341187,-2000.0,0.0,-0.0999898371379
1505429383247105959,0.0,0.0,-0.418615341187,-2000.0,0.0,-0.0999898371379
1505429383247811332,0.0,0.0,-0.418615341187,-2000.0,0.0,-0.0999898371379
1505429383247918374,0.0,0.0,-0.418615341187,-2000.0,0.0,-0.0999898371379
1505429383252268669,0.0,0.0,-0.418615818024,-2000.0,0.0,-0.0999898371379
1505429383258438822,0.0,0.0,-0.418615818024,-2000.0,0.0,-0.0999898371379
1505429383274620353,0.0,0.0,-0.418615818024,-2000.0,0.0,-0.0970956054301
1505429383274727448,0.0,0.0,-0.418615818024,-2000.0,0.0,-0.0970956054301
1505429383277217159,0.0,0.0,-0.418615818024,-2000.0,0.0,-0.0970956054301
1505429383283641940,0.0,0.0,-0.418615818024,-2000.0,0.0,-0.0970956054301
1505429383288384534,0.0,0.0,-0.418615818024,-2000.0,0.0,-0.0970956054301
1505429383292684470,0.0,0.0,-0.418615818024,-2000.0,0.0,-0.0970956054301
1505429383299142434,0.0,0.0,-0.418615818024,-2000.0,0.0,-0.0970956054301
1505429383302552766,0.0,0.0,-0.418615818024,-2000.0,0.0,-0.0970956054301
1505429383307373540,0.0,0.0,-0.418615818024,-2000.0,0.0,-0.0970956054301
1505429383312142042,0.0,0.0,-0.418361872435,-2000.0,0.0,-0.0970956054301
1505429383317425663,0.0,0.0,-0.418361872435,-2000.0,0.0,-0.0970956054301
1505429383322857367,0.0,0.0,-0.41830727458,-2000.0,0.0,-0.0953111881459
1505429383332580752,0.0,0.0,-0.418043971062,-2000.0,0.0,-0.0953111881459
1505429383333462316,0.0,0.0,-0.418043971062,-2000.0,0.0,-0.0953111881459
1505429383342943925,0.0,0.0,-0.417835831642,-2000.0,0.0,-0.0953111881459
1505429383344468891,0.0,0.0,-0.417835831642,-2000.0,0.0,-0.0953111881459
1505429383348776992,0.0,0.0,-0.417835831642,-2000.0,0.0,-0.0953111881459
1505429383360831329,0.0,0.0,-0.41732737422,-2000.0,0.0,-0.0953111881459
1505429383366485622,0.0,0.0,-0.41732737422,-2000.0,0.0,-0.0953111881459
1505429383370087418,0.0,0.0,-0.4171667099,-2000.0,0.0,-0.0953111881459
1505429383370180644,0.0,0.0,-0.4171667099,-2000.0,0.0,-0.0953111881459
1505429383372784749,0.0,0.0,-0.4171667099,-2000.0,0.0,-0.100809027516
1505429383377683868,0.0,0.0,-0.4171667099,-2000.0,0.0,-0.100809027516
1505429383383166858,0.0,0.0,-0.416914433241,-2000.0,0.0,-0.100809027516
1505429383390476694,0.0,0.0,-0.416515916586,-2000.0,0.0,-0.100809027516
1505429383392962250,0.0,0.0,-0.416515916586,-2000.0,0.0,-0.100809027516
1505429383399037020,0.0,0.0,-0.416515916586,-2000.0,0.0,-0.100809027516
1505429383403034760,0.0,0.0,-0.416298568249,-2000.0,0.0,-0.100809027516
1505429383409232501,0.0,0.0,-0.416032493114,-2000.0,0.0,-0.100809027516
1505429383413986421,0.0,0.0,-0.416032493114,-2000.0,0.0,-0.100809027516
1505429383417965352,0.0,0.0,-0.416032493114,-2000.0,0.0,-0.100809027516
1505429383424695526,0.0,0.0,-0.416042298079,-2000.0,0.0,-0.111375781716
1505429383433786943,0.0,0.0,-0.416007339954,-2000.0,0.0,-0.111375781716
1505429383434735686,0.0,0.0,-0.416007339954,-2000.0,0.0,-0.111375781716
1505429383438396575,0.0,0.0,-0.416007339954,-2000.0,0.0,-0.111375781716
1505429383445056480,0.0,0.0,-0.415902495384,-2000.0,0.0,-0.111375781716
1505429383450036908,0.0,0.0,-0.415763765574,-2000.0,0.0,-0.111375781716
1505429383455492700,0.0,0.0,-0.415763765574,-2000.0,0.0,-0.111375781716
1505429383466544552,0.0,0.0,-0.415905624628,-2000.0,0.0,-0.111375781716
1505429383468206702,0.0,0.0,-0.415905624628,-2000.0,0.0,-0.111375781716
1505429383473217819,0.0,0.0,-0.415879070759,-2000.0,0.0,-0.119709461673
1505429383478153210,0.0,0.0,-0.415879070759,-2000.0,0.0,-0.119709461673
1505429383483255730,0.0,0.0,-0.416223049164,-2000.0,0.0,-0.119709461673
1505429383489224123,0.0,0.0,-0.416366308928,-2000.0,0.0,-0.119709461673
1505429383499767413,0.0,0.0,-0.416451185942,-2000.0,0.0,-0.119709461673
1505429383503469667,0.0,0.0,-0.416451185942,-2000.0,0.0,-0.119709461673
1505429383508219849,0.0,0.0,-0.416451185942,-2000.0,0.0,-0.119709461673
1505429383513591690,0.0,0.0,-0.41663941741,-2000.0,0.0,-0.119709461673
1505429383518613282,0.0,0.0,-0.417020320892,-2000.0,0.0,-0.119709461673
1505429383523582448,0.0,0.0,-0.417020320892,-2000.0,0.0,-0.121194870518
1505429383533116311,0.0,0.0,-0.41728079319,-2000.0,0.0,-0.121194870518
1505429383538981319,0.0,0.0,-0.41728079319,-2000.0,0.0,-0.121194870518
1505429383538984688,0.0,0.0,-0.41728079319,-2000.0,0.0,-0.121194870518
1505429383544066663,0.0,0.0,-0.417686522007,-2000.0,0.0,-0.121194870518
1505429383548987499,0.0,0.0,-0.417686522007,-2000.0,0.0,-0.121194870518
1505429383553676168,0.0,0.0,-0.418042600155,-2000.0,0.0,-0.121194870518
1505429383559291638,0.0,0.0,-0.418042600155,-2000.0,0.0,-0.121194870518
1505429383610973642,0.0,0.0,-0.421127945185,-2000.0,0.0,-0.121098465518
1505429383616165470,0.0,0.0,-0.421127945185,-2000.0,0.0,-0.121098465518
1505429383616299189,0.0,0.0,-0.421127945185,-2000.0,0.0,-0.121098465518
1505429383616902886,0.0,0.0,-0.421127945185,-2000.0,0.0,-0.121098465518
1505429383618775277,0.0,0.0,-0.421127945185,-2000.0,0.0,-0.121098465518
1505429383618781213,0.0,0.0,-0.421127945185,-2000.0,0.0,-0.121098465518
1505429383619437528,0.0,0.0,-0.421868354082,-2000.0,0.0,-0.121098465518
1505429383621683311,0.0,0.0,-0.421868354082,-2000.0,0.0,-0.120671120888
1505429383621695939,0.0,0.0,-0.421868354082,-2000.0,0.0,-0.120671120888
1505429383621700732,0.0,0.0,-0.421868354082,-2000.0,0.0,-0.120671120888
1505429383624089741,0.0,0.0,-0.421868354082,-2000.0,0.0,-0.120671120888
1505429383624093657,0.0,0.0,-0.421868354082,-2000.0,0.0,-0.120671120888
1505429383636196400,0.0,0.0,-0.422551393509,-2000.0,0.0,-0.120671120888
1505429383637021314,0.0,0.0,-0.422551393509,-2000.0,0.0,-0.120671120888
1505429383638013891,0.0,0.0,-0.422551393509,-2000.0,0.0,-0.120671120888
1505429383639523410,0.0,0.0,-0.422551393509,-2000.0,0.0,-0.120671120888
1505429383644466547,0.0,0.0,-0.423285931349,-2000.0,0.0,-0.120671120888
1505429383650608291,0.0,0.0,-0.424045950174,-2000.0,0.0,-0.120671120888
1505429383659618570,0.0,0.0,-0.424700945616,-2000.0,0.0,-0.120671120888
1505429383665928296,0.0,0.0,-0.424700945616,-2000.0,0.0,-0.120671120888
1505429383665932570,0.0,0.0,-0.424700945616,-2000.0,0.0,-0.120671120888
1505429383673648568,0.0,0.0,-0.425508111715,-2000.0,0.0,-0.117048370573
1505429383676735431,0.0,0.0,-0.425508111715,-2000.0,0.0,-0.117048370573
