%time,field.header.seq,field.header.stamp,field.header.frame_id,field.pose.position.x,field.pose.position.y,field.pose.position.z,field.pose.orientation.x,field.pose.orientation.y,field.pose.orientation.z,field.pose.orientation.w
1505403118526893166,0,1505403118526793276,0.356476545334,0.0454257279634,-0.10795199126,-0.00359956128523,-0.998103737831,0.00473833736032,0.0612661056221
1505403118537120480,1,1505403118537008191,0.356512635946,0.045375816524,-0.107649348676,-0.00352079793811,-0.998128771782,0.00521000660956,0.0608221516013
1505403118546469028,2,1505403118546319424,0.356584817171,0.0453120693564,-0.107315778732,-0.00361922918819,-0.99815171957,0.00554360216483,0.0604092590511
1505403118556744226,3,1505403118556565888,0.356615245342,0.0453880615532,-0.10691344738,-0.00367120606825,-0.998170673847,0.005625333637,0.0600838214159
1505403118567069525,4,1505403118566919366,0.356578946114,0.0454067625105,-0.106530316174,-0.00353333516978,-0.998161375523,0.00529507827014,0.0602768324316
1505403118577415843,5,1505403118577292624,0.356503427029,0.0454054698348,-0.106159642339,-0.00342649454251,-0.998133778572,0.0044763321057,0.0608059391379
1505403118586581971,6,1505403118586467102,0.356414675713,0.0453845970333,-0.105827622116,-0.00328163197264,-0.99808806181,0.0039854394272,0.0615918934345
1505403118596861006,7,1505403118596698807,0.356332957745,0.0453808568418,-0.105475984514,-0.00331087480299,-0.998040795326,0.00407129339874,0.0623458325863
1505403118607035942,8,1505403118606910406,0.356269925833,0.0454267151654,-0.105091527104,-0.0033218646422,-0.99800658226,0.00438439566642,0.062869630754
1505403118617376451,9,1505403118617136855,0.356297343969,0.0453244484961,-0.104809828103,-0.00322553841397,-0.997998535633,0.00496608577669,0.0629585981369
1505403118626588158,10,1505403118626448342,0.356391251087,0.0452747195959,-0.104484595358,-0.00314437365159,-0.998017251492,0.00526984920725,0.0626414939761
1505403118636916493,11,1505403118636719222,0.356498301029,0.0453240349889,-0.104171209037,-0.00310181593522,-0.99805110693,0.0051676928997,0.0621093548834
1505403118647080906,12,1505403118646930449,0.356646597385,0.0453389473259,-0.103915624321,-0.00328050903045,-0.998092651367,0.00488143507391,0.0614526383579
1505403118657339749,13,1505403118657194027,0.356724351645,0.045405998826,-0.103598706424,-0.00356596591882,-0.998115360737,0.00468178745359,0.0610821582377
1505403118666583679,14,1505403118666435549,0.356766015291,0.0453612171113,-0.103229999542,-0.0035569476895,-0.99813580513,0.00471662450582,0.0607466697693
1505403118687031683,15,1505403118686880993,0.356757104397,0.0453955717385,-0.102842576802,-0.00361568992957,-0.998147189617,0.00485169887543,0.060544103384
1505403118737022823,16,1505403118736923882,0.356641799212,0.045354090631,-0.100320868194,-0.00321981706657,-0.998155832291,0.00562455924228,0.0603576898575
1505403118746196293,17,1505403118746107235,0.3567738235,0.0453979410231,-0.0999189168215,-0.00327012408525,-0.998200953007,0.0051269880496,0.0596480742097
1505403118756540602,18,1505403118756365649,0.356862902641,0.0453274510801,-0.0994454845786,-0.00326845725067,-0.9982162714,0.00546356709674,0.0593605525792
1505403118766722996,19,1505403118766567485,0.356906175613,0.0453391075134,-0.098997361958,-0.00341466325335,-0.998214304447,0.00548839522526,0.0593826808035
1505403118776961570,20,1505403118776816205,0.356917560101,0.0453751534224,-0.0985036045313,-0.00343017373234,-0.998204767704,0.00520509341732,0.0595681481063
1505403118787217645,21,1505403118787062367,0.356901407242,0.0453780815005,-0.098076865077,-0.00348179973662,-0.998196840286,0.00506922416389,0.0597092919052
1505403118796421341,22,1505403118796257756,0.356884330511,0.0454060547054,-0.0976310670376,-0.00347147858702,-0.998192727566,0.00517197931185,0.059770308435
1505403118806618433,23,1505403118806453401,0.356895834208,0.045390419662,-0.0972072184086,-0.00360706192441,-0.998191893101,0.00521749677137,0.0597709231079
1505403118816903003,24,1505403118816715693,0.356877893209,0.0453998446465,-0.0967514291406,-0.00365027925,-0.998185873032,0.00538715347648,0.0598534084857
1505403118826995260,25,1505403118826896684,0.356894135475,0.0454193428159,-0.0963437780738,-0.00381041667424,-0.998177468777,0.00517672300339,0.0600043013692
1505403118837256699,26,1505403118837132566,0.356913119555,0.0454171262681,-0.0959367677569,-0.00384137150832,-0.998173952103,0.00509195262566,0.0600678399205
1505403118846657101,27,1505403118846482475,0.356946080923,0.0454278029501,-0.0955152735114,-0.00380670209415,-0.998176515102,0.00526023935527,0.0600123628974
1505403118856870524,28,1505403118856690937,0.356984227896,0.0452764257789,-0.0951717942953,-0.00371294282377,-0.998179018497,0.00546627445146,0.0599577203393
1505403118867015973,29,1505403118866873899,0.35702842474,0.0452540405095,-0.0947353839874,-0.00375076523051,-0.998185098171,0.00600250996649,0.0598033703864
1505403118877315223,30,1505403118877136939,0.357044667006,0.0452994666994,-0.0943287760019,-0.00364173483104,-0.998190701008,0.00620003649965,0.059697303921
1505403118886462685,31,1505403118886331364,0.357075244188,0.0452993363142,-0.0939241871238,-0.00352513580583,-0.998197197914,0.00625407649204,0.0595889240503
1505403118896702238,32,1505403118896569574,0.357100337744,0.0453867316246,-0.0934912487864,-0.00340738636442,-0.998208343983,0.00605350034311,0.0594294443727
1505403118906986619,33,1505403118906838497,0.357136964798,0.0453592538834,-0.0931661948562,-0.00345019157976,-0.998220026493,0.00570334121585,0.0592648237944
1505403118917175358,34,1505403118917054069,0.357144504786,0.0454462952912,-0.0927482247353,-0.00357534736395,-0.998228490353,0.00555602554232,0.0591289736331
1505403118926390278,35,1505403118926253005,0.357109934092,0.0453933402896,-0.0922431945801,-0.00350067648105,-0.998218715191,0.00581404939294,0.0592740438879
1505403118936633348,36,1505403118936498527,0.357074797153,0.045367974788,-0.091845318675,-0.00350111536682,-0.998219072819,0.00589569890872,0.0592604540288
1505403118946835857,37,1505403118946696965,0.357086062431,0.0453791543841,-0.0914187729359,-0.00341187254526,-0.998234570026,0.00613490492105,0.0589785091579
1505403118957049118,38,1505403118956907097,0.357112407684,0.0452861376107,-0.0910365283489,-0.00334944273345,-0.998258650303,0.00626598577946,0.0585598871112
1505403118967309334,39,1505403118967172727,0.357098191977,0.0453078560531,-0.0905724614859,-0.00324216857553,-0.998266160488,0.00652502849698,0.0584100447595
1505403118976546264,40,1505403118976377851,0.357104003429,0.0452794805169,-0.0901124998927,-0.00323098804802,-0.998265147209,0.00650133285671,0.0584294721484
1505403118986735233,41,1505403118986560068,0.357157945633,0.0452622137964,-0.0896647349,-0.00329124252312,-0.998258769512,0.0059783780016,0.0585907511413
1505403118996998300,42,1505403118996838374,0.357158899307,0.0453893579543,-0.089228540659,-0.00348350219429,-0.99824732542,0.00524383690208,0.0588450320065
1505403119007197927,43,1505403119007046363,0.357165008783,0.0454117096961,-0.0888503491879,-0.00355560006574,-0.998236298561,0.00483287870884,0.0590616874397
1505403119016395246,44,1505403119016246652,0.357152760029,0.0454262122512,-0.0884587019682,-0.0036751953885,-0.998217403889,0.00491393962875,0.0593660026789
1505403119026571538,45,1505403119026445803,0.357124477625,0.0452597849071,-0.0880552455783,-0.00373736047186,-0.998185932636,0.00585010973737,0.0598051585257
1505403119036816141,46,1505403119036650458,0.357119441032,0.0451157204807,-0.0876014381647,-0.00373696768656,-0.998162567616,0.00705653382465,0.060064136982
1505403119047070151,47,1505403119046978639,0.357138484716,0.0450280718505,-0.087163515389,-0.00363481440581,-0.998167932034,0.00790406577289,0.0598770864308
1505403119056341233,48,1505403119056161172,0.357236802578,0.0450580231845,-0.0868076980114,-0.00349913560785,-0.998201012611,0.00765583151951,0.0593627616763
1505403119066707496,49,1505403119066359850,0.357358664274,0.0451704487205,-0.0864030122757,-0.00331395096146,-0.99824988842,0.00720791565254,0.0586022660136
1505403119076689748,50,1505403119076567858,0.357451945543,0.0452774353325,-0.0859513059258,-0.00329178594984,-0.998270392418,0.00653093261644,0.0583326853812
1505403119086937329,51,1505403119086794678,0.357478410006,0.0452659055591,-0.0854615420103,-0.00334728695452,-0.998262226582,0.00605622678995,0.0585196986794
1505403119097223553,52,1505403119097025888,0.357501983643,0.0451652444899,-0.0849748849869,-0.00346281053498,-0.998244822025,0.00612882245332,0.0588032566011
1505403119106415169,53,1505403119106258990,0.357472240925,0.0451761670411,-0.0844845846295,-0.00349439284764,-0.998220026493,0.00638185022399,0.0591934211552
1505403119116713175,54,1505403119116486317,0.35747885704,0.0452292189002,-0.084052041173,-0.00343632255681,-0.998229563236,0.0065073017031,0.0590220838785
1505403119126857672,55,1505403119126743222,0.357531100512,0.0451464131474,-0.0836493298411,-0.00328220822848,-0.998256444931,0.00671142712235,0.0585512034595
1505403119137206271,56,1505403119137007685,0.357542574406,0.0451535433531,-0.0832010358572,-0.00330675952137,-0.998277425766,0.00689682690427,0.0581691935658
1505403119146391336,57,1505403119146265196,0.357566416264,0.0451234988868,-0.0827282890677,-0.00332997459918,-0.998284578323,0.00718620279804,0.0580101385713
1505403119159205516,58,1505403119156475450,0.357572257519,0.045150782913,-0.0823203325272,-0.0033806359861,-0.998285591602,0.00696980580688,0.0580166950822
1505403119167089593,59,1505403119166922064,0.357568532228,0.0452344082296,-0.0819290354848,-0.00346410274506,-0.998282253742,0.00659641716629,0.0581128895283
1505403119176361665,60,1505403119176190170,0.357572615147,0.0452405288815,-0.0815768167377,-0.0034909711685,-0.998278260231,0.00632763793692,0.0582094490528
1505403119236557332,61,1505403119236394662,0.357558012009,0.0452895984054,-0.0788980051875,-0.00319977570325,-0.998228907585,0.0068631558679,0.0590055026114
1505403119246768789,62,1505403119246608441,0.357613265514,0.0451928265393,-0.0784337967634,-0.00324063678272,-0.998240470886,0.00691543798894,0.0588019154966
1505403119257010691,63,1505403119256842864,0.357651948929,0.0451924689114,-0.0780239254236,-0.00329165044241,-0.998251914978,0.00676744570956,0.0586217828095
1505403119267241199,64,1505403119267091545,0.357710987329,0.0451978333294,-0.0775782838464,-0.00333404378034,-0.998265743256,0.00694452784956,0.0583618842065
1505403119276527745,65,1505403119276374859,0.357822477818,0.0451151430607,-0.0771342813969,-0.00334751582704,-0.998288273811,0.00712128635496,0.0579539015889
1505403119286695863,66,1505403119286595797,0.357886999846,0.0451229177415,-0.0767106339335,-0.00336363213137,-0.9983112216,0.00713584152982,0.0575545728207
1505403119297068133,67,1505403119296827435,0.357943862677,0.0451482944191,-0.0762555599213,-0.00339032127522,-0.998337566853,0.00713504943997,0.0570943728089
1505403119307164169,68,1505403119307017504,0.357974737883,0.0451219193637,-0.0758444741368,-0.00340963993222,-0.998353898525,0.00689703412354,0.0568361952901
1505403119316533510,69,1505403119316231356,0.358015656471,0.0451331585646,-0.0754666477442,-0.00347672100179,-0.99836152792,0.00682738283649,0.0567043870687
1505403119326598685,70,1505403119326420668,0.358043879271,0.0450688079,-0.0750872194767,-0.00353771611117,-0.998363852501,0.00707075465471,0.056631654501
1505403119336813525,71,1505403119336644742,0.358045071363,0.0451129823923,-0.0746747478843,-0.00352897564881,-0.998363018036,0.00716537376866,0.0566339232028
1505403119347015803,72,1505403119346914668,0.358056992292,0.045123629272,-0.0742497518659,-0.00352365337312,-0.99836397171,0.00753418589011,0.0565715394914
1505403119357326488,73,1505403119357178975,0.358074188232,0.0450696982443,-0.0738519132137,-0.0034743854776,-0.998378753662,0.00764113804325,0.0562971495092
1505403119366538703,74,1505403119366375803,0.358089447021,0.0450231023133,-0.0734527334571,-0.0034789906349,-0.99838322401,0.007790599484,0.0561985857785
1505403119376893884,75,1505403119376592961,0.35810109973,0.045070156455,-0.0730801597238,-0.00347682717256,-0.998374462128,0.00749447708949,0.0563924312592
1505403119386890431,76,1505403119386757350,0.358086168766,0.0451101772487,-0.0726772621274,-0.00347961625084,-0.998349428177,0.00720712775365,0.0568699538708
1505403119397142947,77,1505403119397000010,0.35809507966,0.0451135262847,-0.0723022148013,-0.00352098047733,-0.998328924179,0.00714760227129,0.0572347231209
1505403119406313540,78,1505403119406196513,0.358084529638,0.0451058894396,-0.0719724744558,-0.0035660485737,-0.998318016529,0.00708241993561,0.057431075722
1505403119416784135,79,1505403119416530257,0.358116567135,0.0449788570404,-0.0716482102871,-0.00354461092502,-0.998322308064,0.00740893464535,0.0573156140745
1505403119426959301,80,1505403119426823706,0.358130276203,0.0449583083391,-0.0712543055415,-0.00325822178274,-0.998329401016,0.00800294429064,0.057128418237
1505403119437411083,81,1505403119437141761,0.35810482502,0.044895876199,-0.0708113238215,-0.00318478187546,-0.998313188553,0.00865003094077,0.0573224946856
1505403119446520792,82,1505403119446377713,0.358070552349,0.0448119342327,-0.070291928947,-0.00313571700826,-0.998288989067,0.0091994497925,0.0576591566205
1505403119456815706,83,1505403119456602674,0.358042597771,0.0448651462793,-0.0697517022491,-0.00305958697572,-0.998277902603,0.00903169438243,0.0578821562231
1505403119467017670,84,1505403119466862704,0.358043849468,0.0448568463326,-0.0692485496402,-0.00302604981698,-0.998280823231,0.00845614634454,0.0579191409051
1505403119477321114,85,1505403119477123852,0.358067899942,0.0450663678348,-0.0687804892659,-0.00299994181842,-0.998301327229,0.00737527245656,0.0577170439065
1505403119486714406,86,1505403119486633573,0.35813999176,0.0451251193881,-0.068389698863,-0.00306355091743,-0.998322248459,0.00672837160528,0.057428445667
1505403119497115217,87,1505403119496985384,0.358176469803,0.0452208630741,-0.0679242834449,-0.00334969162941,-0.998325228691,0.00624390644953,0.0574159063399
1505403119506337508,88,1505403119506191029,0.358198404312,0.0452382005751,-0.0674046501517,-0.00339522003196,-0.99832701683,0.00673956843093,0.057325091213
1505403119516553813,89,1505403119516399918,0.358235776424,0.0451175607741,-0.0669764578342,-0.00335744186305,-0.998333454132,0.00721072871238,0.0571593903005
1505403119526671800,90,1505403119526568594,0.358281373978,0.045087903738,-0.0665586218238,-0.00331911072135,-0.998356342316,0.00758403679356,0.0567096695304
1505403119536972734,91,1505403119536832573,0.35833054781,0.0449654459953,-0.0661690160632,-0.00327283004299,-0.998375356197,0.00808022916317,0.0563089847565
1505403119547219883,92,1505403119547084100,0.358456939459,0.0449222922325,-0.0657739415765,-0.00336847105063,-0.998405873775,0.00852956064045,0.0556918680668
1505403119556532842,93,1505403119556363173,0.358532249928,0.0449495799839,-0.0654120519757,-0.00343182892539,-0.998423814774,0.00852839462459,0.0553656332195
1505403119567057057,94,1505403119566869772,0.35856705904,0.0448607169092,-0.0650211498141,-0.00353354564868,-0.998422205448,0.00860198680311,0.0553779453039
1505403119577299057,95,1505403119577117674,0.358592987061,0.0449803136289,-0.0646040514112,-0.00350134004839,-0.998422384262,0.00826818868518,0.0554272122681
1505403119586488149,96,1505403119586319915,0.358609527349,0.0449757315218,-0.0642121210694,-0.00335710542277,-0.998416602612,0.00814677681774,0.0555574968457
1505403119596658644,97,1505403119596503570,0.358596384525,0.0449310652912,-0.0637968629599,-0.0033013401553,-0.998400568962,0.00830963626504,0.0558256879449
1505403119606818141,98,1505403119606700246,0.358569085598,0.0449747033417,-0.0633548721671,-0.00325964391232,-0.998387932777,0.00838115997612,0.0560415312648
1505403119617099106,99,1505403119616966631,0.358545839787,0.0449748300016,-0.0628856495023,-0.00319915451109,-0.998374044895,0.00827027577907,0.0563087388873
1505403119626305935,100,1505403119626179267,0.358541637659,0.0450290106237,-0.0624020732939,-0.0033373136539,-0.998369216919,0.00820470880717,0.0563961528242
1505403119637112045,101,1505403119636455388,0.358582437038,0.0449632182717,-0.0619459822774,-0.0033575007692,-0.998368382454,0.00811587553471,0.0564226545393
1505403119646897095,102,1505403119646723622,0.358591884375,0.044962156564,-0.061453782022,-0.00344972661696,-0.998365104198,0.00778639549389,0.0565201975405
1505403119657156716,103,1505403119656963041,0.358578264713,0.0451012663543,-0.0609029829502,-0.00365379708819,-0.998362362385,0.00733130285516,0.05661707744
1505403119666344860,104,1505403119666189599,0.358599811792,0.0450595170259,-0.0604657679796,-0.00362296169624,-0.998356759548,0.00725591415539,0.0567271746695
1505403119676568738,105,1505403119676407198,0.358577489853,0.0450483523309,-0.0599397197366,-0.00360821909271,-0.998342394829,0.00735302036628,0.0569681115448
1505403119686860541,106,1505403119686669741,0.358605355024,0.04500220716,-0.0594325065613,-0.00358464661986,-0.998341619968,0.00772250723094,0.0569350086153
1505403119697053687,107,1505403119696867495,0.358630537987,0.0449507273734,-0.0589819513261,-0.00346966600046,-0.99833881855,0.00777265243232,0.0569837726653
1505403119707209727,108,1505403119707073698,0.358663827181,0.0449614413083,-0.0585409812629,-0.00333958189003,-0.99834728241,0.00770520465448,0.0568531751633
1505403119716522101,109,1505403119716343502,0.358720541,0.0448763370514,-0.0581674538553,-0.00336188590154,-0.998357236385,0.00800530333072,0.0566344335675
1505403119726781525,110,1505403119726573292,0.358766913414,0.0449177399278,-0.0577829144895,-0.00334312859923,-0.998373746872,0.00811862107366,0.0563277900219
1505403119737031158,111,1505403119736869360,0.35879021883,0.0448885262012,-0.0574265196919,-0.00335867260583,-0.998383402824,0.00827767141163,0.0561317615211
1505403119747274667,112,1505403119747152405,0.358833938837,0.0448086000979,-0.0570883378386,-0.00330484285951,-0.998391151428,0.00842366926372,0.0559749491513
1505403119756534823,113,1505403119756392554,0.358835607767,0.0448257476091,-0.0566769875586,-0.00310230790637,-0.99839001894,0.00873206090182,0.0559601187706
1505403119766855286,114,1505403119766624827,0.358783334494,0.0449180528522,-0.0562021695077,-0.00321091176011,-0.998378634453,0.00859642215073,0.0561780184507
1505403119777125511,115,1505403119776945088,0.358793914318,0.0449690446258,-0.05580868572,-0.003291180823,-0.998370289803,0.00799844693393,0.0564090386033
1505403119787233998,116,1505403119787106063,0.358801692724,0.0450145043433,-0.0554238036275,-0.00337791163474,-0.998363792896,0.00759722618386,0.0565741918981
1505403119796634017,117,1505403119796471554,0.358804792166,0.0450750924647,-0.055063020438,-0.00355660985224,-0.998358249664,0.00703291269019,0.0567343458533
1505403119806923425,118,1505403119806778802,0.358783990145,0.0451011769474,-0.0546703599393,-0.00355979567394,-0.998344957829,0.00692652957514,0.056979469955
1505403119817155512,119,1505403119816983077,0.358749061823,0.0450894869864,-0.0542625784874,-0.00369880790822,-0.998326599598,0.00718246819451,0.0572609752417
1505403119826337162,120,1505403119826160210,0.358738005161,0.0449808761477,-0.053898870945,-0.0036567687057,-0.998313128948,0.00774502102286,0.0574255213141
1505403119836568117,121,1505403119836410015,0.358687639236,0.0450282618403,-0.0534405894578,-0.0035807187669,-0.998299479485,0.00840063765645,0.0575747974217
1505403119846897784,122,1505403119846652830,0.35869833827,0.0449338518083,-0.0530059710145,-0.00355507386848,-0.99829775095,0.00874137040228,0.0575551874936
1505403119857007227,123,1505403119856856040,0.358739972115,0.0449327863753,-0.0525451377034,-0.00348559394479,-0.998309850693,0.00880097597837,0.0573403611779
1505403119867227338,124,1505403119867095809,0.358765602112,0.0450316555798,-0.0520856268704,-0.00350661785342,-0.998327493668,0.00856143515557,0.0570661872625
1505403119876522402,125,1505403119876352963,0.358910560608,0.0450725704432,-0.0516863800585,-0.00360229494981,-0.998360097408,0.0076287095435,0.0566210709512
1505403119886663223,126,1505403119886556290,0.358980894089,0.0451704747975,-0.0512261427939,-0.00372546096332,-0.998370110989,0.00717911869287,0.056495372206
1505403119896870504,127,1505403119896743639,0.359012007713,0.0452158525586,-0.0508091673255,-0.00375965656713,-0.998358130455,0.00695558823645,0.0567317456007
1505403119907298893,128,1505403119907097301,0.358986765146,0.0451799668372,-0.0503585003316,-0.003777196398,-0.998327255249,0.00726965116337,0.0572329387069
1505403119916489887,129,1505403119916321976,0.358984082937,0.0451406687498,-0.0499532260001,-0.00377253163606,-0.998313605785,0.00766337011009,0.0574191175401
1505403119926657247,130,1505403119926512204,0.358998656273,0.0450336225331,-0.0495940744877,-0.00369728286751,-0.998320758343,0.00803999975324,0.0572482086718
1505403119936872586,131,1505403119936711138,0.359040766954,0.0450700446963,-0.0492003522813,-0.00360727240331,-0.998340249062,0.00830061826855,0.0568749345839
1505403119947078724,132,1505403119946957969,0.359092801809,0.0450475104153,-0.048872102052,-0.00352858449332,-0.998358666897,0.00834384094924,0.0565510503948
1505403119956375014,133,1505403119956125179,0.359112203121,0.0450221560895,-0.0485244132578,-0.00351862236857,-0.998354792595,0.00830301363021,0.0566244572401
1505403119966478890,134,1505403119966360871,0.359152078629,0.0450632460415,-0.048168413341,-0.00347156706266,-0.998352527618,0.00826618354768,0.0566733106971
1505403119976741353,135,1505403119976618920,0.359195142984,0.0450960770249,-0.0477904826403,-0.00362137472257,-0.998345434666,0.00812653638422,0.0568091832101
1505403119986996545,136,1505403119986801271,0.359186351299,0.0451253913343,-0.0474175773561,-0.00376332830638,-0.998335719109,0.00808673910797,0.0569758936763
1505403119997186212,137,1505403119996993776,0.359192460775,0.0451354719698,-0.0470497831702,-0.00371951796114,-0.99833291769,0.00801594275981,0.0570377968252
1505403120006476741,138,1505403120006324330,0.359169989824,0.0451596751809,-0.0466172285378,-0.00368323083967,-0.998316586018,0.00815400574356,0.0573059283197
1505403120016766971,139,1505403120016597140,0.359136760235,0.0451311767101,-0.0461982861161,-0.00372709613293,-0.99830019474,0.00850731134415,0.0575361326337
1505403120026959148,140,1505403120026839505,0.35909062624,0.0451258942485,-0.0457607619464,-0.003764731111,-0.998279154301,0.00850019324571,0.0578993968666
1505403120037260941,141,1505403120037087423,0.35908305645,0.0451204515994,-0.0453717038035,-0.00382122467272,-0.998274385929,0.00847191363573,0.0579806156456
1505403120046483462,142,1505403120046288894,0.359068781137,0.045110963285,-0.0449454300106,-0.00377077772282,-0.998271524906,0.00859129615128,0.0580169856548
1505403120056715419,143,1505403120056522034,0.359118014574,0.0451207756996,-0.0445477105677,-0.00370806478895,-0.998286962509,0.00863720662892,0.0577477328479
1505403120066922353,144,1505403120066792897,0.359167069197,0.0450840257108,-0.0441560223699,-0.00363230961375,-0.998298943043,0.0086641618982,0.0575417391956
1505403120077161865,145,1505403120077031551,0.359203875065,0.0450536087155,-0.0437231846154,-0.00368576007895,-0.998299241066,0.0088917594403,0.057498279959
1505403120086366646,146,1505403120086200834,0.35926169157,0.0450200326741,-0.0432582497597,-0.00376438698731,-0.998301327229,0.0090636620298,0.0574292577803
1505403120096652695,147,1505403120096424612,0.359310984612,0.0449851118028,-0.0428468696773,-0.00382758607157,-0.998308777809,0.0090225385502,0.0573027469218
1505403120106895766,148,1505403120106721453,0.359398841858,0.0450597219169,-0.0424612164497,-0.00383780361153,-0.9983253479,0.00864508748055,0.0570715777576
1505403120117050709,149,1505403120116950579,0.359443992376,0.0451390631497,-0.0420786179602,-0.00386880571023,-0.998340845108,0.00830478500575,0.0568482019007
1505403120126286687,150,1505403120126123804,0.359489917755,0.0452269762754,-0.0416743867099,-0.0038434911985,-0.998352468014,0.00819373689592,0.0566605105996
1505403120136570188,151,1505403120136406376,0.359529137611,0.0452088937163,-0.0413348339498,-0.00371888233349,-0.998361051083,0.00816273875535,0.0565225668252
1505403120146766125,152,1505403120146633533,0.359551757574,0.045160766691,-0.0409630574286,-0.00372418761253,-0.998358905315,0.00829354673624,0.0565392337739
1505403120157121838,153,1505403120156885524,0.359560787678,0.0451831892133,-0.0405927225947,-0.00378808495589,-0.998353660107,0.00861002318561,0.0565820336342
1505403120167260056,154,1505403120167164162,0.359578073025,0.0451281070709,-0.0401694439352,-0.00386198773049,-0.99835139513,0.00903347041458,0.0565511323512
1505403120176572401,155,1505403120176406836,0.359640568495,0.045183043927,-0.0397040434182,-0.00393972638994,-0.998363137245,0.00914871133864,0.0563193298876
1505403120186726501,156,1505403120186617229,0.359679192305,0.0451375618577,-0.0393060520291,-0.00385420327075,-0.99835807085,0.00914439931512,0.0564153939486
1505403120196974407,157,1505403120196850418,0.359671592712,0.0452744029462,-0.0388686545193,-0.00385587429628,-0.998356342316,0.00821255985647,0.0565891675651
1505403120207201455,158,1505403120207056694,0.359640806913,0.045348778367,-0.0383662208915,-0.00380714307539,-0.998329401016,0.00780528970063,0.0571233183146
1505403120216412237,159,1505403120216258658,0.359616935253,0.0453588180244,-0.0379604697227,-0.00397596834227,-0.998302698135,0.00727841118351,0.0576456263661
1505403120226791367,160,1505403120226617634,0.359609693289,0.0454216487706,-0.0375103317201,-0.0040439972654,-0.998286783695,0.00731778983027,0.0579086728394
1505403120237019442,161,1505403120236878356,0.359607607126,0.0453158281744,-0.0371081978083,-0.0040496699512,-0.998275160789,0.00762755749747,0.058070205152
1505403120247251143,162,1505403120247118388,0.359613150358,0.0451602488756,-0.0367097184062,-0.0040099429898,-0.998268961906,0.00866193976253,0.0580344125628
1505403120256490523,163,1505403120256352599,0.359601587057,0.0450980551541,-0.0362692922354,-0.00387177197263,-0.998253643513,0.00921165943146,0.058221668005
1505403120266875841,164,1505403120266723259,0.359632462263,0.0450474955142,-0.0358538590372,-0.00390203366987,-0.998248815536,0.00960825383663,0.0582389757037
1505403120277055297,165,1505403120276956354,0.359695792198,0.0451879613101,-0.0354267172515,-0.00397542165592,-0.998262524605,0.00940786115825,0.0580317080021
1505403120287307963,166,1505403120287191143,0.359824419022,0.0452112294734,-0.0350685045123,-0.00393985211849,-0.99829185009,0.00899063237011,0.0575946755707
1505403120296666200,167,1505403120296515655,0.359904557467,0.0452749654651,-0.034656740725,-0.00388161744922,-0.998312592506,0.00841750577092,0.0573235340416
1505403120306931696,168,1505403120306776219,0.359889745712,0.0453867092729,-0.0341862142086,-0.00371045060456,-0.998304724693,0.0078544979915,0.0575513504446
1505403120317197579,169,1505403120317048566,0.359942883253,0.0453002564609,-0.0337889939547,-0.00382431806065,-0.998295605183,0.00773955928162,0.0577179864049
1505403120326437585,170,1505403120326335666,0.359931617975,0.045318480581,-0.0333627611399,-0.00387055426836,-0.998282134533,0.00792343262583,0.0579233467579
1505403120336771613,171,1505403120336658344,0.359946489334,0.045344080776,-0.0329756103456,-0.00394566077739,-0.998277127743,0.00802724063396,0.0579895861447
1505403120347062970,172,1505403120346899201,0.359950065613,0.045328579843,-0.0326067470014,-0.00401288084686,-0.998276889324,0.00831298157573,0.0579475387931
1505403120357302873,173,1505403120357165143,0.359954208136,0.0453775152564,-0.03224151209,-0.00384986842982,-0.9982868433,0.00830246973783,0.0577889569104
1505403120366658996,174,1505403120366507396,0.359979897738,0.0453318394721,-0.0318929515779,-0.00386435049586,-0.998288989067,0.00842108204961,0.057734400034
1505403120377100237,175,1505403120376845188,0.360002458096,0.0454696938396,-0.0314533039927,-0.00384405790828,-0.99829608202,0.00821132399142,0.0576432831585
1505403120387162820,176,1505403120387068928,0.360084146261,0.0454983823001,-0.0310551039875,-0.00398458726704,-0.998306930065,0.00796244852245,0.0574804581702
1505403120396472340,177,1505403120396310086,0.360184192657,0.045433819294,-0.0306454282254,-0.0041114478372,-0.998306214809,0.00787399336696,0.0574962347746
1505403120406706105,178,1505403120406561161,0.36017587781,0.0455188713968,-0.0300711710006,-0.00423328578472,-0.998286426067,0.00786185078323,0.057831928134
1505403120416941381,179,1505403120416798868,0.360187917948,0.045471880585,-0.0295229051262,-0.00424980791286,-0.998271286488,0.00828944891691,0.058031309396
1505403120427294677,180,1505403120427136612,0.360190302134,0.0453959815204,-0.029026536271,-0.00416535837576,-0.998260855675,0.00844141002744,0.0581934824586
1505403120436434906,181,1505403120436337019,0.360170543194,0.0454822219908,-0.0285149551928,-0.00408026995137,-0.998255431652,0.00802697055042,0.0583522357047
1505403120446789757,182,1505403120446664055,0.360169410706,0.0455729179084,-0.0280472710729,-0.00410454953089,-0.998246073723,0.00768740195781,0.0585561543703
1505403120457217317,183,1505403120457028007,0.360171556473,0.0455284304917,-0.027587370947,-0.00401444174349,-0.998237669468,0.0077775917016,0.0586934424937
1505403120466365275,184,1505403120466238714,0.360178172588,0.045553907752,-0.027146179229,-0.00407782103866,-0.998229682446,0.00757533637807,0.0588516741991
1505403120476670121,185,1505403120476517746,0.360201328993,0.0455142408609,-0.0267254840583,-0.00418866239488,-0.998223543167,0.00760236149654,0.0589444413781
1505403120486928164,186,1505403120486769832,0.36021515727,0.0455205179751,-0.0262404680252,-0.00418811617419,-0.998219251633,0.00809996761382,0.058951176703
1505403120497121785,187,1505403120496997722,0.360238820314,0.0454304888844,-0.0257859677076,-0.0041532414034,-0.998214483261,0.00854847580194,0.0589712746441
1505403120506260594,188,1505403120506124140,0.360273122787,0.0454076528549,-0.0254367720336,-0.00411094911397,-0.998219490051,0.00843316875398,0.0589053146541
1505403120516539236,189,1505403120516366464,0.360340118408,0.0454821847379,-0.0250217411667,-0.00403835671023,-0.998236715794,0.00839347392321,0.058622520417
1505403120526694069,190,1505403120526559227,0.360380619764,0.0455160662532,-0.0246200300753,-0.00401048082858,-0.998241603374,0.00814244151115,0.0585777126253
1505403120536899403,191,1505403120536738916,0.360411345959,0.0455542504787,-0.0242848042399,-0.00390028674155,-0.998250484467,0.0077026700601,0.0584938973188
1505403120547042015,192,1505403120546940865,0.360422790051,0.0455313883722,-0.0239273477346,-0.00383545970544,-0.998250305653,0.00764745846391,0.0585077144206
1505403120557283617,193,1505403120557156855,0.360460162163,0.0454807169735,-0.023540077731,-0.00384556874633,-0.998254358768,0.00775788258761,0.0584239512682
1505403120566561211,194,1505403120566439664,0.360486060381,0.0455077588558,-0.023115484044,-0.00381451845169,-0.998261868954,0.0081545971334,0.058242239058
1505403120576885971,195,1505403120576718042,0.360529601574,0.0453830100596,-0.0227352138609,-0.00379967479967,-0.99827092886,0.00848612934351,0.0580408647656
1505403120587084327,196,1505403120586920652,0.360551387072,0.0453814119101,-0.0222317855805,-0.00381285673939,-0.998280465603,0.00888901855797,0.0578146129847
1505403120596357799,197,1505403120596206607,0.3606120646,0.0454036779702,-0.0217731464654,-0.00384713895619,-0.998299658298,0.00894007366151,0.0574726648629
1505403120606580688,198,1505403120606435811,0.360653162003,0.0453872866929,-0.0212917365134,-0.00383776938543,-0.998299241066,0.00865334551781,0.057524163276
1505403120616763652,199,1505403120616633932,0.360640019178,0.0455334037542,-0.0207906477153,-0.00386090693064,-0.998281300068,0.00793054513633,0.0579358972609
1505403120627010885,200,1505403120626872973,0.360619843006,0.0456584692001,-0.0203284434974,-0.00405674055219,-0.998257756233,0.00694460747764,0.0584537908435
1505403120637224010,201,1505403120637091788,0.360606789589,0.0457396507263,-0.0198341105133,-0.00425114529207,-0.998239576817,0.00662345858291,0.0587854348123
1505403120646412892,202,1505403120646284644,0.360610306263,0.0457511544228,-0.0193958878517,-0.00423120101914,-0.998233616352,0.00654105981812,0.0588971599936
1505403120656762012,203,1505403120656659423,0.360634952784,0.0456495918334,-0.0189465191215,-0.00427554827183,-0.998233556747,0.00699515314773,0.0588436871767
1505403120667091297,204,1505403120666917401,0.360637933016,0.0456272214651,-0.018436126411,-0.00408964371309,-0.998224437237,0.00752993952483,0.0589456371963
1505403120677303342,205,1505403120677149500,0.360662311316,0.0456025972962,-0.0180057305843,-0.00409575691447,-0.998223125935,0.00766621017829,0.0589494965971
1505403120686447677,206,1505403120686359980,0.360726863146,0.045595318079,-0.0176164936274,-0.00412182044238,-0.998235523701,0.00752828689292,0.0587548539042
1505403120696808254,207,1505403120696610436,0.36078953743,0.045672070235,-0.0171626955271,-0.00421679811552,-0.99825835228,0.00704107899219,0.0584196001291
1505403120706981370,208,1505403120706840704,0.360851734877,0.0457118488848,-0.0167685262859,-0.00413809623569,-0.998270332813,0.00669507915154,0.0582621395588
1505403120717246077,209,1505403120717094684,0.360872685909,0.0458396598697,-0.016365583986,-0.00399980926886,-0.998268127441,0.00614925660193,0.0583678148687
1505403120726413071,210,1505403120726264670,0.360858589411,0.0458087548614,-0.0159819498658,-0.00395887997001,-0.998241662979,0.00614653527737,0.0588227026165
1505403120736660124,211,1505403120736511653,0.360834717751,0.0458553954959,-0.015613921918,-0.004110801965,-0.998221337795,0.00602993462235,0.0591679215431
1505403120746850106,212,1505403120746759049,0.360850930214,0.0458734482527,-0.015224462375,-0.00415021041408,-0.998219370842,0.00604600831866,0.0591966323555
1505403120757171143,213,1505403120756952610,0.360872238874,0.0457276962698,-0.0148493768647,-0.00415667705238,-0.998229503632,0.00663632387295,0.0589617304504
1505403120766318545,214,1505403120766095150,0.360896110535,0.0456320568919,-0.0144647350535,-0.00400831038132,-0.998240590096,0.00725833559409,0.0587106831372
1505403120776564852,215,1505403120776417475,0.360903561115,0.0456101149321,-0.0140246059746,-0.00374094443396,-0.998242974281,0.00735800433904,0.0586761720479
1505403120786854660,216,1505403120786680438,0.360953748226,0.0456858687103,-0.0135769229382,-0.00387251633219,-0.998246073723,0.00717724859715,0.05863622576
1505403120797075682,217,1505403120796901879,0.360978662968,0.0457489602268,-0.0131235988811,-0.00402949517593,-0.998236298561,0.00699601974338,0.0588155835867
1505403120807280464,218,1505403120807123231,0.361026734114,0.0457583963871,-0.0126682845876,-0.00423339754343,-0.998236060143,0.0067469435744,0.0588332936168
1505403120816484230,219,1505403120816324799,0.361017853022,0.0457499139011,-0.0121997939423,-0.00436830101535,-0.99822640419,0.00668927282095,0.0589929297566
1505403120826634038,220,1505403120826530574,0.360992878675,0.0457822419703,-0.011746391654,-0.00436260737479,-0.998216509819,0.00655405363068,0.0591760538518
1505403120836894614,221,1505403120836732636,0.360973834991,0.0458034016192,-0.0112903807312,-0.00424723001197,-0.998210668564,0.0064407014288,0.0592963248491
1505403120847091319,222,1505403120846965577,0.360993087292,0.0458175875247,-0.0108346063644,-0.00426781084388,-0.998214840889,0.00659702531993,0.0592062100768
1505403120856428708,223,1505403120856129935,0.361006736755,0.0458277352154,-0.0103687131777,-0.00433591660112,-0.998217701912,0.00690837204456,0.0591177456081
1505403120866520748,224,1505403120866355967,0.361039429903,0.0458315499127,-0.0099534438923,-0.00433747237548,-0.998218595982,0.00667641917244,0.0591292269528
1505403120876778944,225,1505403120876611888,0.361057549715,0.0458825193346,-0.00948942732066,-0.00430568074808,-0.998208940029,0.00634207483381,0.0593309178948
1505403120886909270,226,1505403120886784522,0.361120074987,0.0458873771131,-0.00913868658245,-0.00431137857959,-0.998216450214,0.00626759137958,0.0592113360763
1505403120897153916,227,1505403120897004851,0.361183792353,0.0458141826093,-0.00875102076679,-0.00427930336446,-0.998223781586,0.00645943498239,0.0590695664287
1505403120906379029,228,1505403120906150447,0.361251831055,0.0458048284054,-0.00836460385472,-0.0041126916185,-0.99823307991,0.00676573440433,0.0588902942836
1505403120916579157,229,1505403120916400439,0.36130169034,0.0456994213164,-0.00796522758901,-0.00407715933397,-0.998233258724,0.00723552564159,0.0588342249393
1505403120926836707,230,1505403120926669578,0.361322581768,0.0456864126027,-0.00750997103751,-0.00413869740441,-0.998234629631,0.00761508289725,0.0587583296001
1505403120937020176,231,1505403120936880477,0.361365020275,0.0457127504051,-0.00713039003313,-0.00413676304743,-0.998245537281,0.00735199032351,0.0586063861847
1505403120947294307,232,1505403120947140366,0.361408889294,0.0457925647497,-0.00677262851968,-0.00412679929286,-0.998249650002,0.00694458978251,0.0585861839354
1505403120956533355,233,1505403120956345114,0.361393779516,0.045911911875,-0.00628321198747,-0.00423577660695,-0.998236298561,0.00670884596184,0.0588329434395
1505403120966702112,234,1505403120966548874,0.361392110586,0.0458782501519,-0.00583632988855,-0.00433504581451,-0.998215138912,0.00670848414302,0.0591832622886
1505403120976951983,235,1505403120976771867,0.361360967159,0.0458254255354,-0.00539726158604,-0.00435596192256,-0.998197376728,0.00677932659164,0.0594737865031
1505403120987140817,236,1505403120987039949,0.361354500055,0.0458412580192,-0.00496068783104,-0.00437472015619,-0.998195528984,0.00667262729257,0.0595150031149
1505403120996477461,237,1505403120996313837,0.361378341913,0.0458842478693,-0.00456778844818,-0.00438270904124,-0.998203337193,0.00651748664677,0.0594015605748
1505403121006659803,238,1505403121006583293,0.361428916454,0.0459212623537,-0.00413448689505,-0.00421957159415,-0.998216748238,0.006561470218,0.0591813437641
1505403121016961337,239,1505403121016827293,0.3614821136,0.0459271781147,-0.00374740827829,-0.00421795295551,-0.998232960701,0.00630236370489,0.0589352957904
1505403121027155440,240,1505403121027023827,0.361530214548,0.0459101237357,-0.00337020377629,-0.00427090236917,-0.998240947723,0.00624814769253,0.0588029250503
1505403121036381703,241,1505403121036223153,0.361550420523,0.0459622144699,-0.00298388605006,-0.00430365325883,-0.998235523701,0.00597967393696,0.0589206069708
1505403121046585973,242,1505403121046460209,0.361527830362,0.0459446124732,-0.00259645353071,-0.0043000462465,-0.998208701611,0.00584530178457,0.0593860894442
1505403121056892582,243,1505403121056738147,0.36147877574,0.045941259712,-0.00225699227303,-0.00439074449241,-0.998163700104,0.00594322243705,0.0601221621037
1505403121067144032,244,1505403121066991496,0.361422985792,0.0459262877703,-0.00193439866416,-0.0044122710824,-0.998120367527,0.0059894551523,0.0608313754201
1505403121076320149,245,1505403121076191166,0.361373454332,0.0459548048675,-0.00156424357556,-0.00440708128735,-0.998088181019,0.00606155442074,0.0613495409489
1505403121086514757,246,1505403121086372040,0.361362814903,0.0459188744426,-0.00126873934641,-0.00442290725186,-0.998080253601,0.00637571327388,0.0614459812641
1505403121096730326,247,1505403121096594575,0.36138305068,0.0458701550961,-0.000998853938654,-0.00437338184565,-0.9980879426,0.00641049165279,0.0613211430609
1505403121107095622,248,1505403121106921269,0.361470460892,0.0459038615227,-0.000712754204869,-0.00425208872184,-0.998122036457,0.00622825883329,0.0607903636992
1505403121117330088,249,1505403121117145577,0.361589640379,0.045943453908,-0.000458097201772,-0.00425604078919,-0.998156070709,0.00611216574907,0.0602411665022
1505403121126480553,250,1505403121126351398,0.361696064472,0.0459796153009,-0.000161968768225,-0.00431019812822,-0.998188614845,0.00621683523059,0.0596843250096
1505403121136900901,251,1505403121136693192,0.361782521009,0.0459408611059,0.000129135049065,-0.00439673475921,-0.998207390308,0.00631553027779,0.0593531131744
1505403121147008689,252,1505403121146913032,0.361833631992,0.0459407567978,0.000441963464255,-0.00430388981476,-0.998213589191,0.00624707434326,0.059263240546
1505403121157322550,253,1505403121157118379,0.361846208572,0.0459962300956,0.000816712214146,-0.0042203408666,-0.998208284378,0.00614412268624,0.059368211776
1505403121166604081,254,1505403121166380524,0.361861974001,0.0460266582668,0.00114085909445,-0.00424872292206,-0.998204648495,0.00589893572032,0.0594529770315
1505403121176684893,255,1505403121176572313,0.361841320992,0.0460865013301,0.00146734714508,-0.00441806018353,-0.998194813728,0.00544328708202,0.0596484951675
1505403121186887959,256,1505403121186756677,0.361820697784,0.0460774935782,0.00184901326429,-0.00447191437706,-0.998188793659,0.00534885749221,0.0597536228597
1505403121197136331,257,1505403121196972485,0.361819803715,0.0460481755435,0.00222402112558,-0.00447962898761,-0.998189270496,0.00556070450693,0.0597253367305
1505403121206381023,258,1505403121206161094,0.361864596605,0.0459498055279,0.00255973939784,-0.00450259959325,-0.998206496239,0.00602725101635,0.0593903176486
1505403121216520892,259,1505403121216381802,0.36192175746,0.0459379926324,0.00290873413906,-0.00448899064213,-0.998225212097,0.00627771671861,0.0590484514832
1505403121226746583,260,1505403121226618689,0.362025976181,0.0459401011467,0.00321900076233,-0.00455458415672,-0.998250842094,0.0063054850325,0.0586073324084
1505403121237049073,261,1505403121236883895,0.36212143302,0.0459116138518,0.0035791893024,-0.00458252569661,-0.998262941837,0.00636242795736,0.0583913773298
1505403121247241166,262,1505403121247092304,0.362199395895,0.0458864048123,0.004000980407,-0.00470249122009,-0.998272240162,0.00646809441969,0.0582112073898
1505403121256440939,263,1505403121256290252,0.362239480019,0.0459014028311,0.0043958616443,-0.00473087094724,-0.998273432255,0.00620142929256,0.0582166723907
1505403121266650568,264,1505403121266500851,0.362283051014,0.0458970591426,0.00480206916109,-0.00466140965,-0.998279869556,0.00582185015082,0.058152616024
1505403121276930585,265,1505403121276766969,0.362285137177,0.0460031405091,0.0052269436419,-0.00468971114606,-0.998284161091,0.00516979862005,0.0581375211477
1505403121287193929,266,1505403121287082541,0.362278819084,0.0460371635854,0.00564658921212,-0.00451395334676,-0.998282909393,0.00479154940695,0.0582050010562
1505403121296466820,267,1505403121296324174,0.362272828817,0.0460261814296,0.00602753879502,-0.00450696144253,-0.998273491859,0.0048639732413,0.0583612322807
1505403121306723178,268,1505403121306562904,0.362237095833,0.0459844991565,0.00645338278264,-0.00455629592761,-0.998257577419,0.00481651164591,0.058633312583
1505403121316973472,269,1505403121316801640,0.362199664116,0.0459372140467,0.00693974923342,-0.00452679302543,-0.998231589794,0.0054915859364,0.0590180046856
1505403121327206940,270,1505403121327028993,0.362180888653,0.0460193939507,0.0073792678304,-0.00442944047973,-0.998217999935,0.00549837993458,0.0592539645731
1505403121336440939,271,1505403121336303024,0.36216968298,0.0459982231259,0.00773837836459,-0.0042891735211,-0.998204886913,0.00528951967135,0.0595034100115
1505403121346688701,272,1505403121346574022,0.362192809582,0.0460316948593,0.00805920362473,-0.00418219668791,-0.998204052448,0.00483030453324,0.0595625787973
1505403121357168709,273,1505403121356922288,0.362211495638,0.0459734536707,0.00845199916512,-0.00426656659693,-0.998199164867,0.00515728956088,0.0596119984984
1505403121367363153,274,1505403121367180395,0.362191259861,0.0460374727845,0.00880787149072,-0.00435335934162,-0.998188793659,0.00497372727841,0.0597954802215
1505403121376633533,275,1505403121376419845,0.362204551697,0.0459681972861,0.00912143103778,-0.00437269825488,-0.998180568218,0.0051730806008,0.0599141530693
1505403121386816989,276,1505403121386683435,0.362217277288,0.0459552481771,0.00948448572308,-0.00435317540541,-0.998178064823,0.00519133638591,0.059955123812
1505403121397007397,277,1505403121396880292,0.362242549658,0.0459932386875,0.00982611998916,-0.00431780098006,-0.998184978962,0.00534712383524,0.0598279908299
1505403121407274104,278,1505403121407128176,0.362294077873,0.0459935627878,0.0101119494066,-0.00427547330037,-0.998200118542,0.00544928340241,0.0595704615116
1505403121416518233,279,1505403121416357921,0.362365961075,0.0458639860153,0.0104181542993,-0.00430547678843,-0.998206853867,0.0056757661514,0.0594328902662
1505403121426690907,280,1505403121426556556,0.362438291311,0.0457913540304,0.0107627138495,-0.00443095294759,-0.998214960098,0.00599378859624,0.0592565871775
1505403121437033825,281,1505403121436833187,0.362475305796,0.0458317920566,0.0110911075026,-0.00447628321126,-0.998208343983,0.00611990736797,0.0593523979187
1505403121447156824,282,1505403121447036100,0.362457245588,0.0457401610911,0.0114548346028,-0.00437451293692,-0.998188793659,0.00634061545134,0.0596644692123
1505403121456559327,283,1505403121456278312,0.362449645996,0.0457888282835,0.0117920450866,-0.00443397695199,-0.998178124428,0.0060828095302,0.0598651207983
1505403121466901042,284,1505403121466655091,0.362432897091,0.0458828322589,0.01214395836,-0.00427763350308,-0.998177945614,0.00580968195572,0.059906270355
1505403121477067537,285,1505403121476907743,0.362457662821,0.0459039956331,0.012472210452,-0.0044169742614,-0.99818789959,0.00552360573784,0.0597565807402
1505403121487172311,286,1505403121487070537,0.362475931644,0.0459976010025,0.0128131881356,-0.00435661012307,-0.998202443123,0.00510484119877,0.0595549158752
1505403121496525752,287,1505403121496344564,0.362514644861,0.0460194125772,0.0131150819361,-0.00438708579168,-0.998217999935,0.00482711428776,0.0593142993748
1505403121506695377,288,1505403121506538986,0.362583011389,0.0460536964238,0.0134768113494,-0.00436732778326,-0.998246848583,0.00481499638408,0.0588303692639
1505403121516983897,289,1505403121516795803,0.362684816122,0.0461483709514,0.0138757750392,-0.00435974821448,-0.998278081417,0.00473581114784,0.0583052150905
1505403121527156057,290,1505403121527038763,0.36274677515,0.0461110398173,0.0142572931945,-0.00435611978173,-0.998285353184,0.00479185115546,0.0581761263311
1505403121536488043,291,1505403121536364156,0.362774640322,0.0462239459157,0.014648636803,-0.00437047192827,-0.99828338623,0.0042361128144,0.0582512617111
1505403121546729548,292,1505403121546585557,0.362767785788,0.0462383069098,0.0150313451886,-0.00443706056103,-0.998264253139,0.00382818561047,0.0586010701954
1505403121556994547,293,1505403121556820534,0.362716406584,0.0462919101119,0.0153572680429,-0.00436047604308,-0.998235464096,0.00334571558051,0.059123672545
1505403121566285783,294,1505403121566137328,0.362635463476,0.046343781054,0.0156747680157,-0.00435661897063,-0.998199999332,0.00333249894902,0.0597217008471
1505403121576577606,295,1505403121576397765,0.362531781197,0.0462923832238,0.0159132368863,-0.00437445472926,-0.998157024384,0.00333827268332,0.0604348406196
1505403121586821334,296,1505403121586617724,0.362422287464,0.0461871773005,0.0161047056317,-0.00438701594248,-0.998122036457,0.00384225416929,0.060978975147
1505403121597083338,297,1505403121596825884,0.36233574152,0.046076644212,0.0163318812847,-0.00428012479097,-0.998099446297,0.00468794070184,0.0612959340215
1505403121607294310,298,1505403121607105640,0.362342298031,0.0460234880447,0.0164871588349,-0.00422869576141,-0.998104155064,0.00512382853776,0.0611874312162
1505403121616558409,299,1505403121616404701,0.362396359444,0.046035695821,0.0165989082307,-0.00415625981987,-0.998123705387,0.00530843716115,0.0608564838767
1505403121626735835,300,1505403121626617579,0.36248254776,0.0460260733962,0.0167213845998,-0.00408958038315,-0.998152196407,0.00521291512996,0.0604012794793
1505403121636974787,301,1505403121636827594,0.362579196692,0.0460253469646,0.0168884452432,-0.00409030169249,-0.998174965382,0.00532679026946,0.0600130520761
1505403121647270468,302,1505403121647024375,0.362665563822,0.0459918379784,0.0170784685761,-0.00409972947091,-0.998188853264,0.00559208542109,0.0597583055496
1505403121656454000,303,1505403121656292867,0.362733513117,0.0459506250918,0.0172968488187,-0.00412403140217,-0.998197674751,0.00554921384901,0.059612184763
1505403121666622267,304,1505403121666485613,0.362789064646,0.0459434166551,0.0175371691585,-0.00413059117272,-0.998210072517,0.00568632921204,0.0593910142779
1505403121676948507,305,1505403121676744989,0.362825930119,0.0459962971509,0.0178257003427,-0.00407697632909,-0.998220443726,0.00564847094938,0.0592235848308
1505403121687205062,306,1505403121687068270,0.362802088261,0.0460357628763,0.0181362163275,-0.00411293376237,-0.998223721981,0.00564557733014,0.0591668449342
1505403121696416888,307,1505403121696255063,0.362785995007,0.0460051037371,0.018428677693,-0.00405583763495,-0.99821460247,0.00530623784289,0.0593549311161
1505403121706627236,308,1505403121706493607,0.362743884325,0.045998416841,0.0186820942909,-0.00402351468801,-0.998204410076,0.00492530595511,0.0595614388585
1505403121716924530,309,1505403121716707902,0.362676501274,0.0460513569415,0.0190162882209,-0.00408360594884,-0.998186826706,0.00483988411725,0.0598582029343
1505403121727042718,310,1505403121726909049,0.362627089024,0.0460289381444,0.0193256940693,-0.00402281666175,-0.998159945011,0.00496346224099,0.060298115015
1505403121737289858,311,1505403121737155663,0.362600892782,0.0459549091756,0.0195670258254,-0.00396323204041,-0.998143851757,0.00521955359727,0.0605472847819
1505403121746468913,312,1505403121746356449,0.362568795681,0.0459660962224,0.0198410879821,-0.00395575305447,-0.998127579689,0.00538325542584,0.0608007833362
1505403121756656679,313,1505403121756552443,0.362574934959,0.045967772603,0.0200374424458,-0.00396829005331,-0.998126089573,0.00523146614432,0.0608384981751
1505403121766927169,314,1505403121766776201,0.362610161304,0.0459608100355,0.0202127490193,-0.00395400263369,-0.998134732246,0.00527977291495,0.0606926493347
1505403121777242551,315,1505403121777087316,0.362679958344,0.0459233224392,0.0204110872,-0.00392519263551,-0.998148560524,0.00587443541735,0.0604122728109
1505403121786482374,316,1505403121786341011,0.362736135721,0.0459223017097,0.0205727498978,-0.00392112974077,-0.998158037663,0.0056728720665,0.060274142772
1505403121796658835,317,1505403121796551358,0.362800627947,0.0459405146539,0.020823372528,-0.00387318036519,-0.998176157475,0.00605786545202,0.0599382519722
1505403121806976227,318,1505403121806808376,0.362839102745,0.0459075756371,0.0210792906582,-0.00388806895353,-0.998185276985,0.00618453789502,0.059773504734
1505403121817233641,319,1505403121817087168,0.362877577543,0.0458255335689,0.0213152654469,-0.00391299184412,-0.998193800449,0.00618840521201,0.0596279017627
1505403121826462370,320,1505403121826328113,0.362865954638,0.0459478199482,0.0216633100063,-0.00393834430724,-0.99819201231,0.0060546961613,0.0596693754196
1505403121836816134,321,1505403121836578411,0.362868070602,0.0459733381867,0.0219441596419,-0.00400652689859,-0.99819034338,0.00596125330776,0.0597030557692
1505403121847006571,322,1505403121846823544,0.362879127264,0.0459674112499,0.0222115442157,-0.00391331966966,-0.998188078403,0.00574370846152,0.0597682222724
1505403121857324270,323,1505403121857114933,0.362841308117,0.045980297029,0.0225054677576,-0.00391825195402,-0.998178243637,0.005565835163,0.059949927032
1505403121866421071,324,1505403121866280380,0.362825870514,0.0459672957659,0.0227749850601,-0.00392164289951,-0.998168706894,0.00551006058231,0.0601119361818
1505403121876749780,325,1505403121876535335,0.362804144621,0.0460773743689,0.0230474900454,-0.00385144911706,-0.998162567616,0.00532225333154,0.0602353513241
1505403121886844330,326,1505403121886731006,0.362795948982,0.0460525043309,0.0232655033469,-0.00388674181886,-0.998155236244,0.00525103136897,0.0603610500693
1505403121897143884,327,1505403121897000527,0.362781345844,0.0460482724011,0.0234888251871,-0.0039449124597,-0.998141169548,0.00542125897482,0.0605735629797
1505403121906476568,328,1505403121906277929,0.362774699926,0.0460826605558,0.0237096268684,-0.00398891698569,-0.99813503027,0.00551333045587,0.0606641061604
1505403121916601991,329,1505403121916489814,0.36279207468,0.0460036844015,0.0239274036139,-0.00397956138477,-0.998131215572,0.0057312650606,0.060708001256
1505403121926876424,330,1505403121926692224,0.362798929214,0.0460373274982,0.0241230148822,-0.00399941718206,-0.998134016991,0.00561182992533,0.0606697462499
1505403121937171817,331,1505403121937028010,0.362860143185,0.0460573285818,0.0242831259966,-0.004045589827,-0.998146474361,0.00535784009844,0.060485728085
1505403121946402878,332,1505403121946225941,0.36289665103,0.0460841134191,0.0244476255029,-0.00398625759408,-0.998150408268,0.00517339026555,0.0604411773384
1505403121956819422,333,1505403121956634167,0.362886995077,0.0460811555386,0.024642881006,-0.00399357173592,-0.998138904572,0.00526329595596,0.0606226250529
1505403121966979826,334,1505403121966866138,0.362908512354,0.0460308603942,0.0248081032187,-0.00399547303095,-0.998139679432,0.00545118376613,0.0605927780271
1505403121977277020,335,1505403121977118141,0.362911105156,0.0460159033537,0.0249914322048,-0.00396614940837,-0.998142540455,0.00567198498175,0.0605269558728
1505403121986473979,336,1505403121986309360,0.362902849913,0.0460110493004,0.0250988136977,-0.00389114068821,-0.998141467571,0.00553950294852,0.0605621635914
1505403121996639215,337,1505403121996509091,0.362906932831,0.045963421464,0.0251992121339,-0.00387174473144,-0.998136997223,0.00555929541588,0.0606345646083
1505403122006936210,338,1505403122006753014,0.362854748964,0.04598332569,0.025388950482,-0.00393377011642,-0.998120367527,0.00591266341507,0.060871142894
1505403122017116617,339,1505403122016958223,0.362842977047,0.0459669791162,0.0255297273397,-0.00391896814108,-0.998114407063,0.00612843222916,0.0609481781721
1505403122027343478,340,1505403122027168870,0.362857371569,0.0459134429693,0.0256423130631,-0.00396825280041,-0.99812245369,0.00608948851004,0.0608178079128
1505403122036584224,341,1505403122036387622,0.362875819206,0.0459642931819,0.0257575437427,-0.00391597021371,-0.998135089874,0.00590754440054,0.0606299638748
1505403122046746134,342,1505403122046588273,0.362903654575,0.0460322611034,0.0258817188442,-0.0038707011845,-0.998139262199,0.00545463850722,0.0606072098017
1505403122056902078,343,1505403122056769985,0.362944185734,0.0460311509669,0.0260053351521,-0.00395749742165,-0.998135089874,0.00543262250721,0.060672916472
1505403122067084400,344,1505403122066961041,0.362951993942,0.0460353605449,0.0261605959386,-0.00402352074161,-0.998128950596,0.00569277070463,0.0607452206314
1505403122076348034,345,1505403122076134164,0.362978130579,0.0459720119834,0.0263159312308,-0.0040506045334,-0.998130977154,0.00599740305915,0.0606801509857
1505403122086432362,346,1505403122086356114,0.362999409437,0.0459437668324,0.0264465548098,-0.00394484167919,-0.998149991035,0.00610551377758,0.0603642016649
1505403122096697675,347,1505403122096545075,0.363048046827,0.0459222942591,0.026542916894,-0.00381859065965,-0.998172998428,0.00608500465751,0.0599926710129
1505403122106962895,348,1505403122106792678,0.36307066679,0.0459190681577,0.026647163555,-0.00379515159875,-0.998180985451,0.00608296319842,0.0598606318235
1505403122117177967,349,1505403122117025367,0.363062918186,0.0459910593927,0.0268464777619,-0.00389001099393,-0.998175084591,0.00605611782521,0.0599554032087
1505403122126377548,350,1505403122126236749,0.363070875406,0.0459482446313,0.0270133428276,-0.00394047563896,-0.998164534569,0.00616296799853,0.0601180717349
1505403122136648849,351,1505403122136470176,0.36311429739,0.0459574945271,0.0271391849965,-0.00399358244613,-0.998179256916,0.00601803418249,0.0598839297891
1505403122146778913,352,1505403122146676004,0.363134145737,0.0460220612586,0.0272903759032,-0.00389280170202,-0.998199939728,0.00563867995515,0.0595814213157
1505403122157290168,353,1505403122156992133,0.363184154034,0.0459801927209,0.0274186190218,-0.0038561092224,-0.998221457005,0.00565081415698,0.0592207983136
1505403122166346755,354,1505403122166177891,0.363210678101,0.0460263118148,0.0275723617524,-0.00378351006657,-0.998222053051,0.00556453876197,0.059223216027
1505403122176604609,355,1505403122176433379,0.36321669817,0.0459551997483,0.0277926605195,-0.00385455344804,-0.998207330704,0.00605796230957,0.0594197921455
1505403122186797432,356,1505403122186655204,0.36319360137,0.0459977313876,0.028016936034,-0.00391852343455,-0.998190999031,0.00608563330024,0.0596842765808
1505403122197026170,357,1505403122196871378,0.363178044558,0.0460748337209,0.0281836036593,-0.00408443342894,-0.998188495636,0.0057251593098,0.0597512461245
1505403122207392106,358,1505403122207128923,0.363176375628,0.0460245534778,0.0283349063247,-0.00407064566389,-0.998196542263,0.00553892599419,0.0596355237067
1505403122216588580,359,1505403122216426343,0.363171488047,0.0460891723633,0.028510497883,-0.00393687328324,-0.998203098774,0.00529810786247,0.0595561787486
1505403122226751263,360,1505403122226620688,0.363190352917,0.0460865497589,0.0286866631359,-0.00390355638228,-0.998206138611,0.00553533528,0.0594858005643
1505403122237077565,361,1505403122236871406,0.363194614649,0.0460271909833,0.0288743358105,-0.00397290382534,-0.998191535473,0.00567274075001,0.0597139522433
1505403122247225679,362,1505403122247103912,0.36317422986,0.0460863560438,0.0290508512408,-0.00400930270553,-0.998171150684,0.00567657267675,0.0600509345531
1505403122256647946,363,1505403122256403818,0.363180249929,0.0460591353476,0.0292004626244,-0.00405350653455,-0.998157739639,0.00564550329,0.0602729320526
1505403122266802462,364,1505403122266621693,0.363192886114,0.0460629165173,0.0293740127236,-0.0040382258594,-0.998158574104,0.00571953784674,0.0602538362145
1505403122277223359,365,1505403122276913404,0.363218516111,0.0460917726159,0.0295118186623,-0.00393460504711,-0.998174369335,0.00552662787959,0.0600160062313
1505403122287231107,366,1505403122287114991,0.363245069981,0.046035874635,0.0296746250242,-0.00384185090661,-0.998182177544,0.00575458584353,0.0598708577454
1505403122296446134,367,1505403122296322949,0.363274633884,0.0461018122733,0.0298757832497,-0.00385424005799,-0.998189926147,0.00569484941661,0.0597466342151
1505403122306684738,368,1505403122306546618,0.363309949636,0.0461092218757,0.0300434492528,-0.00389856100082,-0.99819457531,0.0055165742524,0.05968272686
1505403122316964745,369,1505403122316794440,0.363366961479,0.0461625568569,0.0302255619317,-0.00391510594636,-0.998211026192,0.005320915021,0.0594237819314
1505403122327151941,370,1505403122327044843,0.363407224417,0.0461972914636,0.0304302927107,-0.00384086673148,-0.998229384422,0.00510809151456,0.0591367594898
1505403122336500083,371,1505403122336348363,0.363457322121,0.0461676381528,0.0305930264294,-0.00380140380003,-0.998251676559,0.00502335652709,0.0587703920901
1505403122346742118,372,1505403122346584002,0.36346745491,0.0462691038847,0.0308308936656,-0.00367533438839,-0.998259663582,0.00484715634957,0.0586566254497
1505403122356899033,373,1505403122356782908,0.363476216793,0.0462250597775,0.0310234297067,-0.00368291372433,-0.998258888721,0.00497848819941,0.0586587563157
1505403122367124898,374,1505403122367040471,0.363464772701,0.0462117791176,0.0311259310693,-0.00368271977641,-0.998257696629,0.00483118183911,0.0586903132498
1505403122376571923,375,1505403122376367868,0.363453000784,0.0461846217513,0.0312174577266,-0.00368837080896,-0.998258531094,0.00485298177227,0.0586745031178
1505403122386666416,376,1505403122386543017,0.363438397646,0.0462128445506,0.0312768593431,-0.00369697180577,-0.998260557652,0.00481094932184,0.0586435385048
1505403122396889615,377,1505403122396757518,0.363412708044,0.0462888032198,0.0313221514225,-0.00369768985547,-0.998251140118,0.00477670133114,0.058805372566
1505403122407177603,378,1505403122407014560,0.363379567862,0.0462106540799,0.0313932262361,-0.00368970027193,-0.998228132725,0.00512976106256,0.0591667033732
