%time,field.header.seq,field.header.stamp,field.header.frame_id,field.pose.position.x,field.pose.position.y,field.pose.position.z,field.pose.orientation.x,field.pose.orientation.y,field.pose.orientation.z,field.pose.orientation.w
1505403118526890373,51084,1505403118526780006,0.0612257309258,1.05268132687,-0.0490187332034,-0.0144452955574,0.0253128223121,-0.0109837856144,0.999514818192
1505403118537124028,51085,1505403118536989634,0.0600991360843,1.0524917841,-0.0507665127516,-0.0139416223392,0.0254206899554,-0.0114902937785,0.999513626099
1505403118546462399,51086,1505403118546303479,0.0589685030282,1.05232298374,-0.0526306666434,-0.0138537865132,0.0260298959911,-0.0121779087931,0.999490976334
1505403118556747099,51087,1505403118556545465,0.0579908192158,1.05215418339,-0.0543919093907,-0.0129434671253,0.0261434800923,-0.0119276409969,0.999503135681
1505403118567066935,51088,1505403118566907893,0.0569078996778,1.0519592762,-0.056326918304,-0.0124676069245,0.0256784427911,-0.0124447764829,0.99951505661
1505403118577412890,51089,1505403118577235254,0.0558600388467,1.05167353153,-0.0583322271705,-0.0114374347031,0.0260326601565,-0.0128217712045,0.99951338768
1505403118586570268,51090,1505403118586456214,0.0547403804958,1.05144643784,-0.0600417330861,-0.0109571674839,0.0264788158238,-0.0131694190204,0.999502539635
1505403118596854242,51091,1505403118596683654,0.0536609664559,1.05122542381,-0.0621275939047,-0.0107230413705,0.0269391201437,-0.0135345393792,0.999487936497
1505403118607037261,51092,1505403118606898745,0.0526534058154,1.05107486248,-0.06382368505,-0.0101299509406,0.0269031785429,-0.0136748757213,0.999493181705
1505403118617376599,51093,1505403118617109391,0.0516191832721,1.05089271069,-0.0659001246095,-0.00968385394663,0.0265708453953,-0.0142459068447,0.999498546124
1505403118626581064,51094,1505403118626432539,0.0505650341511,1.05068230629,-0.0679729506373,-0.00878865923733,0.0265605915338,-0.0147841721773,0.999499261379
1505403118636914684,51095,1505403118636699019,0.0494330450892,1.05053138733,-0.0696279406548,-0.0082025937736,0.0267944857478,-0.0156277827919,0.999485135078
1505403118647075367,51096,1505403118646913390,0.0483944267035,1.05026495457,-0.0720098018646,-0.00732161477208,0.0271414704621,-0.0158723909408,0.999478816986
1505403118657335192,51097,1505403118657175318,0.047434411943,1.05010020733,-0.0737026482821,-0.00702659459785,0.0272912401706,-0.0162235032767,0.999471187592
1505403118666555018,51098,1505403118666418810,0.0464236736298,1.04994523525,-0.0756370127201,-0.00677618011832,0.0271578747779,-0.0168706588447,0.999465823174
1505403118687026005,51099,1505403118686861900,0.0453951247036,1.04987061024,-0.0779506787658,-0.0063473903574,0.0271012187004,-0.0173961147666,0.999461174011
1505403118737006502,51100,1505403118736876099,0.0396678559482,1.04872131348,-0.0893057063222,-0.00526090711355,0.0276834312826,-0.0201554503292,0.999399662018
1505403118746195138,51101,1505403118746092878,0.0387747362256,1.04849469662,-0.0913719087839,-0.0049632913433,0.0281848926097,-0.0204698201269,0.999380767345
1505403118756543119,51102,1505403118756346922,0.0379555895925,1.04814958572,-0.0935935974121,-0.00417474564165,0.0280836131424,-0.0200403351337,0.99939596653
1505403118766693397,51103,1505403118766552790,0.0370729789138,1.04798960686,-0.0952550768852,-0.00463864021003,0.0280532129109,-0.0207513701171,0.999380171299
1505403118776960921,51104,1505403118776799101,0.0362319797277,1.04767465591,-0.0975266471505,-0.00367282913066,0.0282134134322,-0.0207035280764,0.999380767345
1505403118787205932,51105,1505403118787044884,0.0354282148182,1.04735553265,-0.0993158519268,-0.00340708903968,0.0280927550048,-0.0212164111435,0.999374270439
1505403118796406801,51106,1505403118796241714,0.0346173793077,1.04704928398,-0.101327903569,-0.00287441187538,0.0286017041653,-0.0213712509722,0.999358296394
1505403118806583629,51107,1505403118806437900,0.0338575989008,1.0467042923,-0.103440858424,-0.00183727429248,0.0287059471011,-0.0211861990392,0.999361693859
1505403118816885744,51108,1505403118816696857,0.0330757312477,1.04638206959,-0.105353415012,-0.00181208224967,0.0286263208836,-0.0216168221086,0.99935477972
1505403118826991083,51109,1505403118826883738,0.0323738977313,1.04599642754,-0.107454128563,-0.00109467387665,0.0284763071686,-0.0214803181589,0.999363124371
1505403118837257843,51110,1505403118837114119,0.0316294170916,1.04559242725,-0.10923358798,-0.000951004680246,0.028379868716,-0.0217518657446,0.999360084534
1505403118846651527,51111,1505403118846465623,0.0309218671173,1.04519534111,-0.111357405782,-0.000575988320634,0.028704194352,-0.0217943713069,0.999350190163
1505403118856846773,51112,1505403118856671653,0.0303095914423,1.04465246201,-0.113231882453,9.84447033261e-05,0.0289804153144,-0.0214818213135,0.999349117279
1505403118867009827,51113,1505403118866852076,0.0296401679516,1.04424548149,-0.115197248757,0.00011249268573,0.0288024339825,-0.021567735821,0.999352455139
1505403118877318959,51114,1505403118877116301,0.0290151592344,1.04373812675,-0.117313839495,0.000946989748627,0.0287663340569,-0.0214579217136,0.999355375767
1505403118886458368,51115,1505403118886318428,0.028391437605,1.04322731495,-0.118907392025,0.00109679740854,0.0289814490825,-0.0217166151851,0.999343395233
1505403118896696079,51116,1505403118896516856,0.0277601797134,1.04268038273,-0.121272526681,0.00170854723547,0.0292848777026,-0.0214066114277,0.999340415001
1505403118906981819,51117,1505403118906821049,0.027249539271,1.04200029373,-0.122822828591,0.0021769113373,0.0291605535895,-0.0211817622185,0.999347984791
1505403118917171406,51118,1505403118917036592,0.0266827829182,1.04143500328,-0.12504991889,0.00294230110012,0.0290947183967,-0.0210253428668,0.999351143837
1505403118926376950,51119,1505403118926238902,0.0261509921402,1.04078912735,-0.126971244812,0.00354705099016,0.02936832048,-0.0207742117345,0.999346494675
1505403118936626127,51120,1505403118936482157,0.0256810132414,1.04012799263,-0.128539770842,0.00383395515382,0.0300152897835,-0.0206662863493,0.999328434467
1505403118946835909,51121,1505403118946682855,0.0251518636942,1.039462924,-0.131019324064,0.00497145392001,0.0301332846284,-0.0200336463749,0.999332845211
1505403118957043556,51122,1505403118956890252,0.0247079133987,1.03876745701,-0.132366865873,0.00524669373408,0.0300309993327,-0.0199638344347,0.999335825443
1505403118967304624,51123,1505403118967156548,0.0242287926376,1.03810536861,-0.134452268481,0.00613554799929,0.0303192008287,-0.019681962207,0.999327659607
1505403118976541918,51124,1505403118976360528,0.0237969215959,1.03733456135,-0.136479973793,0.00714622018859,0.0306061413139,-0.0193256251514,0.999319136143
1505403118986729766,51125,1505403118986543336,0.0233063716441,1.03657066822,-0.138020798564,0.00735265715048,0.0311498492956,-0.0195628851652,0.999296247959
1505403118997000873,51126,1505403118996822052,0.0228858720511,1.03581213951,-0.140112608671,0.00832094438374,0.0314510948956,-0.0190120693296,0.999289870262
1505403119007192957,51127,1505403119007029897,0.0225484799594,1.0350561142,-0.14159938693,0.00854583829641,0.031419608742,-0.018927147612,0.999290525913
1505403119016390709,51128,1505403119016228998,0.0221548378468,1.03430140018,-0.143414914608,0.0087053142488,0.0317169316113,-0.018900308758,0.999280273914
1505403119026563654,51129,1505403119026433778,0.0217463225126,1.03342735767,-0.1452562958,0.00946232955903,0.0322047993541,-0.0185790229589,0.999263882637
1505403119036779500,51130,1505403119036632742,0.0213304515928,1.0326308012,-0.146835744381,0.0093448208645,0.0327043011785,-0.0188379921019,0.999243855476
1505403119047064620,51131,1505403119046929605,0.0210030786693,1.03180468082,-0.148660168052,0.0102232638747,0.0327278040349,-0.0184334516525,0.999242007732
1505403119056336718,51132,1505403119056142241,0.0206872932613,1.03096556664,-0.150167360902,0.0104193836451,0.032763633877,-0.0184681862593,0.999238193035
1505403119066702431,51133,1505403119066345368,0.0202936604619,1.03015565872,-0.152074560523,0.0108392471448,0.0333447046578,-0.0183643437922,0.99921643734
1505403119076699860,51134,1505403119076552095,0.0199843719602,1.02928853035,-0.153350189328,0.0112247569486,0.0337870493531,-0.0181074682623,0.999201953411
1505403119086931430,51135,1505403119086764520,0.0196799524128,1.02843570709,-0.155158266425,0.0112161561847,0.0342523939908,-0.0179789364338,0.999188601971
1505403119097220674,51136,1505403119097005770,0.0194138716906,1.0274939537,-0.15673725307,0.0117890536785,0.03430365026,-0.0177971459925,0.999183416367
1505403119106415205,51137,1505403119106246049,0.0190796609968,1.02674639225,-0.15808750689,0.0119206560776,0.0344426259398,-0.0180821958929,0.999172031879
1505403119116563977,51138,1505403119116468555,0.0187312550843,1.02594435215,-0.160120591521,0.0128993047401,0.0347197018564,-0.0176448915154,0.999158024788
1505403119126853340,51139,1505403119126731067,0.0184961277992,1.02498733997,-0.161152616143,0.0132088260725,0.0350046232343,-0.0177254062146,0.999142706394
1505403119137201356,51140,1505403119136977949,0.0182155407965,1.0241253376,-0.16288639605,0.0141861047596,0.0355797894299,-0.0174214225262,0.999114334583
1505403119146387836,51141,1505403119146251315,0.0179930329323,1.02325499058,-0.164367958903,0.0147592611611,0.0358334854245,-0.0173678062856,0.999097824097
1505403119159174766,51142,1505403119156456411,0.0177037473768,1.02235794067,-0.165514975786,0.0148175386712,0.0360721684992,-0.0174509156495,0.999086916447
1505403119167064270,51143,1505403119166906503,0.0174398701638,1.02138292789,-0.167386591434,0.015589014627,0.0359536744654,-0.0170136541128,0.999087035656
1505403119176358024,51144,1505403119176174106,0.0172195024788,1.02050042152,-0.168430253863,0.0152141172439,0.0359722226858,-0.0173893012106,0.999085664749
1505403119236552928,51145,1505403119236376948,0.0158618018031,1.0140992403,-0.176173746586,0.0172641780227,0.0384905748069,-0.0182300396264,0.998943507671
1505403119246731451,51146,1505403119246594659,0.0157843884081,1.01284134388,-0.17701420188,0.0170763563365,0.0386927016079,-0.0184576604515,0.998934745789
1505403119256999611,51147,1505403119256822917,0.0155641166493,1.01149821281,-0.178325861692,0.01755377464,0.0390772819519,-0.0185225214809,0.99891024828
1505403119267226637,51148,1505403119267074785,0.0154586676508,1.01020145416,-0.179312616587,0.0178369581699,0.0393569171429,-0.0186818167567,0.998891234398
1505403119276526135,51149,1505403119276358261,0.0153320292011,1.00876545906,-0.180367782712,0.0182791538537,0.0399276427925,-0.0186494030058,0.998861253262
1505403119286692071,51150,1505403119286563920,0.015134527348,1.00745844841,-0.181621149182,0.0185864325613,0.0399406664073,-0.0190170090646,0.99884814024
1505403119297062964,51151,1505403119296811076,0.0150413261726,1.00603640079,-0.182354733348,0.0184828322381,0.0403457023203,-0.0195313431323,0.998823881149
1505403119307159604,51152,1505403119307003715,0.0149380527437,1.00452709198,-0.183513924479,0.0190863348544,0.0410038270056,-0.019381923601,0.998788654804
1505403119316520164,51153,1505403119316213769,0.0148662189022,1.00306510925,-0.184340447187,0.0191802922636,0.0411957763135,-0.0198844913393,0.998769044876
1505403119326557394,51154,1505403119326406460,0.014752513729,1.00146234035,-0.185187280178,0.0193867534399,0.0413340106606,-0.0202705208212,0.998751580715
1505403119336801223,51155,1505403119336627464,0.0146682010964,0.999936282635,-0.186320215464,0.0199352167547,0.0413467027247,-0.020531328395,0.998734951019
1505403119347014956,51156,1505403119346886865,0.0146569972858,0.998363494873,-0.186879605055,0.0194467883557,0.0421124026179,-0.0209201462567,0.998704493046
1505403119357321953,51157,1505403119357149984,0.0146169336513,0.996702611446,-0.187684044242,0.0196373052895,0.0426310896873,-0.0210121329874,0.998676896095
1505403119366534410,51158,1505403119366361133,0.0145861739293,0.995070397854,-0.188570141792,0.0192437060177,0.0427547059953,-0.0215882565826,0.99866694212
1505403119376893618,51159,1505403119376575691,0.0146156465635,0.993444740772,-0.189179033041,0.0191920604557,0.0435701496899,-0.0216851234436,0.998630583286
1505403119386888828,51160,1505403119386745580,0.0146801313385,0.991755068302,-0.189722239971,0.0189678296447,0.0440121851861,-0.0218767169863,0.998611330986
1505403119397137976,51161,1505403119396983313,0.0147443469614,0.990114569664,-0.190507724881,0.018892865628,0.0442748740315,-0.0220866762102,0.998596489429
1505403119406313779,51162,1505403119406180248,0.0147873647511,0.988487899303,-0.190997600555,0.0190058778971,0.0444196760654,-0.0221609920263,0.998586297035
1505403119416778219,51163,1505403119416510155,0.0149514842778,0.986843526363,-0.191724061966,0.019151808694,0.0449729338288,-0.02225895226,0.998556494713
1505403119426926254,51164,1505403119426803885,0.0150361005217,0.985267460346,-0.192375212908,0.0193276833743,0.0455095954239,-0.0221001412719,0.998532354832
1505403119437407234,51165,1505403119437124457,0.0151798017323,0.983774781227,-0.192566499114,0.018870536238,0.0458354577422,-0.0223003700376,0.998521745205
1505403119446520966,51166,1505403119446365110,0.0153723126277,0.982186853886,-0.193355962634,0.0191771611571,0.0459804609418,-0.0222010780126,0.998511493206
1505403119456804645,51167,1505403119456582201,0.0155676556751,0.980756163597,-0.193730473518,0.0189766958356,0.0457422174513,-0.0220306571573,0.998530030251
1505403119467004232,51168,1505403119466845171,0.0157987438142,0.979324042797,-0.194064885378,0.0187286138535,0.0464241541922,-0.0219605248421,0.998504817486
1505403119477316961,51169,1505403119477095815,0.0160149112344,0.978033840656,-0.194734916091,0.0193558707833,0.0476386807859,-0.0215118788183,0.998445391655
1505403119486707590,51170,1505403119486578262,0.0162343550473,0.976751625538,-0.194703921676,0.0187200959772,0.0479666925967,-0.021788854152,0.998435795307
1505403119497105435,51171,1505403119496968315,0.0165634788573,0.975523650646,-0.195207178593,0.0188283473253,0.0480466745794,-0.0213849227875,0.998438596725
1505403119506335684,51172,1505403119506178078,0.0168828871101,0.974398672581,-0.195535853505,0.0192613489926,0.0482298657298,-0.0208641719073,0.998432517052
1505403119516549450,51173,1505403119516384513,0.0171884782612,0.973283946514,-0.195753797889,0.0188319087029,0.0485639236867,-0.0210278853774,0.998421132565
1505403119526667385,51174,1505403119526557631,0.017515335232,0.972204148769,-0.196123972535,0.0194114092737,0.0491776429117,-0.0208357591182,0.998384058475
1505403119536967090,51175,1505403119536811089,0.0177836306393,0.971209466457,-0.196078553796,0.0193065945059,0.04997452721,-0.0211150683463,0.998340606689
1505403119547214673,51176,1505403119547069460,0.0181462485343,0.97038602829,-0.196451440454,0.0191525649279,0.0503500513732,-0.0209496319294,0.998328149319
1505403119556527580,51177,1505403119556333753,0.0185617972165,0.969542562962,-0.196510478854,0.0193612724543,0.0501252897084,-0.020567573607,0.998343408108
1505403119567047964,51178,1505403119566851073,0.0189167167991,0.96863502264,-0.196567356586,0.0192549191415,0.050413608551,-0.0209941528738,0.99832201004
1505403119577250354,51179,1505403119577100799,0.0192483626306,0.967865526676,-0.197036832571,0.0197926629335,0.0508359149098,-0.0207112245262,0.99829608202
1505403119586468050,51180,1505403119586304319,0.0197118613869,0.967145144939,-0.19655507803,0.0194044597447,0.051417324692,-0.0205661486834,0.998276889324
1505403119596658112,51181,1505403119596488151,0.0201360378414,0.966452479362,-0.196895301342,0.0199617352337,0.0520519018173,-0.0199129916728,0.998246312141
1505403119606812554,51182,1505403119606685243,0.0206604767591,0.965888679028,-0.196909755468,0.0198796056211,0.0521086864173,-0.019551474601,0.998252093792
1505403119617095048,51183,1505403119616949763,0.0211769733578,0.965305328369,-0.196448907256,0.0194735545665,0.0524775460362,-0.0194914937019,0.998241961002
1505403119626291515,51184,1505403119626162363,0.0215123649687,0.964858710766,-0.196982607245,0.0202015284449,0.0526508353651,-0.0194078367203,0.998219966888
1505403119637098219,51185,1505403119636438644,0.0220389347523,0.964426100254,-0.196653619409,0.0200239662081,0.052620690316,-0.0193957798183,0.998225450516
1505403119646889777,51186,1505403119646700108,0.0225456934422,0.964021146297,-0.196431979537,0.0200187508017,0.0530141033232,-0.0184870362282,0.998221933842
1505403119657128104,51187,1505403119656947149,0.0231084059924,0.963679790497,-0.196529224515,0.0203528366983,0.053300537169,-0.0176031254232,0.998215854168
1505403119666320921,51188,1505403119666175491,0.0236332155764,0.963357806206,-0.195933133364,0.0195412039757,0.0538309440017,-0.0176806114614,0.998202264309
1505403119676567111,51189,1505403119676389860,0.0241118967533,0.963096499443,-0.195972383022,0.0197542309761,0.0541588962078,-0.0171668939292,0.998189270496
1505403119686831827,51190,1505403119686651917,0.0247217882425,0.962851345539,-0.195530861616,0.019233552739,0.0544650144875,-0.0170057360083,0.998185515404
1505403119697054142,51191,1505403119696852601,0.0251727160066,0.962704241276,-0.195252209902,0.0189796499908,0.0546672903001,-0.016758736223,0.99818354845
1505403119707213932,51192,1505403119707057655,0.0257541295141,0.962541341782,-0.19510088861,0.0192853566259,0.054555144161,-0.0161995682865,0.998193085194
1505403119716524868,51193,1505403119716327397,0.026331808418,0.962345600128,-0.194586277008,0.0191259961575,0.0551192648709,-0.0161074344069,0.998166620731
1505403119727019470,51194,1505403119726542876,0.0267750360072,0.962279140949,-0.194428667426,0.0193625744432,0.0555454231799,-0.0160770341754,0.998138964176
1505403119737015733,51195,1505403119736851936,0.0274167526513,0.962207436562,-0.193716585636,0.0186781175435,0.055781558156,-0.0159582383931,0.998140752316
1505403119747271092,51196,1505403119747135964,0.027957001701,0.962149679661,-0.193402707577,0.0184285063297,0.0559409745038,-0.0155254956335,0.998143315315
1505403119756536066,51197,1505403119756376409,0.0284462235868,0.962238252163,-0.193086877465,0.0180840846151,0.055730432272,-0.0154299307615,0.998162686825
1505403119766855808,51198,1505403119766579045,0.0290414206684,0.962343811989,-0.192262396216,0.0177554618567,0.0562336407602,-0.0155433313921,0.998138785362
1505403119777122109,51199,1505403119776926328,0.0296041332185,0.962352216244,-0.192161291838,0.0182848796248,0.0568421557546,-0.0152846165001,0.998098731041
1505403119787230351,51200,1505403119787094457,0.0301351323724,0.962479114532,-0.191388711333,0.0178904924542,0.0572015568614,-0.0156483538449,0.998079657555
1505403119796637129,51201,1505403119796454367,0.0307087916881,0.962575078011,-0.190921589732,0.0184723138809,0.0572529807687,-0.0149975996464,0.998076140881
1505403119806918123,51202,1505403119806762600,0.0312500782311,0.96274715662,-0.190545484424,0.0184141844511,0.0569991283119,-0.0149175552651,0.998092889786
1505403119817151301,51203,1505403119816967198,0.031763009727,0.962912976742,-0.189711853862,0.0178579445928,0.0575765296817,-0.0151666020975,0.9980661273
1505403119826332210,51204,1505403119826145102,0.0323501266539,0.96300804615,-0.189159095287,0.017863791436,0.0578362382948,-0.0148724261671,0.998055458069
1505403119836570813,51205,1505403119836393312,0.0329477712512,0.963225543499,-0.188449263573,0.0171280093491,0.058065276593,-0.0149153945968,0.998054504395
1505403119846889077,51206,1505403119846638066,0.0335363820195,0.963365137577,-0.187849715352,0.0169634055346,0.0584171898663,-0.0145198777318,0.998042523861
1505403119857004654,51207,1505403119856838772,0.034144166857,0.963572442532,-0.186932131648,0.0162902269512,0.0584497004747,-0.01468906831,0.998049378395
1505403119867205932,51208,1505403119867079333,0.0346511602402,0.963791191578,-0.186443433166,0.0159859862179,0.0588351562619,-0.0146033875644,0.998032808304
1505403119876505625,51209,1505403119876335564,0.0351967439055,0.963895857334,-0.185601204634,0.0153499590233,0.0590918399394,-0.0144144622609,0.998030483723
1505403119886649564,51210,1505403119886540814,0.0358351990581,0.964147984982,-0.184653222561,0.014378762804,0.0592625774443,-0.014098093845,0.998039245605
1505403119896867820,51211,1505403119896728189,0.0364402607083,0.964292168617,-0.18426156044,0.0142841683701,0.0594208203256,-0.0133133148775,0.998042047024
1505403119907239009,51212,1505403119907080271,0.0369943603873,0.964558959007,-0.183016136289,0.0129597587511,0.0599188618362,-0.0135785993189,0.998026669025
1505403119916485945,51213,1505403119916307200,0.0375847294927,0.964782476425,-0.182286500931,0.0126141216606,0.0610649846494,-0.0130827957764,0.997968375683
1505403119926641279,51214,1505403119926497353,0.0381523892283,0.964910149574,-0.181620448828,0.0120513895527,0.061171669513,-0.012648251839,0.997974336147
1505403119936866285,51215,1505403119936695974,0.0387123599648,0.965232253075,-0.180577859282,0.0108539545909,0.0611123405397,-0.0125431520864,0.997993052006
1505403119947073692,51216,1505403119946943508,0.0393275767565,0.965488493443,-0.180016174912,0.0108964927495,0.0613003969193,-0.0116010792553,0.997992455959
1505403119956370077,51217,1505403119956106172,0.0398952923715,0.965781748295,-0.178939193487,0.00962964165956,0.0614322349429,-0.011795097962,0.997995078564
1505403119966474156,51218,1505403119966344075,0.0403768271208,0.966041743755,-0.178246870637,0.00936388224363,0.0622173286974,-0.0114834662527,0.997952640057
1505403119976735388,51219,1505403119976592397,0.0410092547536,0.966287851334,-0.177191078663,0.00936253741384,0.0628152564168,-0.0108204176649,0.997922539711
1505403119986944804,51220,1505403119986784750,0.0415218695998,0.966626167297,-0.176552847028,0.0086308978498,0.0630238130689,-0.0104767531157,0.997919738293
1505403119997176037,51221,1505403119996976886,0.0420788787305,0.966909945011,-0.175772413611,0.00863352231681,0.063237965107,-0.00973697099835,0.997913599014
1505403120006468384,51222,1505403120006308937,0.0425893254578,0.967347204685,-0.174592733383,0.00734901288524,0.0635842755437,-0.0100012710318,0.9978992939
1505403120016746118,51223,1505403120016579754,0.0430292338133,0.967659950256,-0.174214139581,0.00698818080127,0.064362809062,-0.00938952807337,0.997857928276
1505403120026953830,51224,1505403120026825760,0.0436180643737,0.96796476841,-0.172803834081,0.00572345498949,0.0648369565606,-0.00911883451045,0.997837841511
1505403120037257440,51225,1505403120037072588,0.0441006794572,0.968326866627,-0.172287613153,0.00536165013909,0.0650326758623,-0.00842008925974,0.997833192348
1505403120046481731,51226,1505403120046275103,0.0446192994714,0.968636453152,-0.171616494656,0.00512482272461,0.0650011971593,-0.007867064327,0.997840940952
1505403120056673795,51227,1505403120056503666,0.0450111441314,0.969110608101,-0.170398235321,0.00383099820465,0.0654075145721,-0.00819662772119,0.997817575932
1505403120066920810,51228,1505403120066769021,0.045456930995,0.96938252449,-0.170072257519,0.00412207376212,0.0664146691561,-0.00714228395373,0.997758030891
1505403120077159581,51229,1505403120077015227,0.0459586232901,0.969788551331,-0.168873101473,0.00308434129693,0.0668455213308,-0.0068975337781,0.99773478508
1505403120086351965,51230,1505403120086187715,0.0463055595756,0.97018635273,-0.168277084827,0.0027133023832,0.0670132786036,-0.00641891313717,0.997727751732
1505403120096645703,51231,1505403120096408318,0.0467676706612,0.970497190952,-0.167441412807,0.00218038703315,0.0671456977725,-0.00598207768053,0.997722923756
1505403120106895490,51232,1505403120106704176,0.0471254959702,0.970805883408,-0.166639760137,0.0010613987688,0.0674076676369,-0.00616703974083,0.997705936432
1505403120117047099,51233,1505403120116926989,0.0474559441209,0.971065104008,-0.166155949235,0.00137486075982,0.0681204199791,-0.00546590611339,0.997661232948
1505403120126287691,51234,1505403120126107952,0.0478894598782,0.971496999264,-0.164966136217,0.000928939727601,0.0685964077711,-0.00518520642072,0.997630596161
1505403120136566518,51235,1505403120136390720,0.0481283180416,0.971748828888,-0.164857700467,0.00133422890212,0.0686695054173,-0.00477118464187,0.997627139091
1505403120146759396,51236,1505403120146605046,0.0484335832298,0.972098588943,-0.16384242475,0.0011364944512,0.0689190328121,-0.00482781883329,0.997609913349
1505403120157117796,51237,1505403120156869378,0.0487085282803,0.972465693951,-0.16311147809,0.000683687569108,0.0696988552809,-0.00468555884436,0.997556805611
1505403120167246645,51238,1505403120167138398,0.0489508993924,0.972721040249,-0.162874385715,0.00104724837001,0.0699381679296,-0.00418746098876,0.997541904449
1505403120176566097,51239,1505403120176390443,0.0491959266365,0.973194897175,-0.161675438285,0.000280539126834,0.0702134743333,-0.00474006868899,0.997520625591
1505403120186718037,51240,1505403120186596741,0.0493611358106,0.973457574844,-0.161565870047,0.00116060127039,0.0708549544215,-0.00444974796847,0.997475981712
1505403120196954257,51241,1505403120196817773,0.0495387427509,0.973863840103,-0.160808488727,0.00118706910871,0.0710656344891,-0.00476335734129,0.99745953083
1505403120207179156,51242,1505403120207044431,0.0496125370264,0.974274873734,-0.160168543458,0.00100360123906,0.0714042335749,-0.00500209489837,0.997434437275
1505403120216404687,51243,1505403120216242220,0.0497902370989,0.97466725111,-0.159803822637,0.00134109798819,0.0713659971952,-0.00494538759813,0.997437059879
1505403120226786965,51244,1505403120226602953,0.0499146617949,0.975157022476,-0.15903352201,0.000805491465144,0.0716866031289,-0.00537469098344,0.997412443161
1505403120237007393,51245,1505403120236863177,0.0499440655112,0.975527048111,-0.158722385764,0.00113836745732,0.0722712650895,-0.00554168177769,0.99736893177
1505403120247231512,51246,1505403120247086160,0.0500710532069,0.975968897343,-0.157964229584,0.00127159035765,0.0725860521197,-0.00587520701811,0.997344076633
1505403120256484658,51247,1505403120256336445,0.050094589591,0.976361513138,-0.157612293959,0.00167590461206,0.0729078054428,-0.00605855649337,0.997318863869
1505403120266872395,51248,1505403120266709166,0.0500933006406,0.976839363575,-0.157288596034,0.0019492264837,0.0731214210391,-0.00627344939858,0.997301340103
1505403120277051362,51249,1505403120276940695,0.0501544848084,0.977390944958,-0.15646700561,0.00176954374183,0.0737698823214,-0.00638227071613,0.997253298759
1505403120287305644,51250,1505403120287177877,0.0501229614019,0.977749526501,-0.156432956457,0.0022461626213,0.0743352621794,-0.00617809221148,0.997211635113
1505403120296657967,51251,1505403120296435387,0.0501336157322,0.978245675564,-0.15564802289,0.00191865139641,0.0744697451591,-0.00660312315449,0.99719953537
1505403120306928147,51252,1505403120306761448,0.0500827357173,0.978702783585,-0.155122116208,0.00221089506522,0.0750353261828,-0.00664136232808,0.997156262398
1505403120317193737,51253,1505403120317029481,0.0500166416168,0.979105889797,-0.155085220933,0.00252090627328,0.0751260891557,-0.00697004050016,0.997146487236
1505403120326429749,51254,1505403120326309903,0.0499401725829,0.979635238647,-0.154268220067,0.00214385776781,0.0757563635707,-0.00767813576385,0.997094511986
1505403120336766850,51255,1505403120336627614,0.049835767597,0.980100750923,-0.154066890478,0.00289134820923,0.0760662332177,-0.00779205793515,0.997068166733
1505403120347059344,51256,1505403120346880771,0.049728769809,0.980531811714,-0.153740897775,0.00298312422819,0.0759146884084,-0.00844979099929,0.997074007988
1505403120357297662,51257,1505403120357132092,0.0495462827384,0.98094022274,-0.153207331896,0.00323972827755,0.0763747617602,-0.00910272542387,0.997032403946
1505403120366626812,51258,1505403120366490125,0.0495098270476,0.981337368488,-0.152937635779,0.00362785207108,0.0768268406391,-0.00930244382471,0.996994376183
1505403120377079524,51259,1505403120376827148,0.049362167716,0.981737136841,-0.1524553895,0.0033953548409,0.0774086043239,-0.00982069037855,0.99694532156
1505403120387158860,51260,1505403120387041583,0.0491474121809,0.982136309147,-0.152143672109,0.00349844875745,0.0772989615798,-0.0104736024514,0.996946811676
1505403120396464886,51261,1505403120396293755,0.0491213276982,0.982503950596,-0.151713296771,0.00363700627349,0.0773866474628,-0.0107915038243,0.99693608284
1505403120406702396,51262,1505403120406545044,0.0488907620311,0.982932686806,-0.151486307383,0.00388510012999,0.0777909308672,-0.0110894907266,0.996900498867
1505403120416942090,51263,1505403120416769833,0.0486907102168,0.983301579952,-0.151072889566,0.00405235076323,0.0779355019331,-0.0118619939312,0.996879637241
1505403120427291276,51264,1505403120427112693,0.0484807044268,0.983641207218,-0.150836601853,0.00455309916288,0.0783346220851,-0.0126379076391,0.996836602688
1505403120436436631,51265,1505403120436319967,0.0483324155211,0.983939409256,-0.150630652905,0.00498543633148,0.0784908756614,-0.0129770766944,0.996817946434
1505403120446786068,51266,1505403120446634589,0.0482042469084,0.984302282333,-0.150071442127,0.0046543548815,0.0789141952991,-0.0136414468288,0.996777176857
1505403120457212347,51267,1505403120457008938,0.0480407401919,0.984581291676,-0.149939715862,0.00568953249604,0.0794962197542,-0.0136287817731,0.996725738049
1505403120466361549,51268,1505403120466197461,0.047881886363,0.984893321991,-0.14954636991,0.00547728594393,0.079489313066,-0.0143181243911,0.996717810631
1505403120476669231,51269,1505403120476499977,0.0477040857077,0.985150039196,-0.149349600077,0.00602024840191,0.0797039866447,-0.0146525995806,0.996692717075
1505403120486919742,51270,1505403120486755703,0.0475840419531,0.985393464565,-0.148954555392,0.00671284738928,0.079771541059,-0.0150239970535,0.996677339077
1505403120497117409,51271,1505403120496971317,0.047348652035,0.985603034496,-0.14889523387,0.00693394755945,0.080071285367,-0.0157200470567,0.996641099453
1505403120506238537,51272,1505403120506110753,0.0472533889115,0.985671639442,-0.148679360747,0.00802625436336,0.0804852470756,-0.0156235946342,0.996600985527
1505403120516532518,51273,1505403120516348679,0.0471724830568,0.985928893089,-0.148170620203,0.00811281707138,0.0808008685708,-0.016064343974,0.996567845345
1505403120526690262,51274,1505403120526544808,0.0470087043941,0.986004531384,-0.148245304823,0.00915283430368,0.0811716914177,-0.016195949167,0.996526479721
1505403120536893616,51275,1505403120536723765,0.0469242371619,0.98605710268,-0.147509410977,0.00917065422982,0.081605643034,-0.0167198330164,0.996482253075
1505403120547034691,51276,1505403120546915657,0.0467608831823,0.986126899719,-0.147683128715,0.0098128374666,0.0821245387197,-0.0169114992023,0.996430277824
1505403120557273759,51277,1505403120557139919,0.0466875210404,0.986171364784,-0.147232502699,0.0104914447293,0.0821231529117,-0.0172563455999,0.99641752243
1505403120566561760,51278,1505403120566422951,0.0465673021972,0.986362636089,-0.146817326546,0.0108848353848,0.0822366923094,-0.0179596580565,0.99639159441
1505403120576844844,51279,1505403120576701218,0.0464610718191,0.986292541027,-0.147193640471,0.0125694358721,0.0826839804649,-0.0175662394613,0.996341705322
1505403120587072022,51280,1505403120586906441,0.0464479215443,0.986422598362,-0.146119996905,0.0124564692378,0.083375133574,-0.0183869116008,0.996270656586
1505403120596347131,51281,1505403120596188883,0.0462843813002,0.986396074295,-0.146401613951,0.0140121011063,0.0838738828897,-0.0183764696121,0.996208369732
1505403120606577012,51282,1505403120606421151,0.0463258363307,0.98638433218,-0.145898520947,0.0143167674541,0.0838722735643,-0.0187230631709,0.9961977005
1505403120616759115,51283,1505403120616617957,0.0462951436639,0.986362338066,-0.145418673754,0.0142724681646,0.0842941254377,-0.0189012214541,0.996159434319
1505403120627003960,51284,1505403120626850286,0.0462346151471,0.986203432083,-0.145456597209,0.0154025759548,0.0843214094639,-0.018811577931,0.996141910553
1505403120637186411,51285,1505403120637075641,0.0462341159582,0.986155331135,-0.14485001564,0.0152644393966,0.0845012441278,-0.0193122979254,0.996119320393
1505403120646398213,51286,1505403120646273261,0.0462011508644,0.98598587513,-0.144747212529,0.0160997845232,0.0845470055938,-0.0190096329898,0.99610799551
1505403120656746180,51287,1505403120656612961,0.0462990999222,0.985790014267,-0.144157975912,0.015810424462,0.0848516970873,-0.0194594748318,0.996078073978
1505403120667087993,51288,1505403120666905123,0.0462595522404,0.985645651817,-0.143859609962,0.0158680770546,0.0852715447545,-0.0194160230458,0.996042132378
1505403120677297558,51289,1505403120677133635,0.0463985428214,0.985427975655,-0.143264308572,0.0153847010806,0.0852605476975,-0.0192658491433,0.996053636074
1505403120686444004,51290,1505403120686336285,0.0464989952743,0.985210478306,-0.14294321835,0.0153823783621,0.0856978073716,-0.0191276594996,0.996018826962
1505403120696803447,51291,1505403120696592643,0.0464966632426,0.984972834587,-0.142614543438,0.0157590284944,0.0860581919551,-0.0192524660379,0.995979368687
1505403120706975905,51292,1505403120706827664,0.0466333441436,0.984733223915,-0.141984388232,0.0158802047372,0.0861086919904,-0.0193153787404,0.995971858501
1505403120717221952,51293,1505403120717063314,0.0467048808932,0.984493494034,-0.141948252916,0.016995633021,0.0863002985716,-0.0189682412893,0.9959436059
1505403120726407779,51294,1505403120726252120,0.0468107573688,0.984305560589,-0.141104891896,0.0170033760369,0.0867723450065,-0.0194490551949,0.995893120766
1505403120736639503,51295,1505403120736493573,0.0470336787403,0.98407959938,-0.140809819102,0.0177991073579,0.087563149631,-0.0190096553415,0.99581849575
1505403120746846255,51296,1505403120746719388,0.0471918657422,0.98377507925,-0.140351295471,0.0183405093849,0.087708838284,-0.0188098996878,0.995799660683
1505403120757117804,51297,1505403120756933026,0.0472971946001,0.983644485474,-0.139713928103,0.018278311938,0.0876087918878,-0.0195424575359,0.995795488358
1505403120766307010,51298,1505403120766081898,0.0475198365748,0.983447611332,-0.139434143901,0.0194039084017,0.0878794267774,-0.0193101335317,0.995754897594
1505403120776560417,51299,1505403120776400386,0.0476947240531,0.983324408531,-0.13857229054,0.0191279835999,0.0880875736475,-0.0199781544507,0.995728671551
1505403120786854263,51300,1505403120786668184,0.0478436462581,0.983170211315,-0.138225764036,0.0197846330702,0.0889134332538,-0.0198664776981,0.995644629002
1505403120797066890,51301,1505403120796886462,0.0481575392187,0.98298060894,-0.137369453907,0.0201853998005,0.0891699418426,-0.0198503546417,0.99561393261
1505403120807262499,51302,1505403120807109676,0.0483654513955,0.982832968235,-0.136908009648,0.0201499480754,0.0892428308725,-0.0199754256755,0.995605766773
1505403120816468220,51303,1505403120816305615,0.0486286394298,0.982558131218,-0.136466503143,0.0212410204113,0.0895872116089,-0.019512237981,0.995561242104
1505403120826612134,51304,1505403120826504327,0.0489763095975,0.982460975647,-0.135324344039,0.020868839696,0.0901278927922,-0.0198549292982,0.995513558388
1505403120836880986,51305,1505403120836717067,0.0491558685899,0.982272982597,-0.13521450758,0.021704280749,0.0907972455025,-0.0192715395242,0.995446264744
1505403120847092777,51306,1505403120846938136,0.0495951063931,0.982209801674,-0.133985936642,0.0212156996131,0.0911221951246,-0.0194114074111,0.995424509048
1505403120856293638,51307,1505403120856110317,0.0498429611325,0.982122480869,-0.133387193084,0.0212033092976,0.0910387337208,-0.0194909069687,0.995430827141
1505403120866482617,51308,1505403120866338402,0.0501094795763,0.981956601143,-0.132911354303,0.0211512744427,0.0910696163774,-0.0194825381041,0.99542927742
1505403120876770505,51309,1505403120876594124,0.0505911484361,0.981859922409,-0.131541907787,0.0201964564621,0.0913877189159,-0.0195920001715,0.995417773724
1505403120886904886,51310,1505403120886773620,0.050872400403,0.981682419777,-0.13122227788,0.0207140911371,0.0918353125453,-0.0190167017281,0.995377063751
1505403120897149373,51311,1505403120896988780,0.0513432621956,0.981622517109,-0.130013853312,0.019845739007,0.0920342728496,-0.0193203184754,0.99537050724
1505403120906359662,51312,1505403120906130283,0.051695432514,0.981507658958,-0.129185959697,0.0196842215955,0.0923849344254,-0.0188703201711,0.995349884033
1505403120916557743,51313,1505403120916343121,0.0520994737744,0.981336772442,-0.128498077393,0.0193858556449,0.0925038382411,-0.0185056198388,0.995351612568
1505403120926816369,51314,1505403120926651747,0.0526372864842,0.981202125549,-0.127360343933,0.0183290783316,0.0927182734013,-0.0182491000742,0.995356321335
1505403120937013682,51315,1505403120936862840,0.0530672073364,0.980935931206,-0.12647998333,0.0178453400731,0.0927525162697,-0.0176959242672,0.995371937752
1505403120947289508,51316,1505403120947123900,0.0536051802337,0.980712354183,-0.125558033586,0.016791574657,0.0928867086768,-0.0173940490931,0.99538308382
1505403120956528116,51317,1505403120956325875,0.0540533065796,0.980513870716,-0.124590106308,0.0163746848702,0.0934302806854,-0.0168065987527,0.995349228382
1505403120966699081,51318,1505403120966534272,0.0545279607177,0.980317234993,-0.12342004478,0.0157005544752,0.0936083868146,-0.0166844706982,0.995345473289
1505403120976947916,51319,1505403120976754602,0.0550247691572,0.979979932308,-0.122787103057,0.015640065074,0.0935693383217,-0.0161893703043,0.995358228683
1505403120987136095,51320,1505403120987016990,0.0554826967418,0.979707121849,-0.121660083532,0.015112189576,0.0937003195286,-0.0161623246968,0.995354533195
1505403120996466802,51321,1505403120996296704,0.0560285821557,0.979417562485,-0.120622850955,0.0145594244823,0.0943415984511,-0.0157169885933,0.995309412479
1505403121006642646,51322,1505403121006528026,0.0565712712705,0.979076623917,-0.119930610061,0.0140254925936,0.094534702599,-0.014929484576,0.995310783386
1505403121016956970,51323,1505403121016810818,0.0571037977934,0.978765964508,-0.118357397616,0.0127393519506,0.0943729653955,-0.0150376558304,0.995341837406
1505403121027142423,51324,1505403121027010448,0.0576366558671,0.978386223316,-0.117744803429,0.0127467233688,0.095106318593,-0.0145505955443,0.995279073715
1505403121036340040,51325,1505403121036206915,0.0581939183176,0.978010773659,-0.116556406021,0.0123331202194,0.0956379547715,-0.0142537821084,0.995237708092
1505403121046584229,51326,1505403121046449066,0.0586223900318,0.977683007717,-0.115502074361,0.0116716278717,0.0958565101027,-0.0142297334969,0.995224952698
1505403121056888413,51327,1505403121056719416,0.0592332184315,0.977266788483,-0.114722765982,0.0123964538798,0.0960078388453,-0.0135762374848,0.995210766792
1505403121067134120,51328,1505403121066974909,0.0597348026931,0.976978003979,-0.113586843014,0.0116252675653,0.0961069017649,-0.013585629873,0.99521034956
1505403121076314765,51329,1505403121076174175,0.0603507347405,0.976564049721,-0.112604469061,0.0114781176671,0.0967208445072,-0.01267569419,0.995164632797
1505403121086515372,51330,1505403121086358759,0.0609833821654,0.976117670536,-0.111382730305,0.0113755576313,0.0970699042082,-0.0121045270935,0.995138943195
1505403121096716383,51331,1505403121096574411,0.0614306330681,0.975646138191,-0.11054802686,0.0108378054574,0.0974196642637,-0.0117967920378,0.995114445686
1505403121107085000,51332,1505403121106905115,0.06203635782,0.975230693817,-0.109591133893,0.0109998695552,0.0974600985646,-0.0110319871455,0.995117545128
1505403121117322029,51333,1505403121117126272,0.0626058727503,0.974842369556,-0.108321510255,0.0107131404802,0.0977397561073,-0.0108613017946,0.995095133781
1505403121126475224,51334,1505403121126334015,0.0630583316088,0.974397480488,-0.107846967876,0.0113461110741,0.0978940352798,-0.010009907186,0.995081841946
1505403121136895252,51335,1505403121136673738,0.0637129545212,0.973950028419,-0.106470100582,0.0110813314095,0.0978391095996,-0.00940816942602,0.995096027851
1505403121147010135,51336,1505403121146888336,0.0642230957747,0.973557531834,-0.105460524559,0.0112651120871,0.0984079316258,-0.00885428022593,0.995043039322
1505403121157321894,51337,1505403121157097848,0.0647262334824,0.973160266876,-0.104829117656,0.0116719258949,0.0988303720951,-0.00804856140167,0.995003283024
1505403121166598203,51338,1505403121166362908,0.0653246492147,0.972799301147,-0.103223711252,0.0107961418107,0.0991930291057,-0.00763292983174,0.994980335236
1505403121176680582,51339,1505403121176555974,0.0657665356994,0.97246491909,-0.102629326284,0.0113924248144,0.098853930831,-0.00689896568656,0.995012879372
1505403121186883741,51340,1505403121186744700,0.0662198588252,0.972184717655,-0.101707816124,0.0111980885267,0.0985073968768,-0.00686777196825,0.995049655437
1505403121197133987,51341,1505403121196956059,0.0666689500213,0.971951842308,-0.10046556592,0.0112812919542,0.0991153419018,-0.00626098597422,0.994992256165
1505403121206377088,51342,1505403121206146845,0.0672610476613,0.971658706665,-0.0995172858238,0.0115106198937,0.0994842424989,-0.00538296625018,0.994958043098
1505403121216524481,51343,1505403121216361953,0.0677102729678,0.971416056156,-0.0985459536314,0.0114531759173,0.0996064096689,-0.00501916604117,0.994948327541
1505403121226735138,51344,1505403121226601956,0.0680807381868,0.971248626709,-0.0974805355072,0.011528102681,0.0996730551124,-0.00469212280586,0.994942367077
1505403121237049757,51345,1505403121236862909,0.0686014518142,0.97109234333,-0.0964626967907,0.0113782202825,0.0999677702785,-0.00407133344561,0.994917273521
1505403121247235690,51346,1505403121247081572,0.0689314603806,0.97095656395,-0.0955001935363,0.0114739621058,0.100161597133,-0.00345095922239,0.994899094105
1505403121256434540,51347,1505403121256274205,0.0693065077066,0.970840871334,-0.0942550972104,0.0109420893714,0.100203976035,-0.00311970897019,0.994901895523
1505403121266630574,51348,1505403121266487684,0.0697578042746,0.97070991993,-0.0932384952903,0.0107094738632,0.100453548133,-0.00222208420746,0.994881570339
1505403121276931720,51349,1505403121276744262,0.0701257586479,0.970649540424,-0.0922463536263,0.010335598141,0.100461341441,-0.00143255444709,0.994886219501
1505403121287188644,51350,1505403121287051312,0.0703746750951,0.970710158348,-0.091120056808,0.00956473499537,0.100858040154,-0.00110689678695,0.994854211807
1505403121296452223,51351,1505403121296306412,0.0708089098334,0.97076010704,-0.0899629592896,0.00966798141599,0.101599290967,-0.000160543786478,0.994778394699
1505403121306717849,51352,1505403121306541168,0.071101218462,0.970755398273,-0.0888617858291,0.00904124882072,0.101270839572,0.000367346190615,0.994817733765
1505403121316954448,51353,1505403121316782479,0.0713017210364,0.970874488354,-0.087894320488,0.00883571337909,0.101044155657,0.000908159941901,0.994842290878
1505403121327164850,51354,1505403121327015230,0.0716463401914,0.971054673195,-0.0866089686751,0.00886772852391,0.101492255926,0.00192835519556,0.994794905186
1505403121336436864,51355,1505403121336284338,0.0718149542809,0.971158087254,-0.0856282785535,0.00816203840077,0.102005206048,0.00233819382265,0.994747579098
1505403121346682795,51356,1505403121346562092,0.0719740986824,0.971298992634,-0.0846216455102,0.00824617873877,0.102369554341,0.00299361743964,0.994707763195
1505403121357159168,51357,1505403121356846805,0.072203591466,0.971604883671,-0.0832208022475,0.00780836120248,0.102561555803,0.00359151163138,0.994689583778
1505403121367360900,51358,1505403121367161862,0.0722776427865,0.97192209959,-0.0824697315693,0.00790619198233,0.102517679334,0.00423180265352,0.994690775871
1505403121376600219,51359,1505403121376397497,0.0724124833941,0.972189307213,-0.0811701416969,0.00786088593304,0.102633602917,0.00447288434952,0.994678139687
1505403121386811430,51360,1505403121386669953,0.0724372416735,0.972429215908,-0.0800191313028,0.00772715592757,0.103501491249,0.00486415671185,0.994587361813
1505403121397003121,51361,1505403121396863498,0.0724389180541,0.972745776176,-0.0792198032141,0.00800073891878,0.103504896164,0.0055170012638,0.994581460953
1505403121407260160,51362,1505403121407106120,0.0724230483174,0.973200023174,-0.0778487473726,0.00723954103887,0.103585071862,0.00545406900346,0.994579315186
1505403121416520350,51363,1505403121416339738,0.0724019631743,0.973506867886,-0.0768903642893,0.00730908382684,0.104276902974,0.00614833831787,0.994502425194
1505403121426685961,51364,1505403121426539046,0.0723549500108,0.973791658878,-0.0757622122765,0.00669119879603,0.104377418756,0.00637002615258,0.994494855404
1505403121437029431,51365,1505403121436809378,0.0721150785685,0.974247276783,-0.0745225027204,0.00609316350892,0.104408763349,0.00617781979963,0.994496643543
1505403121447151651,51366,1505403121447022535,0.0719889104366,0.974669456482,-0.0734999924898,0.00601524440572,0.104297988117,0.00640318403021,0.994507372379
1505403121456543850,51367,1505403121456257584,0.0718576535583,0.975057244301,-0.0723719745874,0.00526960473508,0.10481788218,0.00655083730817,0.994455933571
1505403121466898092,51368,1505403121466640193,0.071566849947,0.975535035133,-0.0713076218963,0.00463803391904,0.105379141867,0.00661024078727,0.994399309158
1505403121477062557,51369,1505403121476891223,0.0713386014104,0.975932836533,-0.0699790120125,0.00374439475127,0.105625875294,0.00660464167595,0.994376897812
1505403121487160653,51370,1505403121487058433,0.0709713697433,0.976343035698,-0.0689650028944,0.00337046105415,0.105856731534,0.00664454232901,0.994353473186
1505403121496520052,51371,1505403121496326432,0.0706315711141,0.976719677448,-0.0678980126977,0.00271289376542,0.10621380806,0.00647193752229,0.994318604469
1505403121506679117,51372,1505403121506525679,0.0703156962991,0.977110445499,-0.0666476413608,0.00221830350347,0.106990709901,0.0066389515996,0.994235396385
1505403121516950827,51373,1505403121516775943,0.0698848441243,0.977506637573,-0.0657113566995,0.00205492484383,0.106877945364,0.00682389503345,0.994246602058
1505403121527147943,51374,1505403121526992236,0.0693593621254,0.977906763554,-0.0646637827158,0.00113008159678,0.106853820384,0.00627993233502,0.994254231453
1505403121536480168,51375,1505403121536315444,0.0689162537456,0.978292167187,-0.0634964108467,0.00086232466856,0.107449457049,0.00638370355591,0.994189739227
1505403121546721000,51376,1505403121546566699,0.0683814063668,0.97862547636,-0.0624797306955,0.000150977590238,0.107658810914,0.00628052605316,0.994168043137
1505403121556997146,51377,1505403121556800373,0.0678095445037,0.979043126106,-0.0614711456001,-0.000226304196985,0.108043581247,0.0062487507239,0.994126498699
1505403121566289198,51378,1505403121566121674,0.0673027038574,0.979446291924,-0.0602096766233,-0.000447576050647,0.108366668224,0.00614923005924,0.994091928005
1505403121576571458,51379,1505403121576379256,0.0666204914451,0.979772508144,-0.0594545863569,-0.000636261189356,0.108938291669,0.00580332847312,0.994031369686
1505403121586788847,51380,1505403121586606032,0.0659885481,0.9801658988,-0.0584288537502,-0.000650704430882,0.109426289797,0.00573508907109,0.993978202343
1505403121597045248,51381,1505403121596809027,0.0653090775013,0.980603575706,-0.0572303943336,-0.0012496256968,0.10992193222,0.00540759367868,0.993924677372
1505403121607279503,51382,1505403121607088108,0.06457362324,0.980958402157,-0.0566338524222,-0.000634146272205,0.110101416707,0.00545671582222,0.993905246258
1505403121616545800,51383,1505403121616369422,0.0638441294432,0.981396853924,-0.0555090419948,-0.00121723790653,0.110443502665,0.00480898981914,0.993869960308
1505403121626731827,51384,1505403121626604408,0.0630321130157,0.981738626957,-0.0546178482473,-0.0015408154577,0.110843352973,0.00473831919953,0.993825376034
1505403121636974712,51385,1505403121636810971,0.062307164073,0.982032835484,-0.0536832250655,-0.00161904923152,0.111110284925,0.00467387307435,0.993795752525
1505403121647247819,51386,1505403121647008609,0.0614433996379,0.982307612896,-0.0527397245169,-0.00244659860618,0.111702017486,0.00426381826401,0.99372959137
1505403121656446482,51387,1505403121656273921,0.0606067292392,0.982500135899,-0.0520522892475,-0.00221850234084,0.112254671752,0.00455644121394,0.99366658926
1505403121666606999,51388,1505403121666472826,0.0598615705967,0.982757031918,-0.050895050168,-0.0027101431042,0.112663790584,0.00416360236704,0.993620753288
1505403121676947363,51389,1505403121676727018,0.0587478987873,0.983065664768,-0.0504463613033,-0.00250117736869,0.112852595747,0.00345667800866,0.993602573872
1505403121687194223,51390,1505403121687041450,0.0578642487526,0.983268737793,-0.0494130179286,-0.00262076081708,0.113373987377,0.00303874257952,0.993544280529
1505403121696410330,51391,1505403121696239562,0.0569203533232,0.983425319195,-0.0487178787589,-0.00242111971602,0.113990053535,0.00276576471515,0.993475079536
1505403121706624918,51392,1505403121706480828,0.0558880418539,0.983517825603,-0.0481201224029,-0.0023310596589,0.114100493491,0.00218936312012,0.993464052677
1505403121716951635,51393,1505403121716688922,0.054948464036,0.983694314957,-0.0471716113389,-0.00256455107592,0.115006007254,0.00173765746877,0.993359982967
1505403121727017850,51394,1505403121726888350,0.0539506003261,0.983828485012,-0.0464120991528,-0.00264145014808,0.115339070559,0.0015131480759,0.993321537971
1505403121737285379,51395,1505403121737137877,0.0528753176332,0.983981192112,-0.0458166375756,-0.00330272852443,0.115424118936,0.000800627691206,0.993310451508
1505403121746463977,51396,1505403121746340302,0.0518089793622,0.984142243862,-0.0451360717416,-0.00265666027553,0.11576962471,0.000459465314634,0.993272483349
1505403121756653959,51397,1505403121756534690,0.0507486499846,0.984295547009,-0.0443355590105,-0.00280796200968,0.116517484188,-6.48518616799e-05,0.993184626102
1505403121766925492,51398,1505403121766762892,0.0495937205851,0.984372317791,-0.0440420471132,-0.00260116625577,0.116743899882,-0.000277525017736,0.993158638477
1505403121777239486,51399,1505403121777068658,0.0484692715108,0.984535574913,-0.0430398099124,-0.00329382834025,0.116983361542,-0.00109807401896,0.993127763271
1505403121786478261,51400,1505403121786329222,0.0473626255989,0.984665751457,-0.0425808727741,-0.0034724236466,0.117815904319,-0.00108369882219,0.993028759956
1505403121796652963,51401,1505403121796534951,0.0463119670749,0.984752297401,-0.0420810990036,-0.00354484794661,0.118279509246,-0.000608355621807,0.992973864079
1505403121806951033,51402,1505403121806794016,0.0451246201992,0.984856307507,-0.0411149673164,-0.00484726577997,0.118754796684,-0.00124426477123,0.992910981178
1505403121817225355,51403,1505403121817071131,0.0439410507679,0.984834909439,-0.0409197546542,-0.0041599040851,0.119273506105,-0.00125876930542,0.992851912975
1505403121826457944,51404,1505403121826306526,0.0428339317441,0.984945476055,-0.0401414260268,-0.00485177570954,0.120026387274,-0.00153489771765,0.992757678032
1505403121836778548,51405,1505403121836560425,0.041562858969,0.984980165958,-0.0398295149207,-0.00479735527188,0.120358921587,-0.00122076901607,0.992718160152
1505403121846997379,51406,1505403121846806782,0.0405028052628,0.984967410564,-0.039164852351,-0.00494204508141,0.120764635503,-0.00106810347643,0.99266821146
1505403121857296335,51407,1505403121857070853,0.0391786284745,0.984959483147,-0.038817320019,-0.00511175114661,0.121591120958,-0.00122601154726,0.992566347122
1505403121866416804,51408,1505403121866268619,0.037985894829,0.984926640987,-0.0383771248162,-0.00537938671187,0.121818356216,-0.00106967170723,0.992537260056
1505403121876753636,51409,1505403121876514268,0.0367412753403,0.984931468964,-0.0377683825791,-0.00538355624303,0.122437916696,-0.00110231048893,0.992460906506
1505403121886836833,51410,1505403121886708429,0.035413198173,0.984747707844,-0.0376635044813,-0.00461502186954,0.122969269753,-0.00117509160191,0.992399036884
1505403121897132715,51411,1505403121896964150,0.0341085232794,0.984678328037,-0.0372137464583,-0.00483579328284,0.123475290835,-0.00163270568009,0.992334485054
1505403121906472700,51412,1505403121906260551,0.032769266516,0.984512507915,-0.0369280725718,-0.00391175132245,0.123857699335,-0.00160132767633,0.992290973663
1505403121916597414,51413,1505403121916473248,0.0314279831946,0.984348654747,-0.0365123935044,-0.00387543370016,0.124331258237,-0.00256964098662,0.992229819298
1505403121926856201,51414,1505403121926680385,0.0300442315638,0.984184741974,-0.0364591814578,-0.00327707221732,0.12483573705,-0.00264433957636,0.992168426514
1505403121937161089,51415,1505403121937006118,0.0287809763104,0.983987808228,-0.0357913859189,-0.00295664602891,0.125270992517,-0.00276222964749,0.992114305496
1505403121946374595,51416,1505403121946199586,0.027335813269,0.983755111694,-0.0358342677355,-0.00230408087373,0.125910401344,-0.00341226975434,0.992033064365
1505403121956814738,51417,1505403121956613617,0.0259699914604,0.983464121819,-0.0354966744781,-0.00138514873106,0.126534044743,-0.00382899842225,0.991953969002
1505403121966971950,51418,1505403121966851664,0.0245800428092,0.983228981495,-0.0349960774183,-0.00170062226243,0.127424880862,-0.00423380220309,0.99183768034
1505403121977278469,51419,1505403121977100963,0.0232280343771,0.982841670513,-0.0350593477488,-7.84080039011e-05,0.127753973007,-0.00406006397679,0.991797566414
1505403121986468578,51420,1505403121986298486,0.0217444226146,0.98260229826,-0.0346844531596,-0.000237674059463,0.128181695938,-0.00496380683035,0.991738259792
1505403121996634475,51421,1505403121996491561,0.0202556475997,0.98211055994,-0.0346335731447,0.000888871494681,0.128414481878,-0.00510765751824,0.991707026958
1505403122006895467,51422,1505403122006733237,0.0189930368215,0.981855332851,-0.0342267118394,0.000902489642613,0.129013508558,-0.00563265895471,0.991626441479
1505403122017107271,51423,1505403122016941067,0.0174776576459,0.981438100338,-0.0341727137566,0.00159517361317,0.12980799377,-0.00574159063399,0.991521179676
1505403122027303025,51424,1505403122027155114,0.0161573402584,0.981003046036,-0.0337162166834,0.00130848644767,0.130403518677,-0.00607376918197,0.991441547871
1505403122036578911,51425,1505403122036369748,0.0147555144504,0.980609834194,-0.0336268432438,0.00196379772387,0.131001532078,-0.00628999806941,0.991360187531
1505403122046731619,51426,1505403122046571570,0.0132241453975,0.980128407478,-0.0333666317165,0.00224470626563,0.131477832794,-0.00705904653296,0.991291463375
1505403122056891178,51427,1505403122056753120,0.0118552967906,0.979736447334,-0.0331514663994,0.00254292390309,0.13192088902,-0.00751397525892,0.991228461266
1505403122067080255,51428,1505403122066949767,0.0105442367494,0.979195535183,-0.0329438596964,0.00379758514464,0.132398501039,-0.00756132323295,0.991160392761
1505403122076341906,51429,1505403122076107938,0.00899057276547,0.978785216808,-0.032700996846,0.00329656712711,0.13324406743,-0.00855538155884,0.991040885448
1505403122086424592,51430,1505403122086333343,0.00763290468603,0.978254914284,-0.0326258502901,0.00408050836995,0.13381947577,-0.00833220500499,0.990962326527
1505403122096693694,51431,1505403122096530718,0.00634334376082,0.977757275105,-0.0319778248668,0.00340353976935,0.13425989449,-0.00922247301787,0.990897417068
1505403122106957723,51432,1505403122106766202,0.00476930709556,0.977185070515,-0.0322655923665,0.00420201430097,0.134974345565,-0.0096682915464,0.990792989731
1505403122117165989,51433,1505403122117007968,0.00356655102223,0.976686298847,-0.031601652503,0.00398116232827,0.135412454605,-0.0101734083146,0.990729153156
1505403122126371977,51434,1505403122126225002,0.00213698623702,0.976157069206,-0.0314125344157,0.00432416936383,0.136130794883,-0.0107049094513,0.99062359333
1505403122136649695,51435,1505403122136451888,0.000666002859361,0.975550353527,-0.0314153246582,0.00486928783357,0.136631980538,-0.0114497067407,0.990543663502
1505403122146752513,51436,1505403122146661505,-0.000664594932459,0.975146830082,-0.0309697668999,0.00452987942845,0.137506276369,-0.0120701827109,0.990417063236
1505403122157135854,51437,1505403122156976994,-0.00197633798234,0.9745657444,-0.0306218769401,0.00479225302115,0.13788677752,-0.0121919503435,0.990361332893
1505403122166299643,51438,1505403122166164661,-0.00340755865909,0.97417896986,-0.0305974669755,0.00424470659345,0.138586550951,-0.013120027259,0.990254342556
1505403122176600710,51439,1505403122176413796,-0.00475434679538,0.973743319511,-0.0302325729281,0.00408413913101,0.138610780239,-0.0137151712552,0.990243554115
1505403122186786791,51440,1505403122186640958,-0.00601135427132,0.973451972008,-0.0296372361481,0.00286211934872,0.139002591372,-0.0144222900271,0.990182876587
1505403122197027515,51441,1505403122196855281,-0.00736581720412,0.972967028618,-0.0299046430737,0.00359526509419,0.1396792382,-0.0143086379394,0.990086913109
1505403122207384862,51442,1505403122207110329,-0.00860451441258,0.97263109684,-0.0291504785419,0.00271231145598,0.140060856938,-0.0153362862766,0.99002045393
1505403122216584409,51443,1505403122216408380,-0.00991547387093,0.972304403782,-0.0291369389743,0.00352209643461,0.140770867467,-0.0156544446945,0.98991215229
1505403122226746676,51444,1505403122226609051,-0.0111648738384,0.971956014633,-0.0288887955248,0.00392505293712,0.141308650374,-0.016669396311,0.989817380905
1505403122237072030,51445,1505403122236854041,-0.0125428531319,0.971690416336,-0.0285251010209,0.00353806489147,0.141845315695,-0.0176065862179,0.98972594738
1505403122247221186,51446,1505403122247083035,-0.0137043818831,0.971410930157,-0.0283840335906,0.00413907691836,0.142137914896,-0.0178273282945,0.989677608013
1505403122256640518,51447,1505403122256386590,-0.0149018578231,0.971239089966,-0.0280005950481,0.00334997614846,0.143027096987,-0.01897123456,0.989531219006
1505403122266797621,51448,1505403122266610035,-0.0162467584014,0.971050798893,-0.0278106089681,0.00308641442098,0.143441066146,-0.0196555163711,0.989458858967
1505403122277208285,51449,1505403122276889938,-0.0173162017018,0.970909237862,-0.0272928103805,0.0021664800588,0.143849313259,-0.0205377824605,0.989383995533
1505403122287187846,51450,1505403122287092454,-0.0185044985265,0.970711827278,-0.0272240471095,0.00275561586022,0.144676342607,-0.0212155114859,0.98924767971
1505403122296439148,51451,1505403122296306238,-0.0196596011519,0.97065782547,-0.0268277078867,0.00226987316273,0.144861400127,-0.0223518870771,0.989196896553
1505403122306687111,51452,1505403122306517428,-0.0207625739276,0.970512747765,-0.026748880744,0.00242108781822,0.145104080439,-0.0228588692844,0.989149391651
1505403122316960882,51453,1505403122316761053,-0.0217953268439,0.970376968384,-0.0262899603695,0.0024030636996,0.145352482796,-0.0236997716129,0.989093124866
1505403122327132004,51454,1505403122327015779,-0.0229261443019,0.970325767994,-0.0261896457523,0.00162467139307,0.145989239216,-0.0245682690293,0.988979756832
1505403122336496089,51455,1505403122336330191,-0.0238706767559,0.970164239407,-0.0260847173631,0.00208315276541,0.146685928106,-0.0241697393358,0.988885581493
1505403122346735287,51456,1505403122346566523,-0.0247358623892,0.970274507999,-0.0253390651196,0.00112887390424,0.147257819772,-0.0250851809978,0.988779366016
1505403122356895795,51457,1505403122356766557,-0.0258405152708,0.970211148262,-0.0257709454745,0.0022201044485,0.147854417562,-0.0254709199071,0.988678574562
1505403122367120699,51458,1505403122367007667,-0.0267050862312,0.970254898071,-0.0251990742981,0.00220242491923,0.148257836699,-0.0263553503901,0.988595068455
1505403122376567765,51459,1505403122376347383,-0.0275931619108,0.970235407352,-0.0250882841647,0.00281717255712,0.148959338665,-0.0264962557703,0.98848426342
1505403122386662886,51460,1505403122386531766,-0.0284637827426,0.970315754414,-0.0251805372536,0.00337879825383,0.148909211159,-0.0269865933806,0.988476753235
1505403122396891366,51461,1505403122396739185,-0.029235208407,0.970524847507,-0.0247307680547,0.00287527940236,0.149338051677,-0.0278456062078,0.988389909267
1505403122407162057,51462,1505403122406997236,-0.0299593303353,0.970572650433,-0.024568259716,0.00308712292463,0.149834394455,-0.0276854746044,0.988318562508
1505403122416313644,51463,1505403122416145695,-0.0307041350752,0.970789730549,-0.0244225393981,0.00245502963662,0.150321811438,-0.0282019898295,0.98823171854
