%time,field.linear.x,field.linear.y,field.linear.z,field.angular.x,field.angular.y,field.angular.z
1505403118563096528,0.0057258692496,-0.0701877495343,-0.0521541833878,0.0,0.0,-0.0236323934247
1505403118613288164,0.00679947566586,-0.0773221803521,-0.0510748624802,0.0,0.0,-0.0243401948855
1505403118663222677,0.00781637064949,-0.0847963895892,-0.0501002073288,0.0,0.0,-0.0247189513756
1505403118713316099,-0.00825969067543,-0.0544154809153,-0.0498706102371,0.0,0.0,-0.0245508849309
1505403118763161976,0.0204048650381,-0.11848697747,-0.0481495857239,0.0,0.0,-0.0254730825627
1505403118813388367,0.00553116914039,-0.0961606920957,-0.0467042922974,0.0,0.0,-0.0260820793036
1505403118863151338,0.0033228251417,-0.0959607877643,-0.0446524620056,0.0,0.0,-0.0263696924752
1505403118913402886,0.00148929848628,-0.0981571215957,-0.0420002937317,0.0,0.0,-0.0265730266299
1505403118963048957,-0.000815267114491,-0.101465669708,-0.0387674570084,0.0,0.0,-0.0274160935409
1505403119013248644,-0.00261538616423,-0.10332631989,-0.0350561141968,0.0,0.0,-0.0287291518257
1505403119063142179,-0.00386381851108,-0.103030058935,-0.0309655666351,0.0,0.0,-0.0299787547217
1505403119113276452,-0.00506606378172,-0.103217641145,-0.0267463922501,0.0,0.0,-0.0315264237806
1505403119163394153,-0.00620067047282,-0.102901720196,-0.0223579406738,0.0,0.0,-0.0330459806509
1505403119213089999,-0.0104169825067,-0.0876055061608,-0.020500421524,0.0,0.0,-0.0329601598294
1505403119263108624,-0.0046314919501,-0.0948777669438,-0.0114982128143,0.0,0.0,-0.0358415398322
1505403119313113060,-0.0109578720243,-0.10587819996,-0.00452709197998,0.0,0.0,-0.0376362932831
1505403119363150298,-0.0112274704296,-0.0895115714905,0.00329738855362,0.0,0.0,-0.0391595520746
1505403119413143301,-0.0142538262888,-0.0872323327292,0.0115121006966,0.0,0.0,-0.0407990314286
1505403119463336944,-0.0186453621523,-0.0876978241817,0.0192438364029,0.0,0.0,-0.0419999753079
1505403119513279006,-0.0230710604579,-0.0857485120113,0.0256013274193,0.0,0.0,-0.0442468037693
1505403119563279103,-0.0259172479357,-0.0810864043021,0.0304574370384,0.0,0.0,-0.0459684253256
1505403119613269252,-0.0288659245818,-0.076422446165,0.0341113209724,0.0,0.0,-0.0477624962772
1505403119663006350,-0.0319311298321,-0.0718723726701,0.0363202095032,0.0,0.0,-0.0488145583348
1505403119713302005,-0.0329896901464,-0.0637123441886,0.0374586582184,0.0,0.0,-0.0499130042676
1505403119763084810,-0.0336296500517,-0.058617798992,0.0377617478371,0.0,0.0,-0.0509523369267
1505403119813202892,-0.0349952179751,-0.0542126927716,0.03725284338,0.0,0.0,-0.0521022315528
1505403119863123696,-0.0351473858353,-0.0452878698959,0.0364275574684,0.0,0.0,-0.0533926971083
1505403119913192238,-0.0354412692809,-0.041677656051,0.0354410409927,0.0,0.0,-0.0546737342478
1505403119963266204,-0.0367499367608,-0.0391056691178,0.0342182517052,0.0,0.0,-0.0559942524473
1505403120013260049,-0.0365085448439,-0.0359453205826,0.0326527953148,0.0,0.0,-0.0579163138883
1505403120063059616,-0.0356666148932,-0.0350096496392,0.0308893918991,0.0,0.0,-0.0595377196032
1505403120113295567,-0.0345847388507,-0.0357484561753,0.0291941165924,0.0,0.0,-0.0613355535608
1505403120163144135,-0.0323776797502,-0.0359866574926,0.0275343060493,0.0,0.0,-0.0634189665657
1505403120213161771,-0.0295410079964,-0.0388935827163,0.0257251262665,0.0,0.0,-0.0649751447127
1505403120263123832,-0.0277606528221,-0.0406081408092,0.0236384868622,0.0,0.0,-0.0663513706633
1505403120313273380,-0.0249956146372,-0.0403590960902,0.0212972164154,0.0,0.0,-0.0682956528415
1505403120363112785,-0.0219802634922,-0.0426981955394,0.0190597772598,0.0,0.0,-0.0695340391629
1505403120413101369,-0.021139615231,-0.0429858533011,0.0170673131943,0.0,0.0,-0.0708417523995
1505403120463117502,-0.0198871991404,-0.0433853279896,0.0154187083244,0.0,0.0,-0.0724342157636
1505403120513202517,-0.0200494663277,-0.0440822542554,0.0143283605576,0.0,0.0,-0.0733846464664
1505403120563215105,-0.0209325358963,-0.0422381249977,0.0138286352158,0.0,0.0,-0.0749332962475
1505403120613322906,-0.022376860189,-0.0426495826008,0.01361566782,0.0,0.0,-0.0766099373237
1505403120663128517,-0.0233173015953,-0.0385535075716,0.014209985733,0.0,0.0,-0.0775408610973
1505403120713221907,-0.0252994928224,-0.0354997724196,0.0152667760849,0.0,0.0,-0.078686594013
1505403120763160276,-0.0276989950501,-0.0342951770391,0.0163555145264,0.0,0.0,-0.0800989750596
1505403120813276629,-0.0301125180499,-0.0300674926731,0.017167031765,0.0,0.0,-0.0816304733122
1505403120863175423,-0.0318611505809,-0.0238863608673,0.0178775191307,0.0,0.0,-0.0832756692446
1505403120913186359,-0.033694294771,-0.0179370481036,0.0184923410416,0.0,0.0,-0.084467090267
1505403120963109342,-0.0360162037002,-0.0129768292624,0.0194861292839,0.0,0.0,-0.0853313186773
1505403121013347800,-0.0373430801446,-0.0105749551136,0.0209233760834,0.0,0.0,-0.0862765438437
1505403121063146069,-0.0382834647155,-0.00521787350236,0.0227332115173,0.0,0.0,-0.0875822050352
1505403121113305732,-0.040038117473,-0.00341503287679,0.0247693061829,0.0,0.0,-0.0888600600149
1505403121163184470,-0.040779330526,-0.00355449052461,0.0268397331238,0.0,0.0,-0.0900791279756
1505403121213152875,-0.0408295190825,0.00151661166891,0.028341293335,0.0,0.0,-0.0906433048885
1505403121263098744,-0.0386248523272,0.00284740957684,0.0291591286659,0.0,0.0,-0.0912740236135
1505403121313202291,-0.0373497632405,0.00551742675472,0.0292446017265,0.0,0.0,-0.092215852794
1505403121363332648,-0.0332974387325,0.0084444965749,0.0283951163292,0.0,0.0,-0.0933760552635
1505403121413294389,-0.0279055644958,0.0079161505365,0.0267999768257,0.0,0.0,-0.0943041045396
1505403121463315658,-0.0221280107731,0.00942332686003,0.0249427556992,0.0,0.0,-0.0954384615115
1505403121513242557,-0.0152136048584,0.0116337451986,0.0228895545006,0.0,0.0,-0.0974439073665
1505403121563118501,-0.00898069995976,0.00897765009868,0.0209568738937,0.0,0.0,-0.098420539828
1505403121613316386,-0.00379942324634,0.00770555400611,0.0190415978432,0.0,0.0,-0.10030303783
1505403121663191058,0.00178310618046,0.00661303204006,0.0174998641014,0.0,0.0,-0.10227712837
1505403121713132652,0.00705785954054,0.00306770652241,0.0164821743965,0.0,0.0,-0.103959108853
1505403121763158552,0.011413363895,0.00260867582632,0.0157044529915,0.0,0.0,-0.10616557564
1505403121813246167,0.0156402980113,-0.000530188498034,0.0151436924934,0.0,0.0,-0.108207964603
1505403121863247151,0.0182997965531,-0.00578676394456,0.0150405168533,0.0,0.0,-0.110804890826
1505403121913276881,0.0225462961696,-0.00860921626832,0.0154874920845,0.0,0.0,-0.112881875398
1505403121963142210,0.0264625742838,-0.0118486808221,0.0165358781815,0.0,0.0,-0.11533788123
1505403122013413326,0.0297101162501,-0.0133285548904,0.0181446671486,0.0,0.0,-0.117622813368
1505403122063145402,0.0328805698464,-0.0151188983048,0.0202635526657,0.0,0.0,-0.120305211194
1505403122113235940,0.0348959019178,-0.0166963650691,0.0228149294853,0.0,0.0,-0.123131307673
1505403122163099988,0.0372159575225,-0.0125619080899,0.0254342556,0.0,0.0,-0.125829848763
1505403122213153824,0.0399128413813,-0.01406958477,0.0273689031601,0.0,0.0,-0.127828750818
1505403122263150701,0.0396042770714,-0.0157337116836,0.0287609100342,0.0,0.0,-0.130596827563
1505403122313388416,0.039632813835,-0.0148477561591,0.0294872522354,0.0,0.0,-0.132531139192
1505403122363128627,0.0364412497133,-0.0153298334786,0.029788851738,0.0,0.0,-0.135087108802
1505403122413286907,0.0332575591104,-0.0127182069133,0.0294273495674,0.0,0.0,-0.136957911754
1505403122463079949,0.0296163214214,-0.0139393710172,0.0279810428619,0.0,0.0,-0.139049324483
1505403122513242155,0.0237875154114,-0.0116415773301,0.0256035923958,0.0,0.0,-0.141102601118
1505403122563118080,0.0197279936049,-0.0108830107975,0.0222145915031,0.0,0.0,-0.14306515567
1505403122613286098,0.0132179495937,-0.00617461516624,0.0183610320091,0.0,0.0,-0.145146931514
1505403122663069405,0.00842724835969,-0.00291374467521,0.0144389271736,0.0,0.0,-0.147176023127
1505403122713392144,0.00341127258014,0.00014716467248,0.0109983682632,0.0,0.0,-0.148848191178
1505403122763229420,-0.000586759532256,0.00695689660208,0.0076208114624,0.0,0.0,-0.150774665702
1505403122813435644,-0.0042940520133,0.0146635085361,0.00443255901337,0.0,0.0,-0.152296282258
1505403122863122992,-0.00965375603562,0.0193497735099,0.00150883197784,0.0,0.0,-0.153682072655
1505403122913430778,-0.0142019772784,0.024435056569,-0.00116753578186,0.0,0.0,-0.154834338654
1505403122963080608,-0.0184719825519,0.0313737065803,-0.00361299514771,0.0,0.0,-0.156115429399
1505403123013270257,-0.0211175528225,0.0353934482801,-0.00540578365326,0.0,0.0,-0.157175966976
1505403123063090945,-0.0272318090336,0.0428453064948,-0.00657641887665,0.0,0.0,-0.158449494569
1505403123113277369,-0.0301555075294,0.0433948194324,-0.00760471820831,0.0,0.0,-0.160319331129
1505403123163328316,-0.0337966531681,0.0411446441797,-0.00823545455933,0.0,0.0,-0.161684489807
1505403123213452640,-0.0358595790706,0.0427786261152,-0.00896942615509,0.0,0.0,-0.163149009025
1505403123263178374,-0.037626379269,0.043858479321,-0.00942051410675,0.0,0.0,-0.164961650603
1505403123313339192,-0.0391190929446,0.0450608769824,-0.00984597206116,0.0,0.0,-0.16649492034
1505403123363084084,-0.0329416864264,0.0333122478454,-0.0100593566895,0.0,0.0,-0.167393237965
1505403123413240678,-0.0429754696244,0.047205097381,-0.00992119312286,0.0,0.0,-0.169055646513
1505403123463111387,-0.0360412917109,0.0433639922709,-0.00936114788055,0.0,0.0,-0.169905352353
1505403123513277887,-0.0351307174951,0.0472336081232,-0.00913035869598,0.0,0.0,-0.170609595406
1505403123563139685,-0.0349633444796,0.0442542079385,-0.00930643081665,0.0,0.0,-0.17111037113
1505403123613251994,-0.0331626711311,0.0459941432213,-0.00966084003448,0.0,0.0,-0.171752492818
1505403123663088475,-0.0323023852251,0.0459723615303,-0.010409116745,0.0,0.0,-0.171726573643
1505403123713192782,-0.0303810710936,0.0463255866139,-0.0111031532288,0.0,0.0,-0.171878585348
1505403123763137108,-0.0291265875405,0.0493118022681,-0.0116884708405,0.0,0.0,-0.17209054057
1505403123813174480,-0.0272017116313,0.0534542837542,-0.0122798681259,0.0,0.0,-0.172070449161
1505403123863398459,-0.0242171967801,0.0547177616187,-0.0131351947784,0.0,0.0,-0.171785757645
1505403123913268250,-0.0227205119862,0.0557123295012,-0.0140832662582,0.0,0.0,-0.172040578822
1505403123963051317,-0.0206646351384,0.0559414478819,-0.0151690244675,0.0,0.0,-0.172106197305
1505403124013315994,-0.0178065649047,0.0549879371325,-0.0167075395584,0.0,0.0,-0.171633556499
1505403124063116405,-0.0144344093622,0.0521827764504,-0.0184797048569,0.0,0.0,-0.172476171996
1505403124113215479,-0.0115504736554,0.0524620212698,-0.020502448082,0.0,0.0,-0.172038318062
1505403124163120766,-0.0068990477756,0.054633183336,-0.0227506160736,0.0,0.0,-0.171802093235
1505403124213150900,-0.00311323407786,0.0503979174245,-0.0246956348419,0.0,0.0,-0.172260231955
1505403124263258150,-0.000939735612441,0.0464060762581,-0.0261282920837,0.0,0.0,-0.172175599607
1505403124313165568,0.00396040534112,0.0471543929687,-0.0274003744125,0.0,0.0,-0.1721795411
1505403124363237891,0.0036692959215,0.0422919177711,-0.0280162096024,0.0,0.0,-0.172093686498
1505403124413367589,0.019084552414,0.0403297451084,-0.0286140441895,0.0,0.0,-0.172267839219
1505403124463088206,0.018572088042,0.0397309662953,-0.0286849737167,0.0,0.0,-0.17206075293
1505403124513246549,0.0242920509155,0.0346736867191,-0.0282179117203,0.0,0.0,-0.17229035952
1505403124563108436,0.0285219138144,0.0304575737312,-0.0273478031158,0.0,0.0,-0.172469022414
1505403124613460612,0.0329145605696,0.0271166555887,-0.0259441137314,0.0,0.0,-0.17279331618
1505403124663123289,0.0355613047893,0.0244755130222,-0.023798584938,0.0,0.0,-0.173363241488
1505403124713313625,0.0392666614154,0.0213320116516,-0.0211354494095,0.0,0.0,-0.173622757276
1505403124763186589,0.0341912778147,0.025496479215,-0.0186922550201,0.0,0.0,-0.174566756076
1505403124813165881,0.0503554024909,0.0141810027715,-0.0148460865021,0.0,0.0,-0.175537691694
1505403124863256963,0.0492396198886,0.0137366828573,-0.0115299224854,0.0,0.0,-0.176185457373
1505403124913146957,0.0490838189731,0.0129445534743,-0.00796473026276,0.0,0.0,-0.176933374824
1505403124963215113,0.0518480877125,0.0147166466165,-0.00433623790741,0.0,0.0,-0.177762580075
1505403125013183076,0.0544910704705,0.0136067038087,-0.000909566879272,0.0,0.0,-0.17896093649
1505403125063123305,0.0548453365924,0.0134388416209,0.00251221656799,0.0,0.0,-0.179551146517
1505403125113144855,0.0568536958997,0.0171401757531,0.00593787431717,0.0,0.0,-0.181005321352
1505403125163134416,0.0590312619853,0.0182343552427,0.00931930541992,0.0,0.0,-0.182604285748
1505403125213263577,0.0586354092061,0.0193624023528,0.0133725404739,0.0,0.0,-0.184069015956
1505403125263255198,0.05635038056,0.0189245739088,0.0188028216362,0.0,0.0,-0.185406976862
1505403125313198053,0.0550632678886,0.0186119891853,0.0258677005768,0.0,0.0,-0.186900164707
1505403125363152730,0.0535366864502,0.0254847408967,0.0326910614967,0.0,0.0,-0.187828273997
1505403125413971767,0.0537497350006,0.0208587559492,0.0439356565475,0.0,0.0,-0.189281358021
1505403125463190569,0.0639236563057,0.0330114389404,0.0531135797501,0.0,0.0,-0.190780753916
1505403125513217918,0.0593014387575,0.0344667185037,0.0617861151695,0.0,0.0,-0.192161152921
1505403125563099383,0.0568805546281,0.0433829355523,0.0681661963463,0.0,0.0,-0.193070454637
1505403125613165835,0.0519961717645,0.0483743031608,0.0759757757187,0.0,0.0,-0.194242655291
1505403125663106452,0.0564129796983,0.0545212764181,0.0806533098221,0.0,0.0,-0.195568739176
1505403125713248708,0.0495213325973,0.0519493408333,0.0830997824669,0.0,0.0,-0.196536569066
1505403125763167741,0.0456421158908,0.0522416013613,0.084424674511,0.0,0.0,-0.198342300298
1505403125813114405,0.0411823940874,0.0517979172005,0.0835781097412,0.0,0.0,-0.199887241163
1505403125864028878,0.0378655130007,0.0435580248894,0.0813520550728,0.0,0.0,-0.200890369807
1505403125913390595,0.0364600936878,0.0516149786319,0.0752083659172,0.0,0.0,-0.202570221389
1505403125963054538,0.0295989821465,0.0355883466604,0.0680795907974,0.0,0.0,-0.203391888445
1505403126013229146,0.0285287226874,0.0319053449843,0.0612946152687,0.0,0.0,-0.204607258362
1505403126063278357,0.0292763881992,0.0340734517786,0.0498923063278,0.0,0.0,-0.206052679595
1505403126114211071,0.0243087512828,0.0223380415003,0.0394877791405,0.0,0.0,-0.207603263233
1505403126163214825,0.0243791542228,0.0220019678555,0.0305878520012,0.0,0.0,-0.209284900163
1505403126213333895,0.0219742218157,0.0168963155331,0.0170348286629,0.0,0.0,-0.21055956495
1505403126263125080,0.0163000347264,0.0116848723434,0.00571060180664,0.0,0.0,-0.212480670862
1505403126313178985,0.0148939741421,0.0124884051255,-0.00533974170685,0.0,0.0,-0.213505681802
1505403126363347329,0.0119506611873,0.0111427879639,-0.0156774520874,0.0,0.0,-0.214793739658
1505403126413200613,0.00690842676283,0.00744748346714,-0.0249242782593,0.0,0.0,-0.216193541893
1505403126463146575,0.00328490192032,0.00461246629991,-0.0331393480301,0.0,0.0,-0.217308680967
1505403126513247189,-0.000891404758361,3.24420500448e-05,-0.0407675504684,0.0,0.0,-0.218852141393
1505403126563091101,-0.00617738214213,-0.00402845669658,-0.0474886894226,0.0,0.0,-0.220826435508
1505403126613174200,-0.0107968300092,-0.0117659516247,-0.0531553030014,0.0,0.0,-0.22156132935
1505403126663069229,-0.0146804385757,-0.0195140518378,-0.0578061342239,0.0,0.0,-0.222427183926
1505403126713239655,-0.0167605129635,-0.0263431742966,-0.0612698793411,0.0,0.0,-0.223502788707
1505403126763152607,-0.0183271913063,-0.0331478140795,-0.0632365942001,0.0,0.0,-0.223747648542
1505403126813144436,-0.0206937456193,-0.0385522759356,-0.0638881921768,0.0,0.0,-0.224012521649
1505403126863071855,-0.0216247658124,-0.0456549187012,-0.0632199048996,0.0,0.0,-0.224134011726
1505403126913203250,-0.0205996301271,-0.0553352272174,-0.0615739822388,0.0,0.0,-0.22389697121
1505403126963350885,-0.0217837641135,-0.0597369597816,-0.0593523979187,0.0,0.0,-0.224016271196
1505403127013415441,-0.019253977293,-0.0649599964154,-0.0564651489258,0.0,0.0,-0.22391869336
1505403127063174115,-0.017425702638,-0.0718877947494,-0.0530024766922,0.0,0.0,-0.223446675606
1505403127113328704,-0.0152683658564,-0.0738077476186,-0.0494381189346,0.0,0.0,-0.223404938788
1505403127163104296,-0.0121798276101,-0.0719975072673,-0.0459599494934,0.0,0.0,-0.223426974849
1505403127213297295,-0.00991759223663,-0.0702540423588,-0.0422621965408,0.0,0.0,-0.222368252323
1505403127263104374,-0.0090741945633,-0.0664695600057,-0.0385580062866,0.0,0.0,-0.221455783206
1505403127313261645,-0.00638139866554,-0.0607120949834,-0.0348941087723,0.0,0.0,-0.221350505547
1505403127363131698,-0.00322926809456,-0.0557935013667,-0.0312268733978,0.0,0.0,-0.220893528984
1505403127413301341,-0.00255818595017,-0.048626758169,-0.0271681547165,0.0,0.0,-0.220132487954
1505403127463065551,-0.000958076014198,-0.0396267411139,-0.02390229702,0.0,0.0,-0.220008057055
1505403127513297735,0.000401253911437,-0.0340716060783,-0.0193034410477,0.0,0.0,-0.219545067132
1505403127563166781,0.00122189007707,-0.0319673581378,-0.0152374505997,0.0,0.0,-0.218219707859
1505403127613089769,0.00131195325343,-0.0279468385071,-0.0114984512329,0.0,0.0,-0.217821089251
1505403127663149795,0.000854248968957,-0.0227622147342,-0.00841116905212,0.0,0.0,-0.217685858465
1505403127713095848,-0.000105569843326,-0.0220194059884,-0.00554168224335,0.0,0.0,-0.216847090275
1505403127763147137,-0.000472762044661,-0.0246687151939,-0.00310170650482,0.0,0.0,-0.216494545074
1505403127813398185,-0.00368719187506,-0.0227971880221,-0.0011123418808,0.0,0.0,-0.21634346446
1505403127863169527,-0.00439775716943,-0.0259028885515,0.000604629516602,0.0,0.0,-0.215102709104
1505403127913244368,-0.00775740058653,-0.0240820682272,0.0027928352356,0.0,0.0,-0.213906459935
1505403127963222154,-0.0116697992166,-0.0236712835447,0.00525212287903,0.0,0.0,-0.212187739398
1505403128013256416,-0.0147548420138,-0.0221719338737,0.00744187831879,0.0,0.0,-0.210314552889
1505403128063085807,-0.0189798068336,-0.0218938671642,0.00951337814331,0.0,0.0,-0.208477749092
1505403128113200385,-0.0224658097415,-0.0239554869728,0.011666893959,0.0,0.0,-0.206453307195
1505403128163174815,-0.0251004849669,-0.0240790769386,0.0135779976845,0.0,0.0,-0.203713511336
1505403128213230281,-0.0275199184119,-0.0267968307494,0.015378177166,0.0,0.0,-0.201179689959
1505403128263156503,-0.0279979827417,-0.0316700088328,0.0168717503548,0.0,0.0,-0.198953828314
1505403128313457148,-0.0272070566212,-0.0308693554764,0.0181407928467,0.0,0.0,-0.196632430504
1505403128363186867,-0.0246033848441,-0.0319635069761,0.0194926857948,0.0,0.0,-0.194284191105
1505403128413349449,-0.0205582332918,-0.0347610934489,0.0208390951157,0.0,0.0,-0.192205871286
1505403128463122173,-0.0149455632207,-0.0321974955743,0.0218605995178,0.0,0.0,-0.190096295343
1505403128513225738,-0.00844754072898,-0.0378507831525,0.0233436226845,0.0,0.0,-0.187488076566
1505403128563121150,-2.52649009633e-05,-0.0365250323499,0.0245472192764,0.0,0.0,-0.184858583966
1505403128613333539,0.00738072406827,-0.0353817788363,0.0257816314697,0.0,0.0,-0.182576643786
1505403128663118730,0.0155906643506,-0.0328490659869,0.0273572802544,0.0,0.0,-0.180157443435
1505403128713117658,0.0234088242324,-0.0336071311273,0.029211640358,0.0,0.0,-0.177435707152
1505403128763178961,0.028765674532,-0.0346549490044,0.0315217971802,0.0,0.0,-0.175484430483
1505403128813300219,0.0331725754631,-0.0344736312228,0.0345220565796,0.0,0.0,-0.173494187905
1505403128863177312,0.0381647877095,-0.0339787529977,0.0379528999329,0.0,0.0,-0.171484995362
1505403128913203492,0.0404393649926,-0.0344838060603,0.042158305645,0.0,0.0,-0.170383867469
1505403128963169062,0.0441297502727,-0.0365971625478,0.0467273592949,0.0,0.0,-0.168978946147
1505403129013386763,0.0487724715897,-0.0372126552642,0.0512810945511,0.0,0.0,-0.168179511401
1505403129063213243,0.0519156398285,-0.0403935828305,0.0556682944298,0.0,0.0,-0.166842318956
1505403129114013031,0.0523535100861,-0.0442837918174,0.0598794817924,0.0,0.0,-0.166290574558
1505403129163080897,0.0521614549651,-0.0476086043933,0.0639160275459,0.0,0.0,-0.16535291176
1505403129213183318,0.0513287643277,-0.0532843601948,0.0680051445961,0.0,0.0,-0.164899420462
1505403129263147697,0.0519940402549,-0.0545863190436,0.0721122026443,0.0,0.0,-0.16441674819
1505403129313249320,0.0540835189786,-0.0615867285345,0.0758403539658,0.0,0.0,-0.163678462068
1505403129363187083,0.0576975152915,-0.0652588180101,0.0784778594971,0.0,0.0,-0.162531009868
1505403129413149263,0.0596747091422,-0.0677707691675,0.0799446702003,0.0,0.0,-0.161519294219
1505403129463114081,0.0616145033373,-0.0690459759484,0.0801545381546,0.0,0.0,-0.160361814053
1505403129513086999,0.0643521961569,-0.0704520079389,0.0789672732353,0.0,0.0,-0.15944773396
1505403129563130686,0.0636240691293,-0.0661914333625,0.0767202973366,0.0,0.0,-0.158517442925
1505403129613164169,0.0620778688414,-0.0633900819936,0.0738872289658,0.0,0.0,-0.15762990374
1505403129663115889,0.0518142395654,-0.0575888712296,0.0715621113777,0.0,0.0,-0.15655681624
1505403129713157902,0.062610374044,-0.0612469050751,0.068162560463,0.0,0.0,-0.155506062409
1505403129763270735,0.0523154632433,-0.0506736242579,0.0652920603752,0.0,0.0,-0.154010178309
1505403129813220633,0.0495086922235,-0.0453652608219,0.0627685189247,0.0,0.0,-0.152212940048
1505403129863217975,0.0466986096192,-0.0367465312879,0.0604160428047,0.0,0.0,-0.150591433775
1505403129913253967,0.0432831403448,-0.0287371131906,0.0581150650978,0.0,0.0,-0.148509234153
1505403129963188457,0.0393802626002,-0.0232315665187,0.0552845597267,0.0,0.0,-0.146037457487
1505403130013177561,0.0325314413125,-0.0135176565646,0.0519301891327,0.0,0.0,-0.144182433191
1505403130063206368,0.0258736426737,-0.00330610017674,0.0478538870811,0.0,0.0,-0.141735683386
1505403130113200095,0.017021285831,0.00497324798944,0.0433408617973,0.0,0.0,-0.138439116249
1505403130163133584,0.00784106811015,0.0147929616233,0.038399040699,0.0,0.0,-0.135960437809
1505403130213177623,-0.000490109866119,0.0233899429708,0.0329647660255,0.0,0.0,-0.133084262187
1505403130263150502,-0.00962573353852,0.0333802680704,0.0273084044456,0.0,0.0,-0.130026325607
1505403130313166902,-0.0187062423557,0.0427627378346,0.0212015509605,0.0,0.0,-0.127113285135
1505403130363113962,-0.0289121488771,0.0508785940303,0.0150145292282,0.0,0.0,-0.124293822763
1505403130413187116,-0.0395307255766,0.0587599089054,0.00878822803497,0.0,0.0,-0.121236787759
1505403130463154005,-0.0321197993455,0.0482998214498,0.00369769334793,0.0,0.0,-0.119476766676
1505403130514192462,-0.0773411116643,0.0973762611953,-0.00423526763916,0.0,0.0,-0.116678173963
1505403130563065227,-0.0597686553662,0.074930317117,-0.0112951993942,0.0,0.0,-0.115008055965
1505403130613271341,-0.0689507109397,0.0831918234775,-0.0191541910172,0.0,0.0,-0.11332554458
1505403130663024931,-0.0735191347822,0.087699036462,-0.0278395414352,0.0,0.0,-0.111197580381
1505403130714169724,-0.0555625463981,0.0691727839358,-0.0350762605667,0.0,0.0,-0.109783529179
1505403130763116554,-0.105693966379,0.131006288017,-0.0467040538788,0.0,0.0,-0.107749539993
1505403130813270141,-0.0667366529907,0.0876058204824,-0.0567399263382,0.0,0.0,-0.10635019894
1505403130863171725,-0.0536225311418,0.0712273929084,-0.0645948648453,0.0,0.0,-0.104639105865
1505403130913208992,-0.0891706016436,0.12026172192,-0.0756996870041,0.0,0.0,-0.102427580616
1505403130963110349,-0.0573715143624,0.0776464423061,-0.0839064121246,0.0,0.0,-0.101052652334
1505403131013147079,-0.0482266736268,0.0682043608278,-0.0897104740143,0.0,0.0,-0.0996870939991
1505403131063140399,-0.065977419636,0.0872293614724,-0.0964909791946,0.0,0.0,-0.0982580245029
1505403131113367020,-0.0465175544278,0.0667615350966,-0.100497126579,0.0,0.0,-0.0964457446955
1505403131163125202,-0.0399255286346,0.0621473331154,-0.102576255798,0.0,0.0,-0.0950876206384
1505403131213159120,-0.041654689669,0.0726324855685,-0.103725910187,0.0,0.0,-0.0928765787352
1505403131263129795,-0.031745655444,0.0638077073946,-0.102909803391,0.0,0.0,-0.0910203977243
1505403131313304614,-0.0282266068227,0.0587083554424,-0.101123929024,0.0,0.0,-0.0891391757831
1505403131363142777,-0.0191951246582,0.069103721398,-0.0973919630051,0.0,0.0,-0.0870721453885
1505403131413116784,-0.0152840608515,0.0657223056574,-0.093097448349,0.0,0.0,-0.0850575320029
1505403131463106444,-0.00827802248236,0.0655275703641,-0.0883060693741,0.0,0.0,-0.0825420399677
1505403131513313357,-0.00246704451287,0.0690402114071,-0.0832232236862,0.0,0.0,-0.0804519578771
1505403131563039043,0.00296821368063,0.0697818208325,-0.077800989151,0.0,0.0,-0.0789601569171
1505403131613261307,0.00824519576495,0.0699265667781,-0.0719403028488,0.0,0.0,-0.0766308997961
1505403131663191958,0.00609153387093,0.0709312369481,-0.0670161247253,0.0,0.0,-0.0747819579688
1505403131713214763,0.0234885867053,0.0685585696294,-0.0595797300339,0.0,0.0,-0.0725249109029
1505403131763154011,0.0247493787708,0.074007499811,-0.05333507061,0.0,0.0,-0.0703374859497
1505403131813093786,0.0180756111074,0.0687562235123,-0.0483067035675,0.0,0.0,-0.0682371944786
1505403131863123131,0.0329196321828,0.0636633486537,-0.0405957698822,0.0,0.0,-0.0657159402368
1505403131913182473,0.029306034652,0.0718712509058,-0.0342569351196,0.0,0.0,-0.0634604220061
1505403131963322967,0.0194511380936,0.0669091991455,-0.0291900634766,0.0,0.0,-0.0616581176079
1505403132013268170,0.0261175591689,0.058967517321,-0.0216960906982,0.0,0.0,-0.0590515487033
1505403132063166038,0.0192798922029,0.0643080322729,-0.0157170295715,0.0,0.0,-0.0571341844498
1505403132113318259,0.0114628994545,0.0616519706113,-0.0112377405167,0.0,0.0,-0.0556058176315
1505403132163079400,0.0130209408483,0.0489144423408,-0.00536561012268,0.0,0.0,-0.0535867401638
1505403132213409529,0.00584112752318,0.0529643238249,-0.00115430355072,0.0,0.0,-0.0513202610105
1505403132263081448,0.000625771856454,0.0475908400384,0.00283592939377,0.0,0.0,-0.0500351180167
1505403132313248370,-0.00353865262823,0.0451760015092,0.00634509325027,0.0,0.0,-0.0483757532543
1505403132363115836,-0.00941802846732,0.0421238216755,0.00928646326065,0.0,0.0,-0.0473562621512
1505403132413305664,-0.0151749216569,0.0383110635216,0.0116363763809,0.0,0.0,-0.0466437930711
1505403132463328741,-0.0199703290636,0.0331404898667,0.0131143927574,0.0,0.0,-0.0454130649601
1505403132513105728,-0.0231854540197,0.0284896022284,0.0139812231064,0.0,0.0,-0.0439871993162
1505403132563132231,-0.021073883637,0.0327148186159,0.0143218040466,0.0,0.0,-0.0435948033426
1505403132613321406,-0.0288358050327,0.0154251050877,0.014885187149,0.0,0.0,-0.0429245639262
1505403132663079208,-0.0274835878675,0.0201924616749,0.0150012373924,0.0,0.0,-0.0422481841319
1505403132713291832,-0.0285967929715,0.0163491732761,0.0149594545364,0.0,0.0,-0.0415217416964
1505403132763110512,-0.030507882492,0.0112584137149,0.015115737915,0.0,0.0,-0.0405402747606
1505403132813205043,-0.0334586025758,0.00768968409055,0.015004336834,0.0,0.0,-0.039161669331
1505403132863134487,-0.0362231852692,0.00430303968807,0.0141919851303,0.0,0.0,-0.0381409783165
1505403132913335596,-0.0378227676054,0.0006428129071,0.0127657055855,0.0,0.0,-0.0355964239541
1505403132963109033,-0.0389534579397,-0.000827338735624,0.0109108686447,0.0,0.0,-0.0338222433085
1505403133013199676,-0.0389805858769,-0.0023455920485,0.00912725925446,0.0,0.0,-0.032477293283
1505403133063196316,-0.034304801589,0.00117711528435,0.00772213935852,0.0,0.0,-0.0304275449987
1505403133113192116,-0.040792884451,-0.0116267327972,0.00676774978638,0.0,0.0,-0.0280608585393
1505403133163093410,-0.0348060639473,-0.00273145469881,0.00694048404694,0.0,0.0,-0.0261821198087
1505403133213245799,-0.0318145938506,0.00145318550546,0.00753313302994,0.0,0.0,-0.0239330191551
1505403133263035534,-0.0321225550661,-0.00104050478562,0.00874561071396,0.0,0.0,-0.0212998853211
1505403133314051217,-0.0295208992702,0.00282879585641,0.0100286602974,0.0,0.0,-0.0184069118126
1505403133363174998,-0.0268951225558,0.00934086703224,0.0114588737488,0.0,0.0,-0.0169121350805
1505403133413376770,-0.0237179694487,0.0094877153521,0.0150066614151,0.0,0.0,-0.0134421141453
1505403133463145101,-0.0240683129079,0.0149918468763,0.0191920995712,0.0,0.0,-0.0116401963171
1505403133513243636,-0.021378685504,0.016485457316,0.0249259471893,0.0,0.0,-0.00931112106631
1505403133563147328,-0.0223480259529,0.0189374093186,0.0306224226952,0.0,0.0,-0.00771160760287
1505403133613214665,0.0374487402992,0.0305967522398,0.0,0.0,0.0,0.0
1505403133663124198,0.0479857140739,0.0418139800682,0.0,0.0,0.0,0.0
1505403133713336289,0.0481411396013,0.0438885278586,0.0,0.0,0.0,0.0
1505403133763219475,0.0501107296604,0.0430657238849,0.0,0.0,0.0,0.0
1505403133813338709,0.0542148877008,0.0594203749811,0.0,0.0,0.0,0.0
1505403133863087517,0.0523462426062,0.0590908888486,0.0,0.0,0.0,0.0
1505403133913226729,0.0436115234126,0.0522204901538,0.0,0.0,0.0,0.0
1505403133963153769,0.0441963303337,0.0711716063773,0.0,0.0,0.0,0.0
1505403134013219407,0.0314698562179,0.0615779262273,0.0,0.0,0.0,0.0
1505403134063216915,0.0267192845573,0.0600260393421,0.0,0.0,0.0,0.0
1505403134113152331,0.0131046064795,0.0830622270711,0.0,0.0,0.0,0.0
1505403134163136411,0.00655862451825,0.0694547393259,0.0,0.0,0.0,0.0
1505403134213153256,0.00492744137763,0.06182376845,0.0,0.0,0.0,0.0
1505403134263521517,-0.0213481173238,0.0934565950587,0.0,0.0,0.0,0.0
1505403134313168734,-0.0186673649176,0.0741079778654,0.0,0.0,0.0,0.0
1505403134363090512,-0.0140131187193,0.0648071719713,0.0,0.0,0.0,0.0
1505403134413165007,-0.0497075591996,0.0994124514871,0.0,0.0,0.0,0.0
1505403134463068571,-0.0361408817204,0.0784721552868,0.0,0.0,0.0,0.0
1505403134513325961,-0.0421303322577,0.0846152105931,0.0,0.0,0.0,0.0
1505403134563230330,-0.0296740529114,0.0767434650531,0.0,0.0,0.0,0.0
1505403134613254500,-0.0694401327813,0.108862142352,0.0,0.0,0.0,0.0
1505403134663181672,-0.0490187063104,0.0865932065347,0.0,0.0,0.0,0.0
1505403134713216235,-0.0377492802791,0.0793292697995,0.0,0.0,0.0,0.0
1505403134763080997,-0.0727718812615,0.111013581367,0.0,0.0,0.0,0.0
1505403134813327106,-0.0523496799595,0.0915192343561,0.0,0.0,0.0,0.0
1505403134863121150,-0.0330791609726,0.0644535333532,-9.37743685704e-05,0.0,0.0,0.00162902832031
1505403134913154007,-0.0622280708823,0.0920526971961,-0.000786451291909,0.0,0.0,0.00633674621582
1505403134963114883,-0.0438259507276,0.0744599886803,-0.000111535456985,0.0,0.0,0.00525650024414
1505403135013278485,-0.0302218738637,0.0664261033745,-0.000125379294182,0.0,0.0,0.00151245117188
1505403135063146557,-0.0517510410995,0.0848062899202,0.0,0.0,0.0,0.0
1505403135113148345,-0.0347448562756,0.0741847594158,-0.000144834449884,0.0,0.0,-0.00459899902344
1505403135163095667,-0.0222033228012,0.0644247077446,0.0,0.0,0.0,0.0
1505403135213224893,-0.0332323741835,0.078894567,-0.000850525390201,0.0,0.0,0.00884994506836
1505403135263128935,-0.0246252673422,0.0684488502098,0.000443659375786,0.0,0.0,0.000556716918945
1505403135313938617,-0.016434771117,0.0661526463923,0.000437952500401,0.0,0.0,-0.00170761108398
1505403135363087668,-0.0237775286878,0.0697632333015,-0.000183208168766,0.0,0.0,-0.00300415039062
1505403135413996328,-0.0181850731857,0.0685493357987,-0.000175536889704,0.0,0.0,-0.00258911132813
1505403135463110067,-0.0127037214136,0.062408186872,-0.000159728438282,0.0,0.0,0.0112882995605
1505403135513294672,-0.0207892552076,0.0717835412936,-0.000151164431677,0.0,0.0,0.00395462036133
1505403135563183172,-0.016273971035,0.0716630284406,-0.000147597733213,0.0,0.0,0.0034196472168
1505403135613241128,-0.0152154970671,0.069155923426,-0.000138174274748,0.0,0.0,0.016713104248
1505403135663066913,-0.0150998254932,0.0668917186445,-0.00012906065859,0.0,0.0,0.0153062438965
1505403135713171212,-0.0156624409952,0.0691400804193,-0.000118413018005,0.0,0.0,0.00889106750488
1505403135763127181,-0.0134914001535,0.059638251237,-0.000115988564556,0.0,0.0,0.017112121582
1505403135813295425,-0.0234800457764,0.0773494358255,-0.000108843719066,0.0,0.0,0.0137312316895
1505403135863242411,-0.0227702356844,0.0701684906227,0.0,0.0,0.0,0.0
1505403135913194264,-0.0209177837774,0.070594970351,-0.00012497743226,0.0,0.0,0.0192307281494
1505403135963036107,-0.0312454195023,0.0743028489131,-0.000149673829931,0.0,0.0,0.0286800384521
1505403136013244270,-0.0321038199421,0.0792529275446,-0.000173936927735,0.0,0.0,0.0329305267334
1505403136063332294,-0.0279134753287,0.0782630083171,-0.000186141797283,0.0,0.0,0.0330628967285
1505403136113130517,-0.0348849066948,0.0682754078806,0.000425207709879,0.0,0.0,0.0391273498535
1505403136163125952,-0.0391283575834,0.0871680558719,-0.000205165952083,0.0,0.0,0.0424436950684
1505403136213418544,-0.0344900753679,0.0811439450125,0.000404833451598,0.0,0.0,0.0465737915039
1505403136263047803,-0.0370110163229,0.0669387483299,0.0008926779632,0.0,0.0,0.0226574707031
1505403136313240666,-0.0430131192714,0.0865292408608,0.0,0.0,0.0,0.0
1505403136363216257,-0.0370292056805,0.0721825584285,0.0,0.0,0.0,0.0
1505403136413477055,-0.0360639605082,0.0710122380532,0.0,0.0,0.0,0.0
1505403136463147480,-0.0328666359589,0.0730599739534,0.0,0.0,0.0,0.0
1505403136513298015,-0.0288617306137,0.0539504144209,0.0,0.0,0.0,0.0
1505403136563176514,-0.0297950412628,0.0498193172894,0.0,0.0,0.0,0.0
1505403136613391053,-0.0285581178951,0.0555751762536,0.0,0.0,0.0,0.0
1505403136663122614,-0.0227020742468,0.0441150478565,0.0,0.0,0.0,0.0
1505403136713236367,-0.0189068665204,0.0394902553558,0.0,0.0,0.0,0.0
1505403136763183136,-0.0174685316689,0.0348703195022,0.0,0.0,0.0,0.0
1505403136813172259,-0.0151940250834,0.0244178808036,0.0,0.0,0.0,0.0
1505403136863069537,-0.0140578615753,0.0263756167131,0.0,0.0,0.0,0.0
1505403136913196626,-0.0143916966687,0.0254979470371,0.0,0.0,0.0,0.0
1505403136963160665,-0.0122783106761,0.00992330039056,0.0,0.0,0.0,0.0
1505403137013414569,-0.0122641031484,0.0176791652013,0.0,0.0,0.0,0.0
1505403137063109986,-0.0110279098579,-8.14848345794e-05,0.0,0.0,0.0,0.0
1505403137113197778,-0.0117194566241,0.00406549430642,0.0,0.0,0.0,0.0
1505403137163143666,-0.0133345192785,0.0101803002905,0.0,0.0,0.0,0.0
1505403137213199711,-0.0152131503665,-0.00935510650899,0.0,0.0,0.0,0.0
1505403137263247169,-0.016046836126,-0.00355778435793,0.0,0.0,0.0,0.0
1505403137313181125,-0.0180180283736,0.00716402404519,0.00232841402813,0.0,0.0,0.0931558227539
1505403137363146960,-0.0216513844465,0.0020856666789,0.00194748574557,0.0,0.0,0.0910625457764
1505403137413157711,-0.0254401522124,-0.005041480048,0.00195051536764,0.0,0.0,0.0907238769531
1505403137463145781,-0.0217099722419,0.0110904733132,0.00194793619159,0.0,0.0,0.092229309082
1505403137513192086,-0.0256708849005,0.00616213963342,0.00194418937651,0.0,0.0,0.0886697387695
1505403137563236681,-0.026858163807,-0.00045369769176,0.00193172358619,0.0,0.0,0.096944732666
1505403137613221811,-0.0231931667739,0.00965322304681,0.00191344216117,0.0,0.0,0.100054931641
1505403137663115085,-0.0213054319618,0.0159195736547,0.00188922930052,0.0,0.0,0.0941735076904
1505403137713237488,-0.0227976827261,0.00656494865973,0.00142563094621,0.0,0.0,0.0959692382813
1505403137763262588,-0.016569929721,0.0124531086695,0.0,0.0,0.0,0.0
1505403137813180320,-0.0128713359056,0.00815156551785,0.001812740491,0.0,0.0,0.0829760742188
1505403137863214469,-0.0104481119233,0.00984470413742,0.00180741661376,0.0,0.0,0.0807180023193
1505403137913076171,-0.00271903265693,-0.00854636263868,0.00182110307202,0.0,0.0,0.096724395752
1505403137963031965,-0.00108314757717,-0.00273704164747,0.00183011852082,0.0,0.0,0.083048248291
1505403138013412550,-0.00273123508688,0.000189717597622,0.00183656297264,0.0,0.0,0.0825053405762
1505403138063141835,0.00746956598651,-0.0194090238407,0.0,0.0,0.0,0.0
1505403138113205202,0.00495343742445,-0.00968813293576,0.00141204943717,0.0,0.0,0.10244392395
1505403138163128717,0.00273135251726,-0.00407965071245,0.00142194701677,0.0,0.0,0.103928985596
1505403138213212531,0.0154408414779,-0.0272575919041,0.00143946557809,0.0,0.0,0.0853548431396
1505403138263209035,0.0120469637386,-0.0191272570149,0.00145388916257,0.0,0.0,0.0915863037109
1505403138313245069,0.00763527452527,-0.00934784731585,0.00145793953455,0.0,0.0,0.108125839233
1505403138363134162,0.0212571147402,-0.0338303300225,0.000993111862688,0.0,0.0,0.0945617675781
1505403138413259792,0.0159932667993,-0.0255342944542,0.00146109785735,0.0,0.0,0.07806640625
1505403138463109387,0.00889706360043,-0.0118641952585,0.000989783275385,0.0,0.0,0.111501159668
1505403138513164425,0.023568358076,-0.0417429499727,0.000989276016062,0.0,0.0,0.0778294372559
1505403138563042072,0.0160893622395,-0.0301857552667,0.000987255092644,0.0,0.0,0.0843426513672
1505403138613183723,0.0107497640995,-0.0208498722988,0.000500258493217,0.0,0.0,0.105233840942
1505403138663174640,0.0204752290688,-0.0381631969299,0.00101482956609,0.0,0.0,0.108848876953
1505403138713273183,0.0213791224999,-0.0336204126471,0.000526319969221,0.0,0.0,0.0654914855957
1505403138763147701,0.0232436421277,-0.0325822812028,0.00105075159629,0.0,0.0,0.0788404083252
1505403138813085792,0.0322559782012,-0.0395509017789,0.000557696974205,0.0,0.0,0.0934622955322
1505403138863088600,0.016288485922,-0.0180881266165,0.000559041615475,0.0,0.0,0.103780899048
1505403138913137400,0.0269336020677,-0.0239509495235,0.000561813247676,0.0,0.0,0.0738470458984
1505403138963127806,0.0374154804704,-0.0228993583847,0.000563904085027,0.0,0.0,0.0698557281494
1505403139013118530,0.0198561940864,-0.00665216556779,0.00056279180634,0.0,0.0,0.0552862548828
1505403139063095453,0.0402376865009,-0.0117856312543,0.000561891168256,0.0,0.0,0.0755072021484
1505403139113453316,0.0295604389511,-0.000476372977906,0.00055997826244,0.0,0.0,0.0556091308594
1505403139163221638,0.0238706116585,0.00605710069061,-5.52880137531e-05,0.0,0.0,0.100690612793
1505403139213415305,0.0430025262388,0.00773548914449,-5.95909983519e-05,0.0,0.0,0.0976460266113
1505403139263181611,0.031906398428,0.0137535697753,0.000546538157201,0.0,0.0,0.0977886962891
1505403139313301363,0.0242874785455,0.0168211249812,0.000539676519758,0.0,0.0,0.0636261749268
1505403139363128937,0.0396617561466,0.0185915778924,0.0,0.0,0.0,0.0
1505403139413385646,0.0316192391344,0.0220312090206,-9.61193657809e-05,0.0,0.0,0.0721621704102
1505403139463033755,0.0260945573931,0.0269253031285,-0.000114743782717,0.0,0.0,0.0676058959961
1505403139513205145,0.0379401261334,0.0210742922488,0.000487425165042,0.0,0.0,0.0844427490234
1505403139563159603,0.033002313836,0.0225327920349,0.000468239881174,0.0,0.0,0.0886611938477
1505403139613499044,0.0260368868554,0.0219665216545,0.0,0.0,0.0,0.0
1505403139663120681,0.0369242689942,0.0162136870377,-0.000166242487297,0.0,0.0,0.0991989898682
1505403139713367146,0.0305398206196,0.013774752385,0.000443018180854,0.0,0.0,0.112784194946
1505403139763069083,0.0272454274984,0.0122380644368,-0.000179214164804,0.0,0.0,0.104457092285
1505403139813291722,0.0246509969288,0.00537130156861,-0.000179379363624,0.0,0.0,0.1032472229
1505403139863079629,0.0191382013139,0.00682887513457,0.000440162037325,0.0,0.0,0.114839782715
1505403139913148466,0.0207409720516,-0.00846929251765,0.000951837110113,0.0,0.0,0.106876678467
1505403139963177885,0.0169472225527,-0.00379282522216,-0.00017139371691,0.0,0.0,0.115275268555
1505403140014009726,0.0112938520728,0.000562344474501,0.000457351319272,0.0,0.0,0.0809599304199
1505403140063057682,0.0118857886235,-0.0183502776709,0.000469023286334,0.0,0.0,0.0811756134033
1505403140113153616,0.00943983626557,-0.0148615143253,0.000992237202657,0.0,0.0,0.109203338623
1505403140163198944,0.00825482482803,-0.00943842536501,0.000500411232144,0.0,0.0,0.105417938232
1505403140213300584,0.00887750906245,-0.0236524439887,0.00102073873744,0.0,0.0,0.0908097839355
1505403140263120571,0.00726980161465,-0.0132484473403,0.000517606048499,0.0,0.0,0.12622543335
1505403140313339682,0.00596245376058,-0.00521235249459,0.000521110392524,0.0,0.0,0.103500595093
1505403140363111046,0.00831229895776,-0.0188687821832,0.000521265904616,0.0,0.0,0.121965408325
1505403140413253550,0.00794929117448,-0.00893052829351,0.000529178678503,0.0,0.0,0.1347631073
1505403140463157899,0.00782871534178,-0.00541385805696,0.000536856062375,0.0,0.0,0.113553314209
1505403140513255319,0.0131649768052,-0.00591352023908,0.000536771562434,0.0,0.0,0.115638885498
1505403140563087634,0.0119348161875,-0.00256056877901,0.00053970821967,0.0,0.0,0.131119384766
1505403140613355448,0.0121797241969,0.00915741115389,-7.5993859413e-05,0.0,0.0,0.130319824219
1505403140663129045,0.0152581188455,0.0033797690559,0.000530160366738,0.0,0.0,0.115286102295
1505403140713145486,0.0202244798199,0.00831003178808,0.000529485631154,0.0,0.0,0.139505996704
1505403140763076456,0.0200914025129,0.0131667211487,-8.97282007094e-05,0.0,0.0,0.119240112305
1505403140813298446,0.0163675383355,0.0127416259435,0.000521826996729,0.0,0.0,0.100945739746
1505403140863178881,0.0206616858287,0.016961642149,0.000522561063136,0.0,0.0,0.117613220215
1505403140913314782,0.0258676093163,0.0183930233652,0.000515485092514,0.0,0.0,0.118681716919
1505403140963111463,0.0181551390506,0.0153450825616,0.000515368066083,0.0,0.0,0.110062255859
1505403141013160374,0.0224146975926,0.0233689302248,0.000511027514337,0.0,0.0,0.132110748291
1505403141063150438,0.0272226739757,0.0214780447226,0.000509483872062,0.0,0.0,0.115291595459
1505403141113228917,0.0207425335227,0.0234774306444,0.000503866983089,0.0,0.0,0.158500213623
1505403141163140998,0.025984908139,0.0227716985591,0.000500491447948,0.0,0.0,0.148096389771
1505403141213346248,0.0317136632034,0.0267562117514,-0.000116456457546,0.0,0.0,0.15421585083
1505403141263220654,0.0235088957231,0.0206036626258,0.000491707463014,0.0,0.0,0.142006530762
1505403141314168910,0.0291193527988,0.0233210839848,0.000495130247988,0.0,0.0,0.165621032715
1505403141363091227,0.035143253056,0.0217001232033,0.0,0.0,0.0,0.0
1505403141413220028,0.0243299270634,0.0209659035959,0.000486990689535,0.0,0.0,0.157154388428
1505403141463073360,0.0373535941959,0.0205214369526,0.000485709244386,0.0,0.0,0.18072227478
1505403141513336070,0.0335475207787,0.021281338621,-0.000136273776807,0.0,0.0,0.166262359619
1505403141563107645,0.0332482034409,0.0188257681187,0.000478589712126,0.0,0.0,0.148057861328
1505403141613140654,0.0298997748727,0.0184053652891,-0.000150878445667,0.0,0.0,0.160554046631
1505403141663127975,0.0411301898573,0.0149950198533,-0.000153252113776,0.0,0.0,0.157172622681
1505403141713270009,0.0358136991027,0.0139701488776,-0.000157291302362,0.0,0.0,0.142748565674
1505403141763064602,0.0353193157113,0.00936945028386,0.00045748696768,0.0,0.0,0.152142486572
1505403141813071873,0.0301851602577,0.00865014788425,0.000462031260873,0.0,0.0,0.147466278076
1505403141863395931,0.0403102749058,8.08777052787e-05,0.000456975755939,0.0,0.0,0.173637771606
1505403141914198753,0.0341061452927,0.00192517194326,0.000459204247604,0.0,0.0,0.134215545654
1505403141963230231,0.0308810861611,0.00714993717677,-0.000156153824845,0.0,0.0,0.164060134888
1505403142013252602,0.0357170074782,-0.00677323920108,0.000457528443607,0.0,0.0,0.135428771973
1505403142063058441,0.0309730590772,-0.00465188362038,0.000458901919609,0.0,0.0,0.165073852539
1505403142113194740,0.0276967629728,-0.00467251678467,0.000450774763003,0.0,0.0,0.14697807312
1505403142163197594,0.0298459729404,-0.0151493615847,-0.000162602878511,0.0,0.0,0.148652954102
1505403142213168249,0.0267928234922,-0.0158788583856,0.00045603844865,0.0,0.0,0.155922088623
1505403142263154588,0.0262798802768,-0.00654497158035,-0.00013994604859,0.0,0.0,0.153239898682
1505403142313379444,0.0257013814905,-0.0198744475537,0.000480073409395,0.0,0.0,0.142383728027
1505403142363141142,0.0291458610902,-0.0305448634405,0.000498032286537,0.0,0.0,0.170948791504
1505403142413342019,0.029173435749,-0.0199987129613,-0.000119913997091,0.0,0.0,0.165843048096
1505403142463334250,0.0336520383679,-0.0365016608067,0.000501402013177,0.0,0.0,0.167039794922
1505403142513320716,0.0348541735135,-0.0325125353048,0.000511198006539,0.0,0.0,0.163550262451
1505403142563193846,0.0310171311971,-0.0253581762306,0.000506371637525,0.0,0.0,0.173986206055
1505403142613285021,0.036817466389,-0.03295717775,0.000513228490261,0.0,0.0,0.152598876953
1505403142663076793,0.0383756813217,-0.0325491554617,0.000501226234654,0.0,0.0,0.160148162842
1505403142713144705,0.0414951461263,-0.0414154855258,0.000507772471254,0.0,0.0,0.155837860107
1505403142763250483,0.0397027615288,-0.0308174258789,0.00050046798344,0.0,0.0,0.164515228271
1505403142813246581,0.0367962245685,-0.0205888832428,-0.000113330166873,0.0,0.0,0.179992828369
1505403142863133496,0.0422418179932,-0.0292369295558,0.000504553508301,0.0,0.0,0.171959838867
1505403142913330172,0.0518601840051,-0.0311098088319,-0.000127081567773,0.0,0.0,0.160207519531
1505403142963112012,0.0393323895503,-0.0169359086345,0.000488734995762,0.0,0.0,0.173623657227
1505403143013291273,0.0557876306527,-0.0236980814794,-0.000130011223639,0.0,0.0,0.164360961914
1505403143063180812,0.0423126324833,-0.0110168937517,0.000477459554232,0.0,0.0,0.147471313477
1505403143113373559,0.05043973791,-0.0113365535761,0.000482676774765,0.0,0.0,0.183157424927
1505403143163164422,0.0608892887294,-0.0100245064877,0.000479723466998,0.0,0.0,0.147515716553
1505403143213187738,0.0484954517648,-0.00332569140229,0.000470443584752,0.0,0.0,0.178996734619
1505403143263162495,0.0646080539545,-0.00355319244302,0.000475816677272,0.0,0.0,0.177651977539
1505403143313372040,0.0609634277016,0.000477601355934,0.000471868470328,0.0,0.0,0.17864364624
1505403143363052233,0.0560909293953,-0.00108675513817,0.000476615477943,0.0,0.0,0.187867279053
1505403143413161445,0.0749794540825,0.00352893438831,0.0,0.0,0.0,0.0
1505403143463120347,0.0686189141473,0.0025353827781,0.0,0.0,0.0,0.0
1505403143513129930,0.0621582415757,0.0074500128244,0.0,0.0,0.0,0.0
1505403143563130071,0.0776719801969,0.00376824000566,0.0,0.0,0.0,0.0
1505403143613279106,0.069415953982,0.00331044873312,0.0,0.0,0.0,0.0
1505403143663332412,0.0787259224539,0.00407900238234,0.0,0.0,0.0,0.0
1505403143713231300,0.0758741703594,0.00388588173458,0.0,0.0,0.0,0.0
1505403143763129414,0.0738968178671,0.0028738250687,0.0,0.0,0.0,0.0
1505403143813368994,0.0802173164926,-0.000847167492896,0.0,0.0,0.0,0.0
1505403143863059516,0.0826385586886,-0.00674713443706,0.0,0.0,0.0,0.0
1505403143913264796,0.0829348764107,-0.0151428693525,0.0,0.0,0.0,0.0
1505403143963135468,0.0850114172039,-0.0180728339326,0.0,0.0,0.0,0.0
1505403144013250145,0.0692863814267,-0.0311955723864,0.0,0.0,0.0,0.0
1505403144063124776,0.0732115932851,-0.0408094285888,0.0,0.0,0.0,0.0
1505403144113257904,0.0629570414809,-0.0370196661579,0.0,0.0,0.0,0.0
1505403144163170974,0.0594656426352,-0.0432266355095,0.0,0.0,0.0,0.0
1505403144213362785,0.0621178944244,-0.0534800461925,0.0,0.0,0.0,0.0
1505403144263152769,0.0593394518965,-0.0406988240735,0.0,0.0,0.0,0.0
1505403144313302212,0.052297681826,-0.0402198205706,0.0,0.0,0.0,0.0
1505403144363084596,0.0581480426832,-0.0470152133482,0.0,0.0,0.0,0.0
1505403144413172491,0.0527310711744,-0.0272327315644,0.0,0.0,0.0,0.0
1505403144463139322,0.0551905961647,-0.0249772258729,0.0,0.0,0.0,0.0
1505403144513139865,0.0554954786453,-0.0169176815537,0.0,0.0,0.0,0.0
1505403144563179973,0.0566158836321,-0.00556453608969,0.0,0.0,0.0,0.0
1505403144613119208,0.0626164221617,0.00983271389168,0.0,0.0,0.0,0.0
1505403144663206740,0.0525145122262,0.0101106073376,0.0,0.0,0.0,0.0
1505403144713219257,0.0617271371074,0.0277674445223,0.0,0.0,0.0,0.0
1505403144763153584,0.0700804161181,0.0435583438557,0.0,0.0,0.0,0.0
1505403144813227393,0.0614620553149,0.0359594733721,0.0,0.0,0.0,0.0
1505403144863136641,0.0727884185819,0.0540055053253,0.0,0.0,0.0,0.0
1505403144913226526,0.0737141316474,0.0603137489886,0.0,0.0,0.0,0.0
1505403144963100011,0.054065720714,0.0248872806861,0.0,0.0,0.0,0.0
1505403145013342563,0.106165890488,0.116944167641,0.0,0.0,0.0,0.0
1505403145063201320,0.079377496653,0.0731520811757,0.0,0.0,0.0,0.0
1505403145113255993,0.0859410442516,0.0795644410333,0.0,0.0,0.0,0.0
1505403145163077414,0.0900556565072,0.0809026377162,0.0,0.0,0.0,0.0
1505403145213222384,0.0930676781672,0.0831032704456,0.0,0.0,0.0,0.0
1505403145263147000,0.0975843070343,0.0833187477672,0.0,0.0,0.0,0.0
1505403145313282263,0.0970522199398,0.0792633959669,0.0,0.0,0.0,0.0
1505403145363127567,0.0963773700256,0.0725356057755,0.0,0.0,0.0,0.0
1505403145413281594,0.0953297879168,0.0684163914656,0.0,0.0,0.0,0.0
1505403145463075197,0.0927567652319,0.0641805784732,0.0,0.0,0.0,0.0
1505403145513532190,0.0895100493883,0.0569472041689,0.0,0.0,0.0,0.0
1505403145563158147,0.086142865968,0.0519799943039,0.0,0.0,0.0,0.0
1505403145613164614,0.0852615348674,0.0522493656364,0.0,0.0,0.0,0.0
1505403145663114742,0.0696369916734,0.0307772275551,0.0,0.0,0.0,0.0
1505403145713301254,0.06666710598,0.0324698599598,0.0,0.0,0.0,0.0
1505403145763118702,0.0576893074901,0.0268475634627,0.0,0.0,0.0,0.0
1505403145813365520,0.0489286817328,0.0221060968946,0.0,0.0,0.0,0.0
1505403145863099780,0.0399612939705,0.0184879285714,0.0,0.0,0.0,0.0
1505403145913300035,0.0320428960018,0.0147437048185,0.0,0.0,0.0,0.0
1505403145963259227,0.0255254504199,0.011090254321,0.0,0.0,0.0,0.0
1505403146013166303,0.0189900604715,0.00932797672427,0.0,0.0,0.0,0.0
1505403146063300928,0.0135154033525,0.00865688710384,0.0,0.0,0.0,0.0
1505403146113165373,0.00803612565254,0.00995855719941,0.0,0.0,0.0,0.0
1505403146163097644,0.00370678703518,0.011703761857,0.0,0.0,0.0,0.0
1505403146213394900,-0.00013543217711,0.012844868231,0.0,0.0,0.0,0.0
1505403146263221604,-0.00319150276221,0.0112745168726,0.0,0.0,0.0,0.0
1505403146313241997,-0.00550939566361,0.0115771594157,0.0,0.0,0.0,0.0
1505403146363099473,-0.00700535670287,0.0118720942292,0.0,0.0,0.0,0.0
1505403146413328445,-0.00790044101739,0.0131539261863,0.0,0.0,0.0,0.0
1505403146463160518,-0.0090166477666,0.0137710215653,0.0,0.0,0.0,0.0
1505403146514423660,-0.00955878651823,0.0177618469338,0.0,0.0,0.0,0.0
1505403146563279948,-0.00879971997404,0.0226880469069,0.0,0.0,0.0,0.0
1505403146613369890,-0.0067842784894,0.0224443422278,0.0,0.0,0.0,0.0
1505403146663111498,-0.00595542173506,0.0228401878512,0.0,0.0,0.0,0.0
1505403146713365453,-0.00581271854553,0.0235476866318,0.0,0.0,0.0,0.0
1505403146763111943,-0.00575423131914,0.0263763583013,0.0,0.0,0.0,0.0
1505403146813265159,-0.00421870148338,0.0273538023943,0.0,0.0,0.0,0.0
1505403146863427761,-0.00318680721262,0.0299088068437,0.0,0.0,0.0,0.0
1505403146913206627,-0.00180340366112,0.0284733046515,0.0,0.0,0.0,0.0
1505403146963209620,-0.000796448595945,0.0245957493191,0.0,0.0,0.0,0.0
1505403147013391638,0.00111260014324,0.021822218311,0.0,0.0,0.0,0.0
1505403147063127480,0.00263247348355,0.0176182164527,0.0,0.0,0.0,0.0
1505403147113162401,0.00505564676506,0.014402662707,0.0,0.0,0.0,0.0
1505403147163142230,0.00689121720593,0.0118921552605,0.0,0.0,0.0,0.0
1505403147213291221,0.00942483166772,0.00751302376146,0.0,0.0,0.0,0.0
1505403147263105030,0.0114209080895,0.00289523221802,0.0,0.0,0.0,0.0
1505403147313416936,0.0138635516942,-0.000564296704215,0.0,0.0,0.0,0.0
1505403147363049072,0.0157412411579,-0.00445263718956,0.0,0.0,0.0,0.0
1505403147413144734,0.0179795566438,-0.0110758610334,0.0,0.0,0.0,0.0
1505403147463099499,0.0197577914201,-0.0209962680215,0.0,0.0,0.0,0.0
1505403147513333096,0.0208542722828,-0.027215007178,0.0,0.0,0.0,0.0
1505403147563210800,0.0210784764873,-0.0334622306064,0.0,0.0,0.0,0.0
1505403147613176955,0.0219643552615,-0.0397924098455,0.0,0.0,0.0,0.0
1505403147663083976,0.0228484556681,-0.047929545272,0.0,0.0,0.0,0.0
1505403147713354392,0.0232479380452,-0.0537861659282,0.0,0.0,0.0,0.0
1505403147763131072,0.0228444513374,-0.0570069515969,0.0,0.0,0.0,0.0
1505403147813150493,0.020985912215,-0.0580095370061,0.0,0.0,0.0,0.0
1505403147863150152,0.0192888519499,-0.0591086551273,0.0,0.0,0.0,0.0
1505403147913099523,0.0174219421376,-0.0615881528244,0.0,0.0,0.0,0.0
1505403147963142252,0.0141725480094,-0.0613899684211,0.0,0.0,0.0,0.0
1505403148013274941,0.0105859874209,-0.0623635899921,0.0,0.0,0.0,0.0
1505403148063165446,0.00725284183626,-0.0607946495181,0.0,0.0,0.0,0.0
1505403148113296361,0.00397011315339,-0.0596613830738,0.0,0.0,0.0,0.0
1505403148163128329,0.00210953078207,-0.057815269142,0.0,0.0,0.0,0.0
1505403148213218783,0.000166480734617,-0.0552299283897,0.0,0.0,0.0,0.0
1505403148263037319,-0.00181908762751,-0.0514765283989,0.0,0.0,0.0,0.0
1505403148313332736,-0.00337824622305,-0.0509772821268,0.0,0.0,0.0,0.0
1505403148363375549,-0.00521737492758,-0.0518961779813,0.0,0.0,0.0,0.0
1505403148413224029,-0.00808014525851,-0.0509631215904,0.0,0.0,0.0,0.0
1505403148463144102,-0.0111656504279,-0.0477338129401,0.0,0.0,0.0,0.0
1505403148513188126,-0.0142782313805,-0.0445898400713,0.0,0.0,0.0,0.0
1505403148563083355,-0.0172225922636,-0.0427698821078,0.0,0.0,0.0,0.0
1505403148613118448,-0.0201671618779,-0.0379116901754,0.0,0.0,0.0,0.0
1505403148663137430,-0.0229781145645,-0.0341798120998,0.0,0.0,0.0,0.0
1505403148713254293,-0.0259531904497,-0.0334842605891,0.0,0.0,0.0,0.0
1505403148763025149,-0.0285655842891,-0.0335251446702,0.0,0.0,0.0,0.0
1505403148813219039,-0.029575078534,-0.0371335334536,0.0,0.0,0.0,0.0
1505403148863306056,-0.0306644027727,-0.0407124690197,0.0,0.0,0.0,0.0
1505403148913208194,-0.0325397191252,-0.0445141536739,0.0,0.0,0.0,0.0
1505403148963134363,-0.0328186398922,-0.0508502291252,0.0,0.0,0.0,0.0
1505403149013231405,-0.0204675610749,-0.0712997643368,0.00107895537452,0.0,0.0,0.159686813354
1505403149063206045,-0.0195323274125,-0.0745967011283,0.00107111491,0.0,0.0,0.178192977905
1505403149114170675,-0.017793084354,-0.0778935743635,0.00106348393943,0.0,0.0,0.171258544922
1505403149163147659,-0.0151092297883,-0.0832333103746,0.000548952792476,0.0,0.0,0.178778381348
1505403149213281679,-0.0151023580564,-0.0826062893299,0.00104240608443,0.0,0.0,0.157606964111
1505403149263087114,-0.012797757267,-0.0851574230753,0.00102567883155,0.0,0.0,0.146739807129
1505403149313308625,-0.0105326490418,-0.0885623195303,0.000997677571979,0.0,0.0,0.158016357422
1505403149363153604,-0.00770547598656,-0.0878993974003,0.000971896877349,0.0,0.0,0.157689208984
1505403149413341390,-0.00556663440095,-0.0873070273428,0.000953451736168,0.0,0.0,0.160256195068
1505403149463186399,-0.00304294369662,-0.0844533350742,0.000948048138362,0.0,0.0,0.158278656006
1505403149513256653,0.000961562088501,-0.0828342900783,0.000431880481742,0.0,0.0,0.163149490356
1505403149563216147,0.00236226507179,-0.0770844787953,0.000937525502692,0.0,0.0,0.152094573975
1505403149613234859,0.00586765936439,-0.0752195768273,0.000932481796509,0.0,0.0,0.144404602051
1505403149663169072,0.0100254558956,-0.0733209354637,0.0,0.0,0.0,0.0
1505403149714203480,0.0125661658654,-0.0688814331649,0.0,0.0,0.0,0.0
1505403149763105851,0.0150930582452,-0.0666493121448,0.0,0.0,0.0,0.0
1505403149813414718,0.0185105532939,-0.0655160538181,0.0,0.0,0.0,0.0
1505403149863108276,0.0200480870835,-0.0657350332715,0.0,0.0,0.0,0.0
1505403149913374661,0.0202666396924,-0.0630986208756,0.0,0.0,0.0,0.0
1505403149963097176,0.0220079832406,-0.061492290611,0.0,0.0,0.0,0.0
1505403150013225160,0.0243544550134,-0.0583174426389,0.0,0.0,0.0,0.0
1505403150063186780,0.0242768924128,-0.0580318090863,0.0,0.0,0.0,0.0
1505403150113211688,0.0283317020224,-0.0567670155543,0.0,0.0,0.0,0.0
1505403150163163319,0.0310691907433,-0.0541721538909,0.0,0.0,0.0,0.0
1505403150213182371,0.0314577665372,-0.0527347742186,0.0,0.0,0.0,0.0
1505403150263103301,0.0321504414306,-0.0509716182778,0.0,0.0,0.0,0.0
1505403150313412180,0.0333076261078,-0.0454100526298,0.0,0.0,0.0,0.0
1505403150363284231,0.0374292874046,-0.0416810788399,0.0,0.0,0.0,0.0
1505403150413275160,0.0404372205824,-0.0398505233876,0.0,0.0,0.0,0.0
1505403150463161266,0.0404246785079,-0.038526875719,0.0,0.0,0.0,0.0
1505403150513260115,0.0400366929488,-0.033939461976,0.0,0.0,0.0,0.0
1505403150563170477,0.0387097964904,-0.0339564043772,0.0,0.0,0.0,0.0
1505403150613201732,0.0377139162696,-0.0353648516539,0.0,0.0,0.0,0.0
1505403150663206778,0.0336886953677,-0.0303905292464,0.00144225444775,0.0,0.0,0.166164550781
1505403150713247650,0.0231939051867,-0.034220436337,0.00146109296163,0.0,0.0,0.178127288818
1505403150763141178,0.0443394359936,-0.0347966852525,0.00146436110653,0.0,0.0,0.173213500977
1505403150813485432,0.0285282265313,-0.0372662801512,0.00145889433641,0.0,0.0,0.176261444092
1505403150863086463,0.0256576867787,-0.0403023671415,0.00145207318431,0.0,0.0,0.177959594727
1505403150913235171,0.0255709337633,-0.047549363421,0.0,0.0,0.0,0.0
1505403150963166334,0.0197935464544,-0.0395595604145,0.0,0.0,0.0,0.0
1505403151013261929,0.0103288619205,-0.0637110533092,0.0,0.0,0.0,0.0
1505403151063056154,0.00478796023381,-0.0514542192426,0.0,0.0,0.0,0.0
1505403151113269857,-0.00385800451203,-0.0540378024747,0.0,0.0,0.0,0.0
1505403151163121059,-0.0113296543492,-0.0555480364386,0.0,0.0,0.0,0.0
1505403151213084726,-0.0151512056155,-0.0557939427202,0.0,0.0,0.0,0.0
1505403151263159707,-0.0161290654754,-0.0522363084806,0.00145212886437,0.0,0.0,0.19536819458
1505403151313289797,-0.0188772733796,-0.0534749294255,0.000969074556355,0.0,0.0,0.200973434448
1505403151363187015,-0.0229075929352,-0.0485886886162,0.000969051041811,0.0,0.0,0.203222808838
1505403151413204177,-0.0284245470144,-0.0443735879179,0.0014424450984,0.0,0.0,0.203480987549
1505403151463162444,-0.0319580290642,-0.0437932206841,0.000973061699964,0.0,0.0,0.211400299072
1505403151513285755,-0.035464880957,-0.0382192191146,0.000978927506845,0.0,0.0,0.205776672363
1505403151563107891,-0.0390348274459,-0.0357034519267,0.0009727459544,0.0,0.0,0.198432922363
1505403151613351824,-0.0373082762606,-0.0353105556246,0.000984280543737,0.0,0.0,0.197528991699
1505403151663166895,-0.0378790154883,-0.0299984638612,0.000971822001714,0.0,0.0,0.202864532471
1505403151713167062,-0.00532109985898,-0.0305822486136,0.000454307650808,0.0,0.0,0.206305084229
1505403151763177190,-0.0753691793511,-0.0180433177208,0.000957430470864,0.0,0.0,0.196393814087
1505403151813334966,-0.0303251560284,-0.0156509513609,0.000957451620526,0.0,0.0,0.198151245117
1505403151863110478,-0.0305673034578,-0.0145669703971,0.000457414005228,0.0,0.0,0.198584289551
1505403151913287752,-0.0278158744476,-0.0119394418823,0.000466374959483,0.0,0.0,0.206771621704
1505403151963114076,-0.0249071030419,-0.00727969703301,0.00046581039273,0.0,0.0,0.212411499023
1505403152013302390,-0.0218721622011,-0.00576784116959,0.000470225732815,0.0,0.0,0.196395874023
1505403152063245162,-0.0182056615279,-0.000763508183536,0.000484492960212,0.0,0.0,0.18970916748
1505403152113307445,-0.013354339206,0.00310496870342,0.000498367376121,0.0,0.0,0.17715057373
1505403152163251482,-0.0104790654426,0.00419649847634,0.000512490253902,0.0,0.0,0.18825302124
1505403152213307503,-0.00816466931893,0.00447405274024,0.000515471322647,0.0,0.0,0.186636657715
1505403152263336539,-0.00720312784498,0.00500970839971,0.000518686647482,0.0,0.0,0.192272644043
1505403152313255997,-0.00744575673486,0.00708335540537,0.00052709027885,0.0,0.0,0.183856658936
1505403152363245770,-0.00628051117968,-0.00211278630832,0.000533471893896,0.0,0.0,0.182311706543
1505403152413379651,-0.0106337748416,0.00979970911952,0.000535790201786,0.0,0.0,0.177382965088
1505403152463083841,-0.0102665662187,0.00107988441806,0.000540104187405,0.0,0.0,0.183510742187
1505403152513318165,-0.0110264355036,-0.00103766613769,0.000542522632327,0.0,0.0,0.16926109314
1505403152563133684,-0.0124077486617,-0.00357736278719,0.000547030284063,0.0,0.0,0.173690185547
1505403152613167627,-0.0147581923282,-0.00586518854796,0.000543403982767,0.0,0.0,0.168837585449
1505403152663152768,-0.0144234367393,-0.0103619235375,0.000541026965448,0.0,0.0,0.153424987793
1505403152713263661,-0.014985910348,-0.00925267652992,0.00104715720247,0.0,0.0,0.163349609375
1505403152763128962,-0.0153048429564,-0.0138515464827,0.000539766935225,0.0,0.0,0.170685653687
1505403152813284455,-0.0145851132157,-0.0151114501033,0.000540088944269,0.0,0.0,0.157715835571
1505403152863093226,-0.0146236519747,-0.0203575010733,0.000534139429354,0.0,0.0,0.141378631592
