%time,field.linear.x,field.linear.y,field.linear.z,field.angular.x,field.angular.y,field.angular.z
1505403118525449653,0.340143955254,-0.151618726508,0.0622715726495,-2000.0,0.0,-0.0501093025046
1505403118532914001,0.340143955254,-0.151618726508,0.0612257309258,-2000.0,0.0,-0.0501093025046
1505403118537386683,0.340143955254,-0.151618726508,0.0612257309258,-2000.0,0.0,-0.0501093025046
1505403118543257057,0.340143955254,-0.151618726508,0.0600991360843,-2000.0,0.0,-0.0501093025046
1505403118547830134,0.340143955254,-0.151618726508,0.0589685030282,-2000.0,0.0,-0.0501093025046
1505403118552845114,0.340143955254,-0.151618726508,0.0589685030282,-2000.0,0.0,-0.0501093025046
1505403118558100196,0.340143955254,-0.151618726508,0.0579908192158,-2000.0,0.0,-0.0501093025046
1505403118563953860,0.340143955254,-0.151618726508,0.0579908192158,-2000.0,0.0,-0.0519912655343
1505403118568042041,0.340143955254,-0.151618726508,0.0569078996778,-2000.0,0.0,-0.0519912655343
1505403118577256125,0.340143955254,-0.151618726508,0.0569078996778,-2000.0,0.0,-0.0519912655343
1505403118577757320,0.340143955254,-0.151618726508,0.0558600388467,-2000.0,0.0,-0.0519912655343
1505403118585319729,0.340143955254,-0.151618726508,0.0558600388467,-2000.0,0.0,-0.0519912655343
1505403118591266574,0.340143955254,-0.151618726508,0.0547403804958,-2000.0,0.0,-0.0519912655343
1505403118592790536,0.340143955254,-0.151618726508,0.0547403804958,-2000.0,0.0,-0.0519912655343
1505403118598003057,0.340143955254,-0.151618726508,0.0536609664559,-2000.0,0.0,-0.0519912655343
1505403118602786404,0.340143955254,-0.151618726508,0.0536609664559,-2000.0,0.0,-0.0519912655343
1505403118611610002,0.340143955254,-0.151618726508,0.0526534058154,-2000.0,0.0,-0.0519912655343
1505403118614301500,0.340143955254,-0.151618726508,0.0526534058154,-2000.0,0.0,-0.0535484287481
1505403118617987505,0.340143955254,-0.151618726508,0.0516191832721,-2000.0,0.0,-0.0535484287481
1505403118626108073,0.340143955254,-0.151618726508,0.0516191832721,-2000.0,0.0,-0.0535484287481
1505403118628175069,0.340143955254,-0.151618726508,0.0505650341511,-2000.0,0.0,-0.0535484287481
1505403118634738291,0.340143955254,-0.151618726508,0.0505650341511,-2000.0,0.0,-0.0535484287481
1505403118638153607,0.340143955254,-0.151618726508,0.0494330450892,-2000.0,0.0,-0.0535484287481
1505403118643434022,0.340143955254,-0.151618726508,0.0494330450892,-2000.0,0.0,-0.0535484287481
1505403118650338542,0.340143955254,-0.151618726508,0.0483944267035,-2000.0,0.0,-0.0535484287481
1505403118657002318,0.340143955254,-0.151618726508,0.0483944267035,-2000.0,0.0,-0.0535484287481
1505403118658674382,0.340143955254,-0.151618726508,0.047434411943,-2000.0,0.0,-0.0535484287481
1505403118663549359,0.340143955254,-0.151618726508,0.047434411943,-2000.0,0.0,-0.0543816930263
1505403118669528403,0.340143955254,-0.151618726508,0.0464236736298,-2000.0,0.0,-0.0543816930263
1505403118679014361,0.340143955254,-0.151618726508,0.0464236736298,-2000.0,0.0,-0.0543816930263
1505403118680166777,0.340143955254,-0.151618726508,0.0464236736298,-2000.0,0.0,-0.0543816930263
1505403118684288667,0.340143955254,-0.151618726508,0.0464236736298,-2000.0,0.0,-0.0543816930263
1505403118691432413,0.340143955254,-0.151618726508,0.0453951247036,-2000.0,0.0,-0.0543816930263
1505403118697669153,0.340143955254,-0.151618726508,0.0453951247036,-2000.0,0.0,-0.0543816930263
1505403118699138164,0.340143955254,-0.151618726508,0.0453951247036,-2000.0,0.0,-0.0543816930263
1505403118704135581,0.340143955254,-0.151618726508,0.0453951247036,-2000.0,0.0,-0.0543816930263
1505403118709089268,0.340143955254,-0.151618726508,0.0453951247036,-2000.0,0.0,-0.0543816930263
1505403118716581147,0.340143955254,-0.151618726508,0.0453951247036,-2000.0,0.0,-0.0540119468481
1505403118718421591,0.340143955254,-0.151618726508,0.0453951247036,-2000.0,0.0,-0.0540119468481
1505403118725362898,0.340143955254,-0.151618726508,0.0453951247036,-2000.0,0.0,-0.0540119468481
1505403118729103104,0.340143955254,-0.151618726508,0.0453951247036,-2000.0,0.0,-0.0540119468481
1505403118733518293,0.340143955254,-0.151618726508,0.0453951247036,-2000.0,0.0,-0.0540119468481
1505403118738829048,0.340143955254,-0.151618726508,0.0396678559482,-2000.0,0.0,-0.0540119468481
1505403118743861208,0.340143955254,-0.151618726508,0.0396678559482,-2000.0,0.0,-0.0540119468481
1505403118748689373,0.340143955254,-0.151618726508,0.0387747362256,-2000.0,0.0,-0.0540119468481
1505403118759632381,0.340143955254,-0.151618726508,0.0379555895925,-2000.0,0.0,-0.0540119468481
1505403118763611905,0.340143955254,-0.151618726508,0.0379555895925,-2000.0,0.0,-0.0560407816379
1505403118768749697,0.340143955254,-0.151618726508,0.0370729789138,-2000.0,0.0,-0.0560407816379
1505403118775598566,0.340143955254,-0.151618726508,0.0370729789138,-2000.0,0.0,-0.0560407816379
1505403118778985296,0.340143955254,-0.151618726508,0.0362319797277,-2000.0,0.0,-0.0560407816379
1505403118784180482,0.340143955254,-0.151618726508,0.0362319797277,-2000.0,0.0,-0.0560407816379
1505403118791454291,0.340143955254,-0.151618726508,0.0354282148182,-2000.0,0.0,-0.0560407816379
1505403118793986356,0.340143955254,-0.151618726508,0.0354282148182,-2000.0,0.0,-0.0560407816379
1505403118798826157,0.340143955254,-0.151618726508,0.0346173793077,-2000.0,0.0,-0.0560407816379
1505403118806292753,0.340143955254,-0.151618726508,0.0346173793077,-2000.0,0.0,-0.0560407816379
1505403118808782285,0.340143955254,-0.151618726508,0.0338575989008,-2000.0,0.0,-0.0560407816379
1505403118814723287,0.340143955254,-0.151618726508,0.0338575989008,-2000.0,0.0,-0.0573805744679
1505403118819084845,0.340143955254,-0.151618726508,0.0330757312477,-2000.0,0.0,-0.0573805744679
1505403118824518520,0.340143955254,-0.151618726508,0.0330757312477,-2000.0,0.0,-0.0573805744679
1505403118829716079,0.340143955254,-0.151618726508,0.0323738977313,-2000.0,0.0,-0.0573805744679
1505403118834350981,0.340143955254,-0.151618726508,0.0323738977313,-2000.0,0.0,-0.0573805744679
1505403118840761035,0.340143955254,-0.151618726508,0.0316294170916,-2000.0,0.0,-0.0573805744679
1505403118844066065,0.340143955254,-0.151618726508,0.0316294170916,-2000.0,0.0,-0.0573805744679
1505403118849191748,0.340143955254,-0.151618726508,0.0309218671173,-2000.0,0.0,-0.0573805744679
1505403118857888968,0.340143955254,-0.151618726508,0.0303095914423,-2000.0,0.0,-0.0573805744679
1505403118858974237,0.340143955254,-0.151618726508,0.0303095914423,-2000.0,0.0,-0.0573805744679
1505403118864801196,0.340143955254,-0.151618726508,0.0303095914423,-2000.0,0.0,-0.0580133234455
1505403118870869909,0.340143955254,-0.151618726508,0.0296401679516,-2000.0,0.0,-0.0580133234455
1505403118874397880,0.340143955254,-0.151618726508,0.0296401679516,-2000.0,0.0,-0.0580133234455
1505403118879307493,0.340143955254,-0.151618726508,0.0290151592344,-2000.0,0.0,-0.0580133234455
1505403118884465948,0.340143955254,-0.151618726508,0.0290151592344,-2000.0,0.0,-0.0580133234455
1505403118892011890,0.340143955254,-0.151618726508,0.028391437605,-2000.0,0.0,-0.0580133234455
1505403118896797738,0.340143955254,-0.151618726508,0.028391437605,-2000.0,0.0,-0.0580133234455
1505403118899589231,0.340143955254,-0.151618726508,0.0277601797134,-2000.0,0.0,-0.0580133234455
1505403118904971702,0.340143955254,-0.151618726508,0.0277601797134,-2000.0,0.0,-0.0580133234455
1505403118910057454,0.340143955254,-0.151618726508,0.027249539271,-2000.0,0.0,-0.0580133234455
1505403118914938693,0.340143955254,-0.151618726508,0.027249539271,-2000.0,0.0,-0.0584606585857
1505403118919387136,0.340143955254,-0.151618726508,0.0266827829182,-2000.0,0.0,-0.0584606585857
1505403118925046050,0.340143955254,-0.151618726508,0.0266827829182,-2000.0,0.0,-0.0584606585857
1505403118929408536,0.340143955254,-0.151618726508,0.0261509921402,-2000.0,0.0,-0.0584606585857
1505403118934978384,0.340143955254,-0.151618726508,0.0261509921402,-2000.0,0.0,-0.0584606585857
1505403118941539953,0.340143955254,-0.151618726508,0.0256810132414,-2000.0,0.0,-0.0584606585857
1505403118944825774,0.340143955254,-0.151618726508,0.0256810132414,-2000.0,0.0,-0.0584606585857
1505403118949709646,0.340143955254,-0.151618726508,0.0251518636942,-2000.0,0.0,-0.0584606585857
1505403118959185300,0.340143955254,-0.151618726508,0.0247079133987,-2000.0,0.0,-0.0584606585857
1505403118959508380,0.340143955254,-0.151618726508,0.0247079133987,-2000.0,0.0,-0.0584606585857
1505403118966545450,0.340143955254,-0.151618726508,0.0247079133987,-2000.0,0.0,-0.0603154057901
1505403118970260604,0.340143955254,-0.151618726508,0.0242287926376,-2000.0,0.0,-0.0603154057901
1505403118981406170,0.340143955254,-0.151618726508,0.0237969215959,-2000.0,0.0,-0.0603154057901
1505403118983992854,0.340143955254,-0.151618726508,0.0237969215959,-2000.0,0.0,-0.0603154057901
1505403118992062546,0.340143955254,-0.151618726508,0.0233063716441,-2000.0,0.0,-0.0603154057901
1505403118995132296,0.340143955254,-0.151618726508,0.0233063716441,-2000.0,0.0,-0.0603154057901
1505403119001542809,0.340143955254,-0.151618726508,0.0228858720511,-2000.0,0.0,-0.0603154057901
1505403119005341389,0.340143955254,-0.151618726508,0.0228858720511,-2000.0,0.0,-0.0603154057901
1505403119010043128,0.340143955254,-0.151618726508,0.0225484799594,-2000.0,0.0,-0.0603154057901
1505403119015197162,0.340143955254,-0.151618726508,0.0225484799594,-2000.0,0.0,-0.0632041340165
1505403119024762603,0.340143955254,-0.151618726508,0.0221548378468,-2000.0,0.0,-0.0632041340165
1505403119025723783,0.340143955254,-0.151618726508,0.0221548378468,-2000.0,0.0,-0.0632041340165
1505403119035568489,0.340143955254,-0.151618726508,0.0217463225126,-2000.0,0.0,-0.0632041340165
1505403119040182406,0.340143955254,-0.151618726508,0.0213304515928,-2000.0,0.0,-0.0632041340165
1505403119047482880,0.340143955254,-0.151618726508,0.0210030786693,-2000.0,0.0,-0.0632041340165
1505403119050198249,0.340143955254,-0.151618726508,0.0210030786693,-2000.0,0.0,-0.0632041340165
1505403119060472198,0.340143955254,-0.151618726508,0.0206872932613,-2000.0,0.0,-0.0632041340165
1505403119064975301,0.340143955254,-0.151618726508,0.0206872932613,-2000.0,0.0,-0.0659532603878
1505403119066770005,0.340143955254,-0.151618726508,0.0202936604619,-2000.0,0.0,-0.0659532603878
1505403119070736302,0.340143955254,-0.151618726508,0.0202936604619,-2000.0,0.0,-0.0659532603878
1505403119075499251,0.340143955254,-0.151618726508,0.0202936604619,-2000.0,0.0,-0.0659532603878
1505403119080485517,0.340143955254,-0.151618726508,0.0199843719602,-2000.0,0.0,-0.0659532603878
1505403119085512400,0.340143955254,-0.151618726508,0.0199843719602,-2000.0,0.0,-0.0659532603878
1505403119094248901,0.340143955254,-0.151618726508,0.0196799524128,-2000.0,0.0,-0.0659532603878
1505403119096087039,0.340143955254,-0.151618726508,0.0196799524128,-2000.0,0.0,-0.0659532603878
1505403119100751993,0.340143955254,-0.151618726508,0.0194138716906,-2000.0,0.0,-0.0659532603878
1505403119105683107,0.340143955254,-0.151618726508,0.0194138716906,-2000.0,0.0,-0.0659532603878
1505403119110613320,0.340143955254,-0.151618726508,0.0190796609968,-2000.0,0.0,-0.0659532603878
1505403119116547859,0.340143955254,-0.151618726508,0.0190796609968,-2000.0,0.0,-0.0693581323172
1505403119121314461,0.340143955254,-0.151618726508,0.0187312550843,-2000.0,0.0,-0.0693581323172
1505403119125401962,0.340143955254,-0.151618726508,0.0187312550843,-2000.0,0.0,-0.0693581323172
1505403119130950341,0.340143955254,-0.151618726508,0.0184961277992,-2000.0,0.0,-0.0693581323172
1505403119139262307,0.340143955254,-0.151618726508,0.0182155407965,-2000.0,0.0,-0.0693581323172
1505403119140377227,0.340143955254,-0.151618726508,0.0182155407965,-2000.0,0.0,-0.0693581323172
1505403119146302176,0.340143955254,-0.151618726508,0.0182155407965,-2000.0,0.0,-0.0693581323172
1505403119159169699,0.340143955254,-0.151618726508,0.0179930329323,-2000.0,0.0,-0.0693581323172
1505403119160747024,0.340143955254,-0.151618726508,0.0177037473768,-2000.0,0.0,-0.0693581323172
1505403119162446027,0.340143955254,-0.151618726508,0.0177037473768,-2000.0,0.0,-0.0693581323172
1505403119167384970,0.340143955254,-0.151618726508,0.0174398701638,-2000.0,0.0,-0.072701157432
1505403119171583602,0.340143955254,-0.151618726508,0.0174398701638,-2000.0,0.0,-0.072701157432
1505403119176024735,0.340143955254,-0.151618726508,0.0174398701638,-2000.0,0.0,-0.072701157432
1505403119181090239,0.340143955254,-0.151618726508,0.0172195024788,-2000.0,0.0,-0.072701157432
1505403119186143062,0.340143955254,-0.151618726508,0.0172195024788,-2000.0,0.0,-0.072701157432
1505403119191794758,0.340143955254,-0.151618726508,0.0172195024788,-2000.0,0.0,-0.072701157432
1505403119197879359,0.340143955254,-0.151618726508,0.0172195024788,-2000.0,0.0,-0.072701157432
1505403119201075548,0.340143955254,-0.151618726508,0.0172195024788,-2000.0,0.0,-0.072701157432
1505403119207544257,0.340143955254,-0.151618726508,0.0172195024788,-2000.0,0.0,-0.072701157432
1505403119211214817,0.340143955254,-0.151618726508,0.0172195024788,-2000.0,0.0,-0.072701157432
1505403119218288463,0.340143955254,-0.151618726508,0.0172195024788,-2000.0,0.0,-0.0725123516247
1505403119222018583,0.340143955254,-0.151618726508,0.0172195024788,-2000.0,0.0,-0.0725123516247
1505403119226533351,0.340143955254,-0.151618726508,0.0172195024788,-2000.0,0.0,-0.0725123516247
1505403119231641379,0.340143955254,-0.151618726508,0.0172195024788,-2000.0,0.0,-0.0725123516247
1505403119236385370,0.340143955254,-0.151618726508,0.0172195024788,-2000.0,0.0,-0.0725123516247
1505403119241504836,0.340143955254,-0.151618726508,0.0158618018031,-2000.0,0.0,-0.0725123516247
1505403119246940011,0.340143955254,-0.151618726508,0.0157843884081,-2000.0,0.0,-0.0725123516247
1505403119251169594,0.340143955254,-0.151618726508,0.0157843884081,-2000.0,0.0,-0.0725123516247
1505403119258700057,0.340143955254,-0.151618726508,0.0155641166493,-2000.0,0.0,-0.0725123516247
1505403119262225527,0.340143955254,-0.151618726508,0.0155641166493,-2000.0,0.0,-0.0725123516247
1505403119266731291,0.340143955254,-0.151618726508,0.0155641166493,-2000.0,0.0,-0.0788513876308
1505403119274159165,0.340143955254,-0.151618726508,0.0154586676508,-2000.0,0.0,-0.0788513876308
1505403119276605526,0.340143955254,-0.151618726508,0.0154586676508,-2000.0,0.0,-0.0788513876308
1505403119281654180,0.340143955254,-0.151618726508,0.0153320292011,-2000.0,0.0,-0.0788513876308
1505403119290721537,0.340143955254,-0.151618726508,0.015134527348,-2000.0,0.0,-0.0788513876308
1505403119294411643,0.340143955254,-0.151618726508,0.015134527348,-2000.0,0.0,-0.0788513876308
1505403119296872929,0.340143955254,-0.151618726508,0.015134527348,-2000.0,0.0,-0.0788513876308
1505403119301684105,0.340143955254,-0.151618726508,0.0150413261726,-2000.0,0.0,-0.0788513876308
1505403119306784861,0.340143955254,-0.151618726508,0.0150413261726,-2000.0,0.0,-0.0788513876308
1505403119312117447,0.340143955254,-0.151618726508,0.0149380527437,-2000.0,0.0,-0.0788513876308
1505403119316846833,0.340143955254,-0.151618726508,0.0148662189022,-2000.0,0.0,-0.0827998452227
1505403119325019295,0.340143955254,-0.151618726508,0.0148662189022,-2000.0,0.0,-0.0827998452227
1505403119326874587,0.340143955254,-0.151618726508,0.014752513729,-2000.0,0.0,-0.0827998452227
1505403119332284243,0.340143955254,-0.151618726508,0.014752513729,-2000.0,0.0,-0.0827998452227
1505403119337080009,0.340143955254,-0.151618726508,0.0146682010964,-2000.0,0.0,-0.0827998452227
1505403119343377193,0.340143955254,-0.151618726508,0.0146682010964,-2000.0,0.0,-0.0827998452227
1505403119346890688,0.340143955254,-0.151618726508,0.0146682010964,-2000.0,0.0,-0.0827998452227
1505403119352084422,0.340143955254,-0.151618726508,0.0146569972858,-2000.0,0.0,-0.0827998452227
1505403119357956387,0.340143955254,-0.151618726508,0.0146169336513,-2000.0,0.0,-0.0827998452227
1505403119363401799,0.340143955254,-0.151618726508,0.0146169336513,-2000.0,0.0,-0.0861510145642
1505403119368388877,0.340143955254,-0.151618726508,0.0145861739293,-2000.0,0.0,-0.0861510145642
1505403119372228197,0.340143955254,-0.151618726508,0.0145861739293,-2000.0,0.0,-0.0861510145642
1505403119377289869,0.340143955254,-0.151618726508,0.0146156465635,-2000.0,0.0,-0.0861510145642
1505403119381870607,0.340143955254,-0.151618726508,0.0146156465635,-2000.0,0.0,-0.0861510145642
1505403119393226876,0.340143955254,-0.151618726508,0.0146801313385,-2000.0,0.0,-0.0861510145642
1505403119394019528,0.340143955254,-0.151618726508,0.0146801313385,-2000.0,0.0,-0.0861510145642
1505403119398916919,0.340143955254,-0.151618726508,0.0147443469614,-2000.0,0.0,-0.0861510145642
1505403119402210743,0.340143955254,-0.151618726508,0.0147443469614,-2000.0,0.0,-0.0861510145642
1505403119407195192,0.340143955254,-0.151618726508,0.0147873647511,-2000.0,0.0,-0.0861510145642
1505403119412276371,0.340143955254,-0.151618726508,0.0147873647511,-2000.0,0.0,-0.0861510145642
1505403119417346739,0.340143955254,-0.151618726508,0.0149514842778,-2000.0,0.0,-0.0897578691428
1505403119423992503,0.340143955254,-0.151618726508,0.0149514842778,-2000.0,0.0,-0.0897578691428
1505403119430921190,0.340143955254,-0.151618726508,0.0150361005217,-2000.0,0.0,-0.0897578691428
1505403119432586183,0.340143955254,-0.151618726508,0.0150361005217,-2000.0,0.0,-0.0897578691428
1505403119437481803,0.340143955254,-0.151618726508,0.0151798017323,-2000.0,0.0,-0.0897578691428
1505403119442307927,0.340143955254,-0.151618726508,0.0151798017323,-2000.0,0.0,-0.0897578691428
1505403119447382015,0.340143955254,-0.151618726508,0.0153723126277,-2000.0,0.0,-0.0897578691428
1505403119452999944,0.340143955254,-0.151618726508,0.0153723126277,-2000.0,0.0,-0.0897578691428
1505403119463343933,0.340143955254,-0.151618726508,0.0155676556751,-2000.0,0.0,-0.0923999456773
1505403119469525919,0.340143955254,-0.151618726508,0.0157987438142,-2000.0,0.0,-0.0923999456773
1505403119472857018,0.340143955254,-0.151618726508,0.0157987438142,-2000.0,0.0,-0.0923999456773
1505403119477666038,0.340143955254,-0.151618726508,0.0160149112344,-2000.0,0.0,-0.0923999456773
1505403119483776360,0.340143955254,-0.151618726508,0.0160149112344,-2000.0,0.0,-0.0923999456773
1505403119487895664,0.340143955254,-0.151618726508,0.0162343550473,-2000.0,0.0,-0.0923999456773
1505403119496118643,0.340143955254,-0.151618726508,0.0162343550473,-2000.0,0.0,-0.0923999456773
1505403119500068560,0.340143955254,-0.151618726508,0.0165634788573,-2000.0,0.0,-0.0923999456773
1505403119502548780,0.340143955254,-0.151618726508,0.0165634788573,-2000.0,0.0,-0.0923999456773
1505403119507818732,0.340143955254,-0.151618726508,0.0168828871101,-2000.0,0.0,-0.0923999456773
1505403119512860222,0.340143955254,-0.151618726508,0.0168828871101,-2000.0,0.0,-0.0923999456773
1505403119524580217,0.340143955254,-0.151618726508,0.0171884782612,-2000.0,0.0,-0.0973429682925
1505403119526024321,0.340143955254,-0.151618726508,0.0171884782612,-2000.0,0.0,-0.0973429682925
1505403119527715538,0.340143955254,-0.151618726508,0.017515335232,-2000.0,0.0,-0.0973429682925
1505403119532983996,0.340143955254,-0.151618726508,0.017515335232,-2000.0,0.0,-0.0973429682925
1505403119537906055,0.340143955254,-0.151618726508,0.0177836306393,-2000.0,0.0,-0.0973429682925
1505403119543104790,0.340143955254,-0.151618726508,0.0177836306393,-2000.0,0.0,-0.0973429682925
1505403119548262923,0.340143955254,-0.151618726508,0.0181462485343,-2000.0,0.0,-0.0973429682925
1505403119554161260,0.340143955254,-0.151618726508,0.0181462485343,-2000.0,0.0,-0.0973429682925
1505403119561999395,0.340143955254,-0.151618726508,0.0185617972165,-2000.0,0.0,-0.0973429682925
1505403119564733951,0.340143955254,-0.151618726508,0.0185617972165,-2000.0,0.0,-0.101130535716
1505403119568599968,0.340143955254,-0.151618726508,0.0189167167991,-2000.0,0.0,-0.101130535716
1505403119574944952,0.340143955254,-0.151618726508,0.0189167167991,-2000.0,0.0,-0.101130535716
1505403119578177906,0.340143955254,-0.151618726508,0.0192483626306,-2000.0,0.0,-0.101130535716
1505403119586400861,0.340143955254,-0.151618726508,0.0192483626306,-2000.0,0.0,-0.101130535716
1505403119590019271,0.340143955254,-0.151618726508,0.0197118613869,-2000.0,0.0,-0.101130535716
1505403119594654741,0.340143955254,-0.151618726508,0.0197118613869,-2000.0,0.0,-0.101130535716
1505403119598250692,0.340143955254,-0.151618726508,0.0201360378414,-2000.0,0.0,-0.101130535716
1505403119603080726,0.340143955254,-0.151618726508,0.0201360378414,-2000.0,0.0,-0.101130535716
1505403119608261824,0.340143955254,-0.151618726508,0.0206604767591,-2000.0,0.0,-0.101130535716
1505403119613515015,0.340143955254,-0.151618726508,0.0206604767591,-2000.0,0.0,-0.10507749181
1505403119619119556,0.340143955254,-0.151618726508,0.0211769733578,-2000.0,0.0,-0.10507749181
1505403119625512415,0.340143955254,-0.151618726508,0.0211769733578,-2000.0,0.0,-0.10507749181
1505403119628534089,0.340143955254,-0.151618726508,0.0215123649687,-2000.0,0.0,-0.10507749181
1505403119633731408,0.340143955254,-0.151618726508,0.0215123649687,-2000.0,0.0,-0.10507749181
1505403119638412898,0.340143955254,-0.151618726508,0.0220389347523,-2000.0,0.0,-0.10507749181
1505403119644063117,0.340143955254,-0.151618726508,0.0220389347523,-2000.0,0.0,-0.10507749181
1505403119652723468,0.340143955254,-0.151618726508,0.0225456934422,-2000.0,0.0,-0.10507749181
1505403119657123251,0.340143955254,-0.151618726508,0.0225456934422,-2000.0,0.0,-0.10507749181
1505403119660034148,0.340143955254,-0.151618726508,0.0231084059924,-2000.0,0.0,-0.10507749181
1505403119663423509,0.340143955254,-0.151618726508,0.0231084059924,-2000.0,0.0,-0.107392028337
1505403119669095825,0.340143955254,-0.151618726508,0.0236332155764,-2000.0,0.0,-0.107392028337
1505403119673718898,0.340143955254,-0.151618726508,0.0236332155764,-2000.0,0.0,-0.107392028337
1505403119679990395,0.340143955254,-0.151618726508,0.0241118967533,-2000.0,0.0,-0.107392028337
1505403119683788211,0.340143955254,-0.151618726508,0.0241118967533,-2000.0,0.0,-0.107392028337
1505403119691367304,0.340143955254,-0.151618726508,0.0247217882425,-2000.0,0.0,-0.107392028337
1505403119694129483,0.340143955254,-0.151618726508,0.0247217882425,-2000.0,0.0,-0.107392028337
1505403119698826689,0.340143955254,-0.151618726508,0.0251727160066,-2000.0,0.0,-0.107392028337
1505403119703600890,0.340143955254,-0.151618726508,0.0251727160066,-2000.0,0.0,-0.107392028337
1505403119709215321,0.340143955254,-0.151618726508,0.0257541295141,-2000.0,0.0,-0.107392028337
1505403119713994328,0.340143955254,-0.151618726508,0.0257541295141,-2000.0,0.0,-0.109808609389
1505403119726026820,0.340143955254,-0.151618726508,0.026331808418,-2000.0,0.0,-0.109808609389
1505403119728787485,0.340143955254,-0.151618726508,0.0267750360072,-2000.0,0.0,-0.109808609389
1505403119733967309,0.340143955254,-0.151618726508,0.0267750360072,-2000.0,0.0,-0.109808609389
1505403119738879893,0.340143955254,-0.151618726508,0.0274167526513,-2000.0,0.0,-0.109808609389
1505403119744195860,0.340143955254,-0.151618726508,0.0274167526513,-2000.0,0.0,-0.109808609389
1505403119749442851,0.340143955254,-0.151618726508,0.027957001701,-2000.0,0.0,-0.109808609389
1505403119759410057,0.340143955254,-0.151618726508,0.0284462235868,-2000.0,0.0,-0.109808609389
1505403119763362376,0.340143955254,-0.151618726508,0.0284462235868,-2000.0,0.0,-0.112095141239
1505403119763728482,0.340143955254,-0.151618726508,0.0284462235868,-2000.0,0.0,-0.112095141239
1505403119769349488,0.340143955254,-0.151618726508,0.0290414206684,-2000.0,0.0,-0.112095141239
1505403119774156831,0.340143955254,-0.151618726508,0.0290414206684,-2000.0,0.0,-0.112095141239
1505403119779335196,0.340143955254,-0.151618726508,0.0296041332185,-2000.0,0.0,-0.112095141239
1505403119785685033,0.340143955254,-0.151618726508,0.0296041332185,-2000.0,0.0,-0.112095141239
1505403119792891108,0.340143955254,-0.151618726508,0.0301351323724,-2000.0,0.0,-0.112095141239
1505403119794957942,0.340143955254,-0.151618726508,0.0301351323724,-2000.0,0.0,-0.112095141239
1505403119799257047,0.340143955254,-0.151618726508,0.0307087916881,-2000.0,0.0,-0.112095141239
1505403119805912619,0.340143955254,-0.151618726508,0.0307087916881,-2000.0,0.0,-0.112095141239
1505403119809373660,0.340143955254,-0.151618726508,0.0312500782311,-2000.0,0.0,-0.112095141239
1505403119814504884,0.340143955254,-0.151618726508,0.0312500782311,-2000.0,0.0,-0.114624909416
1505403119819242303,0.340143955254,-0.151618726508,0.031763009727,-2000.0,0.0,-0.114624909416
1505403119824743169,0.340143955254,-0.151618726508,0.031763009727,-2000.0,0.0,-0.114624909416
1505403119830006941,0.340143955254,-0.151618726508,0.0323501266539,-2000.0,0.0,-0.114624909416
1505403119834761948,0.340143955254,-0.151618726508,0.0323501266539,-2000.0,0.0,-0.114624909416
1505403119839598582,0.340143955254,-0.151618726508,0.0329477712512,-2000.0,0.0,-0.114624909416
1505403119847630357,0.340143955254,-0.151618726508,0.0335363820195,-2000.0,0.0,-0.114624909416
1505403119850682714,0.340143955254,-0.151618726508,0.0335363820195,-2000.0,0.0,-0.114624909416
1505403119858471575,0.340143955254,-0.151618726508,0.034144166857,-2000.0,0.0,-0.114624909416
1505403119859436488,0.340143955254,-0.151618726508,0.034144166857,-2000.0,0.0,-0.114624909416
1505403119864664526,0.340143955254,-0.151618726508,0.034144166857,-2000.0,0.0,-0.117463933638
1505403119869847175,0.340143955254,-0.151618726508,0.0346511602402,-2000.0,0.0,-0.117463933638
1505403119878533113,0.340143955254,-0.151618726508,0.0351967439055,-2000.0,0.0,-0.117463933638
1505403119881050784,0.340143955254,-0.151618726508,0.0351967439055,-2000.0,0.0,-0.117463933638
1505403119884750683,0.340143955254,-0.151618726508,0.0351967439055,-2000.0,0.0,-0.117463933638
1505403119891153857,0.340143955254,-0.151618726508,0.0358351990581,-2000.0,0.0,-0.117463933638
1505403119894667256,0.340143955254,-0.151618726508,0.0358351990581,-2000.0,0.0,-0.117463933638
1505403119899631934,0.340143955254,-0.151618726508,0.0364402607083,-2000.0,0.0,-0.117463933638
1505403119904757514,0.340143955254,-0.151618726508,0.0364402607083,-2000.0,0.0,-0.117463933638
1505403119910431719,0.340143955254,-0.151618726508,0.0369943603873,-2000.0,0.0,-0.117463933638
1505403119915194847,0.340143955254,-0.151618726508,0.0369943603873,-2000.0,0.0,-0.120282215345
1505403119923960281,0.340143955254,-0.151618726508,0.0375847294927,-2000.0,0.0,-0.120282215345
1505403119924818522,0.340143955254,-0.151618726508,0.0375847294927,-2000.0,0.0,-0.120282215345
1505403119930735973,0.340143955254,-0.151618726508,0.0381523892283,-2000.0,0.0,-0.120282215345
1505403119935522183,0.340143955254,-0.151618726508,0.0381523892283,-2000.0,0.0,-0.120282215345
1505403119940466071,0.340143955254,-0.151618726508,0.0387123599648,-2000.0,0.0,-0.120282215345
1505403119945117776,0.340143955254,-0.151618726508,0.0387123599648,-2000.0,0.0,-0.120282215345
1505403119952598953,0.340143955254,-0.151618726508,0.0393275767565,-2000.0,0.0,-0.120282215345
1505403119959434531,0.340143955254,-0.151618726508,0.0398952923715,-2000.0,0.0,-0.120282215345
1505403119960509761,0.340143955254,-0.151618726508,0.0398952923715,-2000.0,0.0,-0.120282215345
1505403119965507037,0.340143955254,-0.151618726508,0.0398952923715,-2000.0,0.0,-0.123187355384
1505403119971629583,0.340143955254,-0.151618726508,0.0403768271208,-2000.0,0.0,-0.123187355384
1505403119975599950,0.340143955254,-0.151618726508,0.0403768271208,-2000.0,0.0,-0.123187355384
1505403119981689276,0.340143955254,-0.151618726508,0.0410092547536,-2000.0,0.0,-0.123187355384
1505403119985820665,0.340143955254,-0.151618726508,0.0410092547536,-2000.0,0.0,-0.123187355384
1505403119991080961,0.340143955254,-0.151618726508,0.0415218695998,-2000.0,0.0,-0.123187355384
1505403119995517092,0.340143955254,-0.151618726508,0.0415218695998,-2000.0,0.0,-0.123187355384
1505403120000264530,0.340143955254,-0.151618726508,0.0420788787305,-2000.0,0.0,-0.123187355384
1505403120005411499,0.340143955254,-0.151618726508,0.0420788787305,-2000.0,0.0,-0.123187355384
1505403120010766788,0.340143955254,-0.151618726508,0.0425893254578,-2000.0,0.0,-0.123187355384
1505403120018759218,0.340143955254,-0.151618726508,0.0430292338133,-2000.0,0.0,-0.127415890554
1505403120024008889,0.340143955254,-0.151618726508,0.0430292338133,-2000.0,0.0,-0.127415890554
1505403120025693650,0.340143955254,-0.151618726508,0.0430292338133,-2000.0,0.0,-0.127415890554
1505403120030526273,0.340143955254,-0.151618726508,0.0436180643737,-2000.0,0.0,-0.127415890554
1505403120036324292,0.340143955254,-0.151618726508,0.0436180643737,-2000.0,0.0,-0.127415890554
1505403120042882529,0.340143955254,-0.151618726508,0.0441006794572,-2000.0,0.0,-0.127415890554
1505403120045980775,0.340143955254,-0.151618726508,0.0441006794572,-2000.0,0.0,-0.127415890554
1505403120050779698,0.340143955254,-0.151618726508,0.0446192994714,-2000.0,0.0,-0.127415890554
1505403120057406957,0.340143955254,-0.151618726508,0.0450111441314,-2000.0,0.0,-0.127415890554
1505403120060531804,0.340143955254,-0.151618726508,0.0450111441314,-2000.0,0.0,-0.127415890554
1505403120067598180,0.340143955254,-0.151618726508,0.045456930995,-2000.0,0.0,-0.130982983127
1505403120071278738,0.340143955254,-0.151618726508,0.045456930995,-2000.0,0.0,-0.130982983127
1505403120076427384,0.340143955254,-0.151618726508,0.045456930995,-2000.0,0.0,-0.130982983127
1505403120084529881,0.340143955254,-0.151618726508,0.0459586232901,-2000.0,0.0,-0.130982983127
1505403120085964506,0.340143955254,-0.151618726508,0.0459586232901,-2000.0,0.0,-0.130982983127
1505403120097090749,0.340143955254,-0.151618726508,0.0467676706612,-2000.0,0.0,-0.130982983127
1505403120101022063,0.340143955254,-0.151618726508,0.0467676706612,-2000.0,0.0,-0.130982983127
1505403120106247171,0.340143955254,-0.151618726508,0.0467676706612,-2000.0,0.0,-0.130982983127
1505403120113328208,0.340143955254,-0.151618726508,0.0471254959702,-2000.0,0.0,-0.134938217834
1505403120116172753,0.340143955254,-0.151618726508,0.0471254959702,-2000.0,0.0,-0.134938217834
1505403120121613879,0.340143955254,-0.151618726508,0.0474559441209,-2000.0,0.0,-0.134938217834
1505403120126054171,0.340143955254,-0.151618726508,0.0474559441209,-2000.0,0.0,-0.134938217834
1505403120131165732,0.340143955254,-0.151618726508,0.0478894598782,-2000.0,0.0,-0.134938217834
1505403120136148624,0.340143955254,-0.151618726508,0.0478894598782,-2000.0,0.0,-0.134938217834
1505403120141682154,0.340143955254,-0.151618726508,0.0481283180416,-2000.0,0.0,-0.134938217834
1505403120147303524,0.340143955254,-0.151618726508,0.0484335832298,-2000.0,0.0,-0.134938217834
1505403120151569098,0.340143955254,-0.151618726508,0.0484335832298,-2000.0,0.0,-0.134938217834
1505403120157005072,0.340143955254,-0.151618726508,0.0484335832298,-2000.0,0.0,-0.134938217834
1505403120161346184,0.340143955254,-0.151618726508,0.0487085282803,-2000.0,0.0,-0.134938217834
1505403120166263622,0.340143955254,-0.151618726508,0.0487085282803,-2000.0,0.0,-0.139521726445
1505403120171605044,0.340143955254,-0.151618726508,0.0489508993924,-2000.0,0.0,-0.139521726445
1505403120177960495,0.340143955254,-0.151618726508,0.0491959266365,-2000.0,0.0,-0.139521726445
1505403120181203063,0.340143955254,-0.151618726508,0.0491959266365,-2000.0,0.0,-0.139521726445
1505403120186374051,0.340143955254,-0.151618726508,0.0491959266365,-2000.0,0.0,-0.139521726445
1505403120191686782,0.340143955254,-0.151618726508,0.0493611358106,-2000.0,0.0,-0.139521726445
1505403120196638441,0.340143955254,-0.151618726508,0.0493611358106,-2000.0,0.0,-0.139521726445
1505403120201461422,0.340143955254,-0.151618726508,0.0495387427509,-2000.0,0.0,-0.139521726445
1505403120206883449,0.340143955254,-0.151618726508,0.0495387427509,-2000.0,0.0,-0.139521726445
1505403120211420507,0.340143955254,-0.151618726508,0.0496125370264,-2000.0,0.0,-0.139521726445
1505403120216687062,0.340143955254,-0.151618726508,0.0497902370989,-2000.0,0.0,-0.142945318368
1505403120224609244,0.340143955254,-0.151618726508,0.0497902370989,-2000.0,0.0,-0.142945318368
1505403120226658233,0.340143955254,-0.151618726508,0.0497902370989,-2000.0,0.0,-0.142945318368
1505403120231845294,0.340143955254,-0.151618726508,0.0499146617949,-2000.0,0.0,-0.142945318368
1505403120238209920,0.340143955254,-0.151618726508,0.0499440655112,-2000.0,0.0,-0.142945318368
1505403120245286123,0.340143955254,-0.151618726508,0.0499440655112,-2000.0,0.0,-0.142945318368
1505403120246724342,0.340143955254,-0.151618726508,0.0499440655112,-2000.0,0.0,-0.142945318368
1505403120251736818,0.340143955254,-0.151618726508,0.0500710532069,-2000.0,0.0,-0.142945318368
1505403120257758465,0.340143955254,-0.151618726508,0.050094589591,-2000.0,0.0,-0.142945318368
1505403120261899951,0.340143955254,-0.151618726508,0.050094589591,-2000.0,0.0,-0.142945318368
1505403120268049016,0.340143955254,-0.151618726508,0.0500933006406,-2000.0,0.0,-0.145973015459
1505403120273388085,0.340143955254,-0.151618726508,0.0500933006406,-2000.0,0.0,-0.145973015459
1505403120276963633,0.340143955254,-0.151618726508,0.0500933006406,-2000.0,0.0,-0.145973015459
1505403120281894067,0.340143955254,-0.151618726508,0.0501544848084,-2000.0,0.0,-0.145973015459
1505403120290173795,0.340143955254,-0.151618726508,0.0501229614019,-2000.0,0.0,-0.145973015459
1505403120292082885,0.340143955254,-0.151618726508,0.0501229614019,-2000.0,0.0,-0.145973015459
1505403120296914738,0.340143955254,-0.151618726508,0.0501336157322,-2000.0,0.0,-0.145973015459
1505403120302210453,0.340143955254,-0.151618726508,0.0501336157322,-2000.0,0.0,-0.145973015459
1505403120311338371,0.340143955254,-0.151618726508,0.0500827357173,-2000.0,0.0,-0.145973015459
1505403120312894262,0.340143955254,-0.151618726508,0.0500827357173,-2000.0,0.0,-0.145973015459
1505403120318140355,0.340143955254,-0.151618726508,0.0500166416168,-2000.0,0.0,-0.150250436251
1505403120324108434,0.340143955254,-0.151618726508,0.0500166416168,-2000.0,0.0,-0.150250436251
1505403120329431538,0.340143955254,-0.151618726508,0.0499401725829,-2000.0,0.0,-0.150250436251
1505403120332293538,0.340143955254,-0.151618726508,0.0499401725829,-2000.0,0.0,-0.150250436251
1505403120337593295,0.340143955254,-0.151618726508,0.049835767597,-2000.0,0.0,-0.150250436251
1505403120342310844,0.340143955254,-0.151618726508,0.049835767597,-2000.0,0.0,-0.150250436251
1505403120348505787,0.340143955254,-0.151618726508,0.049728769809,-2000.0,0.0,-0.150250436251
1505403120352682393,0.340143955254,-0.151618726508,0.049728769809,-2000.0,0.0,-0.150250436251
1505403120357714475,0.340143955254,-0.151618726508,0.0495462827384,-2000.0,0.0,-0.150250436251
1505403120362268470,0.340143955254,-0.151618726508,0.0495462827384,-2000.0,0.0,-0.150250436251
1505403120367526493,0.340143955254,-0.151618726508,0.0495098270476,-2000.0,0.0,-0.152974886158
1505403120377418509,0.340143955254,-0.151618726508,0.049362167716,-2000.0,0.0,-0.152974886158
1505403120379845800,0.340143955254,-0.151618726508,0.049362167716,-2000.0,0.0,-0.152974886158
1505403120382471751,0.340143955254,-0.151618726508,0.049362167716,-2000.0,0.0,-0.152974886158
1505403120390570279,0.340143955254,-0.151618726508,0.0491474121809,-2000.0,0.0,-0.152974886158
1505403120392601515,0.340143955254,-0.151618726508,0.0491474121809,-2000.0,0.0,-0.152974886158
1505403120397408840,0.340143955254,-0.151618726508,0.0491213276982,-2000.0,0.0,-0.152974886158
1505403120402750125,0.340143955254,-0.151618726508,0.0491213276982,-2000.0,0.0,-0.152974886158
1505403120407511625,0.340143955254,-0.151618726508,0.0488907620311,-2000.0,0.0,-0.152974886158
1505403120412740186,0.340143955254,-0.151618726508,0.0488907620311,-2000.0,0.0,-0.152974886158
1505403120417565120,0.340143955254,-0.151618726508,0.0486907102168,-2000.0,0.0,-0.155851855279
1505403120423186823,0.340143955254,-0.151618726508,0.0486907102168,-2000.0,0.0,-0.155851855279
1505403120427582378,0.340143955254,-0.151618726508,0.0484807044268,-2000.0,0.0,-0.155851855279
1505403120434470450,0.340143955254,-0.151618726508,0.0484807044268,-2000.0,0.0,-0.155851855279
1505403120441148994,0.340143955254,-0.151618726508,0.0483324155211,-2000.0,0.0,-0.155851855279
1505403120442702427,0.340143955254,-0.151618726508,0.0483324155211,-2000.0,0.0,-0.155851855279
1505403120447741993,0.340143955254,-0.151618726508,0.0482042469084,-2000.0,0.0,-0.155851855279
1505403120453387182,0.340143955254,-0.151618726508,0.0482042469084,-2000.0,0.0,-0.155851855279
1505403120457767092,0.340143955254,-0.151618726508,0.0480407401919,-2000.0,0.0,-0.155851855279
1505403120465666868,0.340143955254,-0.151618726508,0.0480407401919,-2000.0,0.0,-0.15935527468
1505403120468535201,0.340143955254,-0.151618726508,0.047881886363,-2000.0,0.0,-0.15935527468
1505403120478531357,0.340143955254,-0.151618726508,0.0477040857077,-2000.0,0.0,-0.15935527468
1505403120482951537,0.340143955254,-0.151618726508,0.0477040857077,-2000.0,0.0,-0.15935527468
1505403120488505297,0.340143955254,-0.151618726508,0.0475840419531,-2000.0,0.0,-0.15935527468
1505403120493424654,0.340143955254,-0.151618726508,0.0475840419531,-2000.0,0.0,-0.15935527468
1505403120498366043,0.340143955254,-0.151618726508,0.047348652035,-2000.0,0.0,-0.15935527468
1505403120506066655,0.340143955254,-0.151618726508,0.047348652035,-2000.0,0.0,-0.15935527468
1505403120507890782,0.340143955254,-0.151618726508,0.0472533889115,-2000.0,0.0,-0.15935527468
1505403120513380436,0.340143955254,-0.151618726508,0.0472533889115,-2000.0,0.0,-0.161446222226
1505403120518213577,0.340143955254,-0.151618726508,0.0471724830568,-2000.0,0.0,-0.161446222226
1505403120524913499,0.340143955254,-0.151618726508,0.0471724830568,-2000.0,0.0,-0.161446222226
1505403120532262980,0.340143955254,-0.151618726508,0.0470087043941,-2000.0,0.0,-0.161446222226
1505403120536486571,0.340143955254,-0.151618726508,0.0470087043941,-2000.0,0.0,-0.161446222226
1505403120538109477,0.340143955254,-0.151618726508,0.0469242371619,-2000.0,0.0,-0.161446222226
1505403120543303764,0.340143955254,-0.151618726508,0.0469242371619,-2000.0,0.0,-0.161446222226
1505403120548449560,0.340143955254,-0.151618726508,0.0467608831823,-2000.0,0.0,-0.161446222226
1505403120555532982,0.340143955254,-0.151618726508,0.0467608831823,-2000.0,0.0,-0.161446222226
1505403120559017384,0.340143955254,-0.151618726508,0.0466875210404,-2000.0,0.0,-0.161446222226
1505403120563743244,0.340143955254,-0.151618726508,0.0466875210404,-2000.0,0.0,-0.164853251745
1505403120572074068,0.340143955254,-0.151618726508,0.0465673021972,-2000.0,0.0,-0.164853251745
1505403120573239535,0.340143955254,-0.151618726508,0.0465673021972,-2000.0,0.0,-0.164853251745
1505403120578980436,0.340143955254,-0.151618726508,0.0464610718191,-2000.0,0.0,-0.164853251745
1505403120583543577,0.340143955254,-0.151618726508,0.0464610718191,-2000.0,0.0,-0.164853251745
1505403120589730879,0.340143955254,-0.151618726508,0.0464479215443,-2000.0,0.0,-0.164853251745
1505403120595102647,0.340143955254,-0.151618726508,0.0464479215443,-2000.0,0.0,-0.164853251745
1505403120600736338,0.340143955254,-0.151618726508,0.0462843813002,-2000.0,0.0,-0.164853251745
1505403120603773357,0.340143955254,-0.151618726508,0.0462843813002,-2000.0,0.0,-0.164853251745
1505403120608723638,0.340143955254,-0.151618726508,0.0463258363307,-2000.0,0.0,-0.164853251745
1505403120613694891,0.340143955254,-0.151618726508,0.0463258363307,-2000.0,0.0,-0.168541862112
1505403120618893794,0.340143955254,-0.151618726508,0.0462951436639,-2000.0,0.0,-0.168541862112
1505403120625173276,0.340143955254,-0.151618726508,0.0462951436639,-2000.0,0.0,-0.168541862112
1505403120630087580,0.340143955254,-0.151618726508,0.0462346151471,-2000.0,0.0,-0.168541862112
1505403120636876937,0.340143955254,-0.151618726508,0.0462346151471,-2000.0,0.0,-0.168541862112
1505403120639334645,0.340143955254,-0.151618726508,0.0462341159582,-2000.0,0.0,-0.168541862112
1505403120643818124,0.340143955254,-0.151618726508,0.0462341159582,-2000.0,0.0,-0.168541862112
1505403120648669247,0.340143955254,-0.151618726508,0.0462011508644,-2000.0,0.0,-0.168541862112
1505403120654414424,0.340143955254,-0.151618726508,0.0462011508644,-2000.0,0.0,-0.168541862112
1505403120663803953,0.340143955254,-0.151618726508,0.0462990999222,-2000.0,0.0,-0.170589894414
1505403120666443251,0.340143955254,-0.151618726508,0.0462990999222,-2000.0,0.0,-0.170589894414
1505403120669143389,0.340143955254,-0.151618726508,0.0462595522404,-2000.0,0.0,-0.170589894414
1505403120674509404,0.340143955254,-0.151618726508,0.0462595522404,-2000.0,0.0,-0.170589894414
1505403120680995992,0.340143955254,-0.151618726508,0.0463985428214,-2000.0,0.0,-0.170589894414
1505403120684111406,0.340143955254,-0.151618726508,0.0463985428214,-2000.0,0.0,-0.170589894414
1505403120690411952,0.340143955254,-0.151618726508,0.0464989952743,-2000.0,0.0,-0.170589894414
1505403120694281895,0.340143955254,-0.151618726508,0.0464989952743,-2000.0,0.0,-0.170589894414
1505403120701835078,0.340143955254,-0.151618726508,0.0464966632426,-2000.0,0.0,-0.170589894414
1505403120704282940,0.340143955254,-0.151618726508,0.0464966632426,-2000.0,0.0,-0.170589894414
1505403120709266304,0.340143955254,-0.151618726508,0.0466333441436,-2000.0,0.0,-0.170589894414
1505403120714546417,0.340143955254,-0.151618726508,0.0466333441436,-2000.0,0.0,-0.173110506829
1505403120722362681,0.340143955254,-0.151618726508,0.0467048808932,-2000.0,0.0,-0.173110506829
1505403120730031074,0.340143955254,-0.151618726508,0.0468107573688,-2000.0,0.0,-0.173110506829
1505403120734628819,0.340143955254,-0.151618726508,0.0468107573688,-2000.0,0.0,-0.173110506829
1505403120739390277,0.340143955254,-0.151618726508,0.0470336787403,-2000.0,0.0,-0.173110506829
1505403120744328931,0.340143955254,-0.151618726508,0.0470336787403,-2000.0,0.0,-0.173110506829
1505403120750457565,0.340143955254,-0.151618726508,0.0471918657422,-2000.0,0.0,-0.173110506829
1505403120754708752,0.340143955254,-0.151618726508,0.0471918657422,-2000.0,0.0,-0.173110506829
1505403120759794818,0.340143955254,-0.151618726508,0.0472971946001,-2000.0,0.0,-0.173110506829
1505403120766340589,0.340143955254,-0.151618726508,0.0475198365748,-2000.0,0.0,-0.176217745131
1505403120769525221,0.340143955254,-0.151618726508,0.0475198365748,-2000.0,0.0,-0.176217745131
1505403120775431154,0.340143955254,-0.151618726508,0.0475198365748,-2000.0,0.0,-0.176217745131
1505403120779506949,0.340143955254,-0.151618726508,0.0476947240531,-2000.0,0.0,-0.176217745131
1505403120784967974,0.340143955254,-0.151618726508,0.0476947240531,-2000.0,0.0,-0.176217745131
1505403120790735816,0.340143955254,-0.151618726508,0.0478436462581,-2000.0,0.0,-0.176217745131
1505403120795274323,0.340143955254,-0.151618726508,0.0478436462581,-2000.0,0.0,-0.176217745131
1505403120799693011,0.340143955254,-0.151618726508,0.0481575392187,-2000.0,0.0,-0.176217745131
1505403120804714014,0.340143955254,-0.151618726508,0.0481575392187,-2000.0,0.0,-0.176217745131
1505403120809906810,0.340143955254,-0.151618726508,0.0483654513955,-2000.0,0.0,-0.176217745131
1505403120814824138,0.340143955254,-0.151618726508,0.0483654513955,-2000.0,0.0,-0.179587041287
1505403120819826006,0.340143955254,-0.151618726508,0.0486286394298,-2000.0,0.0,-0.179587041287
1505403120826479090,0.340143955254,-0.151618726508,0.0486286394298,-2000.0,0.0,-0.179587041287
1505403120831925694,0.340143955254,-0.151618726508,0.0489763095975,-2000.0,0.0,-0.179587041287
1505403120834878972,0.340143955254,-0.151618726508,0.0489763095975,-2000.0,0.0,-0.179587041287
1505403120840163262,0.340143955254,-0.151618726508,0.0491558685899,-2000.0,0.0,-0.179587041287
1505403120844668339,0.340143955254,-0.151618726508,0.0491558685899,-2000.0,0.0,-0.179587041287
1505403120851008231,0.340143955254,-0.151618726508,0.0495951063931,-2000.0,0.0,-0.179587041287
1505403120859775513,0.340143955254,-0.151618726508,0.0498429611325,-2000.0,0.0,-0.179587041287
1505403120861237967,0.340143955254,-0.151618726508,0.0498429611325,-2000.0,0.0,-0.179587041287
1505403120867415753,0.340143955254,-0.151618726508,0.0501094795763,-2000.0,0.0,-0.183206472338
1505403120869656416,0.340143955254,-0.151618726508,0.0501094795763,-2000.0,0.0,-0.183206472338
1505403120875345024,0.340143955254,-0.151618726508,0.0501094795763,-2000.0,0.0,-0.183206472338
1505403120880116052,0.340143955254,-0.151618726508,0.0505911484361,-2000.0,0.0,-0.183206472338
1505403120886140032,0.340143955254,-0.151618726508,0.0505911484361,-2000.0,0.0,-0.183206472338
1505403120891889702,0.340143955254,-0.151618726508,0.050872400403,-2000.0,0.0,-0.183206472338
1505403120894894215,0.340143955254,-0.151618726508,0.050872400403,-2000.0,0.0,-0.183206472338
1505403120900097259,0.340143955254,-0.151618726508,0.0513432621956,-2000.0,0.0,-0.183206472338
1505403120905359111,0.340143955254,-0.151618726508,0.0513432621956,-2000.0,0.0,-0.183206472338
1505403120910310546,0.340143955254,-0.151618726508,0.051695432514,-2000.0,0.0,-0.183206472338
1505403120916759858,0.340143955254,-0.151618726508,0.0520994737744,-2000.0,0.0,-0.185827598587
1505403120924606482,0.340143955254,-0.151618726508,0.0520994737744,-2000.0,0.0,-0.185827598587
1505403120926054046,0.340143955254,-0.151618726508,0.0520994737744,-2000.0,0.0,-0.185827598587
1505403120932427788,0.340143955254,-0.151618726508,0.0526372864842,-2000.0,0.0,-0.185827598587
1505403120935473620,0.340143955254,-0.151618726508,0.0526372864842,-2000.0,0.0,-0.185827598587
1505403120940534834,0.340143955254,-0.151618726508,0.0530672073364,-2000.0,0.0,-0.185827598587
1505403120945649010,0.340143955254,-0.151618726508,0.0530672073364,-2000.0,0.0,-0.185827598587
1505403120950293145,0.340143955254,-0.151618726508,0.0536051802337,-2000.0,0.0,-0.185827598587
1505403120957800645,0.340143955254,-0.151618726508,0.0540533065796,-2000.0,0.0,-0.185827598587
1505403120961788260,0.340143955254,-0.151618726508,0.0540533065796,-2000.0,0.0,-0.185827598587
1505403120966083540,0.340143955254,-0.151618726508,0.0540533065796,-2000.0,0.0,-0.18772890109
1505403120971886083,0.340143955254,-0.151618726508,0.0545279607177,-2000.0,0.0,-0.18772890109
1505403120976808841,0.340143955254,-0.151618726508,0.0545279607177,-2000.0,0.0,-0.18772890109
1505403120980466611,0.340143955254,-0.151618726508,0.0550247691572,-2000.0,0.0,-0.18772890109
1505403120985542950,0.340143955254,-0.151618726508,0.0550247691572,-2000.0,0.0,-0.18772890109
1505403120993256371,0.340143955254,-0.151618726508,0.0554826967418,-2000.0,0.0,-0.18772890109
1505403120996894267,0.340143955254,-0.151618726508,0.0560285821557,-2000.0,0.0,-0.18772890109
1505403121000960887,0.340143955254,-0.151618726508,0.0560285821557,-2000.0,0.0,-0.18772890109
1505403121005877230,0.340143955254,-0.151618726508,0.0560285821557,-2000.0,0.0,-0.18772890109
1505403121010806563,0.340143955254,-0.151618726508,0.0565712712705,-2000.0,0.0,-0.18772890109
1505403121015733554,0.340143955254,-0.151618726508,0.0565712712705,-2000.0,0.0,-0.189808396456
1505403121025701539,0.340143955254,-0.151618726508,0.0571037977934,-2000.0,0.0,-0.189808396456
1505403121031469019,0.340143955254,-0.151618726508,0.0576366558671,-2000.0,0.0,-0.189808396456
1505403121036301140,0.340143955254,-0.151618726508,0.0576366558671,-2000.0,0.0,-0.189808396456
1505403121041113923,0.340143955254,-0.151618726508,0.0581939183176,-2000.0,0.0,-0.189808396456
1505403121046039389,0.340143955254,-0.151618726508,0.0581939183176,-2000.0,0.0,-0.189808396456
1505403121052518499,0.340143955254,-0.151618726508,0.0586223900318,-2000.0,0.0,-0.189808396456
1505403121059841395,0.340143955254,-0.151618726508,0.0592332184315,-2000.0,0.0,-0.189808396456
1505403121061859480,0.340143955254,-0.151618726508,0.0592332184315,-2000.0,0.0,-0.189808396456
1505403121065968851,0.340143955254,-0.151618726508,0.0592332184315,-2000.0,0.0,-0.192680851077
1505403121071353151,0.340143955254,-0.151618726508,0.0597348026931,-2000.0,0.0,-0.192680851077
1505403121076584068,0.340143955254,-0.151618726508,0.0603507347405,-2000.0,0.0,-0.192680851077
1505403121081180440,0.340143955254,-0.151618726508,0.0603507347405,-2000.0,0.0,-0.192680851077
1505403121090740686,0.340143955254,-0.151618726508,0.0609833821654,-2000.0,0.0,-0.192680851077
1505403121092433821,0.340143955254,-0.151618726508,0.0609833821654,-2000.0,0.0,-0.192680851077
1505403121096396203,0.340143955254,-0.151618726508,0.0609833821654,-2000.0,0.0,-0.192680851077
1505403121102623903,0.340143955254,-0.151618726508,0.0614306330681,-2000.0,0.0,-0.192680851077
1505403121106346276,0.340143955254,-0.151618726508,0.0614306330681,-2000.0,0.0,-0.192680851077
1505403121112778769,0.340143955254,-0.151618726508,0.06203635782,-2000.0,0.0,-0.192680851077
1505403121118277510,0.340143955254,-0.151618726508,0.0626058727503,-2000.0,0.0,-0.195492132033
1505403121124054292,0.340143955254,-0.151618726508,0.0626058727503,-2000.0,0.0,-0.195492132033
1505403121126383095,0.340143955254,-0.151618726508,0.0626058727503,-2000.0,0.0,-0.195492132033
1505403121131530332,0.340143955254,-0.151618726508,0.0630583316088,-2000.0,0.0,-0.195492132033
1505403121137863314,0.340143955254,-0.151618726508,0.0637129545212,-2000.0,0.0,-0.195492132033
1505403121141449346,0.340143955254,-0.151618726508,0.0637129545212,-2000.0,0.0,-0.195492132033
1505403121146502650,0.340143955254,-0.151618726508,0.0637129545212,-2000.0,0.0,-0.195492132033
1505403121151940470,0.340143955254,-0.151618726508,0.0642230957747,-2000.0,0.0,-0.195492132033
1505403121158467194,0.340143955254,-0.151618726508,0.0647262334824,-2000.0,0.0,-0.195492132033
1505403121162090828,0.340143955254,-0.151618726508,0.0647262334824,-2000.0,0.0,-0.195492132033
1505403121166789249,0.340143955254,-0.151618726508,0.0653246492147,-2000.0,0.0,-0.198174081546
1505403121171572674,0.340143955254,-0.151618726508,0.0653246492147,-2000.0,0.0,-0.198174081546
1505403121176578571,0.340143955254,-0.151618726508,0.0653246492147,-2000.0,0.0,-0.198174081546
1505403121185074041,0.340143955254,-0.151618726508,0.0657665356994,-2000.0,0.0,-0.198174081546
1505403121186861470,0.340143955254,-0.151618726508,0.0657665356994,-2000.0,0.0,-0.198174081546
1505403121192108565,0.340143955254,-0.151618726508,0.0662198588252,-2000.0,0.0,-0.198174081546
1505403121200583519,0.340143955254,-0.151618726508,0.0666689500213,-2000.0,0.0,-0.198174081546
1505403121201923612,0.340143955254,-0.151618726508,0.0666689500213,-2000.0,0.0,-0.198174081546
1505403121206719963,0.340143955254,-0.151618726508,0.0672610476613,-2000.0,0.0,-0.198174081546
1505403121211904625,0.340143955254,-0.151618726508,0.0672610476613,-2000.0,0.0,-0.198174081546
1505403121218509397,0.340143955254,-0.151618726508,0.0677102729678,-2000.0,0.0,-0.199415270755
1505403121226217571,0.340143955254,-0.151618726508,0.0677102729678,-2000.0,0.0,-0.199415270755
1505403121228163311,0.340143955254,-0.151618726508,0.0680807381868,-2000.0,0.0,-0.199415270755
1505403121232317027,0.340143955254,-0.151618726508,0.0680807381868,-2000.0,0.0,-0.199415270755
1505403121239113951,0.340143955254,-0.151618726508,0.0686014518142,-2000.0,0.0,-0.199415270755
1505403121241999658,0.340143955254,-0.151618726508,0.0686014518142,-2000.0,0.0,-0.199415270755
1505403121248742484,0.340143955254,-0.151618726508,0.0689314603806,-2000.0,0.0,-0.199415270755
1505403121255132093,0.340143955254,-0.151618726508,0.0689314603806,-2000.0,0.0,-0.199415270755
1505403121257457676,0.340143955254,-0.151618726508,0.0693065077066,-2000.0,0.0,-0.199415270755
1505403121267358742,0.340143955254,-0.151618726508,0.0697578042746,-2000.0,0.0,-0.20080285195
1505403121267365875,0.340143955254,-0.151618726508,0.0697578042746,-2000.0,0.0,-0.20080285195
1505403121272539666,0.340143955254,-0.151618726508,0.0697578042746,-2000.0,0.0,-0.20080285195
1505403121277325978,0.340143955254,-0.151618726508,0.0701257586479,-2000.0,0.0,-0.20080285195
1505403121282585915,0.340143955254,-0.151618726508,0.0701257586479,-2000.0,0.0,-0.20080285195
1505403121292903320,0.340143955254,-0.151618726508,0.0703746750951,-2000.0,0.0,-0.20080285195
1505403121293091770,0.340143955254,-0.151618726508,0.0703746750951,-2000.0,0.0,-0.20080285195
1505403121297547677,0.340143955254,-0.151618726508,0.0708089098334,-2000.0,0.0,-0.20080285195
1505403121302314222,0.340143955254,-0.151618726508,0.0708089098334,-2000.0,0.0,-0.20080285195
1505403121308620957,0.340143955254,-0.151618726508,0.071101218462,-2000.0,0.0,-0.20080285195
1505403121314808770,0.340143955254,-0.151618726508,0.071101218462,-2000.0,0.0,-0.202874876147
1505403121317969492,0.340143955254,-0.151618726508,0.0713017210364,-2000.0,0.0,-0.202874876147
1505403121324126817,0.340143955254,-0.151618726508,0.0713017210364,-2000.0,0.0,-0.202874876147
1505403121327425701,0.340143955254,-0.151618726508,0.0716463401914,-2000.0,0.0,-0.202874876147
1505403121332572513,0.340143955254,-0.151618726508,0.0716463401914,-2000.0,0.0,-0.202874876147
1505403121337540456,0.340143955254,-0.151618726508,0.0718149542809,-2000.0,0.0,-0.202874876147
1505403121342311799,0.340143955254,-0.151618726508,0.0718149542809,-2000.0,0.0,-0.202874876147
1505403121348260513,0.340143955254,-0.151618726508,0.0719740986824,-2000.0,0.0,-0.202874876147
1505403121362720592,0.340143955254,-0.151618726508,0.072203591466,-2000.0,0.0,-0.202874876147
1505403121362776524,0.340143955254,-0.151618726508,0.072203591466,-2000.0,0.0,-0.202874876147
1505403121367751889,0.340143955254,-0.151618726508,0.0722776427865,-2000.0,0.0,-0.20542732158
1505403121372899978,0.340143955254,-0.151618726508,0.0722776427865,-2000.0,0.0,-0.20542732158
1505403121378061084,0.340143955254,-0.151618726508,0.0724124833941,-2000.0,0.0,-0.20542732158
1505403121383041268,0.340143955254,-0.151618726508,0.0724124833941,-2000.0,0.0,-0.20542732158
1505403121390022320,0.340143955254,-0.151618726508,0.0724372416735,-2000.0,0.0,-0.20542732158
1505403121392990252,0.340143955254,-0.151618726508,0.0724372416735,-2000.0,0.0,-0.20542732158
1505403121399410012,0.340143955254,-0.151618726508,0.0724389180541,-2000.0,0.0,-0.20542732158
1505403121402857775,0.340143955254,-0.151618726508,0.0724389180541,-2000.0,0.0,-0.20542732158
1505403121407946220,0.340143955254,-0.151618726508,0.0724230483174,-2000.0,0.0,-0.20542732158
1505403121414748173,0.340143955254,-0.151618726508,0.0724230483174,-2000.0,0.0,-0.207469029987
1505403121421216788,0.340143955254,-0.151618726508,0.0724019631743,-2000.0,0.0,-0.207469029987
1505403121423711960,0.340143955254,-0.151618726508,0.0724019631743,-2000.0,0.0,-0.207469029987
1505403121428053384,0.340143955254,-0.151618726508,0.0723549500108,-2000.0,0.0,-0.207469029987
1505403121433256020,0.328198650359,-0.000100335458142,0.0723549500108,-0.234772105264,0.126739012154,-0.207469029987
1505403121438364625,0.328195408676,0.00135924975817,0.0721150785685,-0.234958369751,0.127002914579,-0.207469029987
1505403121446383067,0.328854835487,0.00185481916501,0.0721150785685,-0.235501576105,0.127623687977,-0.207469029987
1505403121450021831,0.32959251404,0.00344050823435,0.0719889104366,-0.236230892177,0.128352728145,-0.207469029987
1505403121453412889,0.330025517141,0.00414177579025,0.0719889104366,-0.23651015989,0.129128148943,-0.207469029987
1505403121458386083,0.329923758353,0.00608781069207,0.0718576535583,-0.2363705271,0.129934700016,-0.207469029987
1505403121463387600,0.329232686083,0.00612488940589,0.0718576535583,-0.23536190497,0.130416405075,-0.209964615325
1505403121468269835,0.340511061131,0.00893885099483,0.071566849947,-0.246312341942,0.134538899015,-0.209964615325
1505403121477181515,0.339791585978,0.00926061242269,0.071566849947,-0.245541604473,0.134703637192,-0.209964615325
1505403121479810270,0.339663733253,0.010902949386,0.0713386014104,-0.245574406762,0.135031399315,-0.209964615325
1505403121485141167,0.340167357686,0.0110631354533,0.0713386014104,-0.246033583915,0.135293035493,-0.209964615325
1505403121492651664,0.340209574239,0.0124250256087,0.0709713697433,-0.246361532745,0.135718615832,-0.209964615325
1505403121493511145,0.340773480711,0.0127898972396,0.0709713697433,-0.24683700639,0.13619300663,-0.209964615325
1505403121498690259,0.339262905294,0.00938560131553,0.0706315711141,-0.246623870979,0.131575898102,-0.209964615325
1505403121503295463,0.339078872537,0.0100953699524,0.0706315711141,-0.246295946161,0.132231721925,-0.209964615325
1505403121508856245,0.338100352336,0.0120915776745,0.0703156962991,-0.245492402433,0.13282306641,-0.209964615325
1505403121513734113,0.337814888544,0.0114841454121,0.0703156962991,-0.244754297013,0.133250621198,-0.214376596206
1505403121519481580,0.337414066475,0.0128667934169,0.0698848441243,-0.244688681111,0.133693155485,-0.214376596206
1505403121524318934,0.322986654,0.00131663720957,0.0698848441243,-0.233048684576,0.1193381278,-0.214376596206
1505403121528669852,0.323052693442,0.00259920556335,0.0693593621254,-0.233576673311,0.11969358225,-0.214376596206
1505403121534538783,0.322943303747,0.00297269252046,0.0693593621254,-0.233390332639,0.120035248412,-0.214376596206
1505403121539365010,0.322049854348,0.00433463201036,0.0689162537456,-0.232908908291,0.120129557426,-0.214376596206
1505403121543951244,0.321396344786,0.00476465127153,0.0689162537456,-0.2321788765,0.120410706668,-0.214376596206
1505403121550092581,0.32027509293,0.00586298419351,0.0683814063668,-0.231588524613,0.12036573963,-0.214376596206
1505403121560988582,0.334368422631,0.00708297676858,0.0678095445037,-0.245873043822,0.123692156276,-0.214376596206
1505403121563955529,0.334835415825,0.00643871293968,0.0678095445037,-0.246201213301,0.123691258426,-0.216525187622
1505403121568663733,0.334186372988,0.00766471729791,0.0673027038574,-0.246069950672,0.123626071583,-0.216525187622
1505403121574482047,0.333712017064,0.00741780398337,0.0673027038574,-0.245659717201,0.123283014405,-0.216525187622
1505403121581894667,0.334344532136,0.00535328166322,0.0666204914451,-0.247549503438,0.120811692598,-0.216525187622
1505403121583752054,0.33356847707,0.0054925844946,0.0666204914451,-0.246761641927,0.120781017152,-0.216525187622
1505403121591337182,0.332433639812,0.00698312958237,0.0659885481,-0.24617063162,0.121126935851,-0.216525187622
1505403121596516382,0.332185515488,0.00730723314682,0.0659885481,-0.245858671514,0.121390165205,-0.216525187622
1505403121599929306,0.331421693613,0.00881010856631,0.0653090775013,-0.245710889953,0.121669351256,-0.216525187622
1505403121605674887,0.331733774484,0.00931167411758,0.0653090775013,-0.245907928729,0.12222625178,-0.216525187622
1505403121609223922,0.330677450861,0.0101310325845,0.06457362324,-0.245546682414,0.122374930847,-0.216525187622
1505403121614081131,0.330582556282,0.00963374835271,0.06457362324,-0.245054014937,0.122884812461,-0.220666683225
1505403121623394861,0.330582556282,0.00963374835271,0.0638441294432,-2000.0,0.0,-0.220666683225
1505403121624588657,0.330582556282,0.00963374835271,0.0638441294432,-2000.0,0.0,-0.220666683225
1505403121628989656,0.330582556282,0.00963374835271,0.0630321130157,-2000.0,0.0,-0.220666683225
1505403121634134425,0.330582556282,0.00963374835271,0.0630321130157,-2000.0,0.0,-0.220666683225
1505403121641774917,0.330582556282,0.00963374835271,0.062307164073,-2000.0,0.0,-0.220666683225
1505403121645636454,0.330582556282,0.00963374835271,0.062307164073,-2000.0,0.0,-0.220666683225
1505403121649333685,0.330582556282,0.00963374835271,0.0614433996379,-2000.0,0.0,-0.220666683225
1505403121657078606,0.330582556282,0.00963374835271,0.0606067292392,-2000.0,0.0,-0.220666683225
1505403121659220366,0.330582556282,0.00963374835271,0.0606067292392,-2000.0,0.0,-0.220666683225
1505403121664087681,0.330582556282,0.00963374835271,0.0606067292392,-2000.0,0.0,-0.225009682415
1505403121672944266,0.330582556282,0.00963374835271,0.0598615705967,-2000.0,0.0,-0.225009682415
1505403121674711914,0.330582556282,0.00963374835271,0.0598615705967,-2000.0,0.0,-0.225009682415
1505403121679888550,0.330582556282,0.00963374835271,0.0587478987873,-2000.0,0.0,-0.225009682415
1505403121684487043,0.330582556282,0.00963374835271,0.0587478987873,-2000.0,0.0,-0.225009682415
1505403121690588707,0.330582556282,0.00963374835271,0.0578642487526,-2000.0,0.0,-0.225009682415
1505403121694562248,0.330582556282,0.00963374835271,0.0578642487526,-2000.0,0.0,-0.225009682415
1505403121700254277,0.330582556282,0.00963374835271,0.0569203533232,-2000.0,0.0,-0.225009682415
1505403121707357410,0.330582556282,0.00963374835271,0.0558880418539,-2000.0,0.0,-0.225009682415
