%time,field.header.seq,field.header.stamp,field.header.frame_id,field.vector.x,field.vector.y,field.vector.z
1505403118525425750,100457,1505403118525138950,0.969145476818,0.0293680448085,-0.244733706117
1505403118532623643,100458,1505403118532386061,0.969145476818,0.0293680448085,-0.244733706117
1505403118532638104,100459,1505403118532427763,0.979608237743,-0.01999200508,-0.199920043349
1505403118537243963,100460,1505403118536921705,0.979608237743,-0.01999200508,-0.199920043349
1505403118543108648,100461,1505403118542901809,0.984310686588,-0.0103611648083,-0.176139801741
1505403118547620061,100462,1505403118547423180,0.984310686588,-0.0103611648083,-0.176139801741
1505403118552633787,100463,1505403118552360642,0.974391162395,0.0,-0.224859505892
1505403118557907272,100464,1505403118557687472,0.974391162395,0.0,-0.224859505892
1505403118563709666,100465,1505403118563598712,0.966623902321,0.0305249653757,-0.254374712706
1505403118567788466,100466,1505403118567646670,0.966623902321,0.0305249653757,-0.254374712706
1505403118577012388,100467,1505403118576784880,0.980230867863,0.0625679269433,-0.18770378828
1505403118577634520,100468,1505403118577510071,0.980230867863,0.0625679269433,-0.18770378828
1505403118585112507,100469,1505403118585016683,0.97347933054,0.0207123253495,-0.227835580707
1505403118591113658,100470,1505403118590955912,0.97347933054,0.0207123253495,-0.227835580707
1505403118592551028,100471,1505403118592383740,0.97066038847,-0.00961049925536,-0.240262463689
1505403118597665221,100472,1505403118597411958,0.97066038847,-0.00961049925536,-0.240262463689
1505403118602485131,100473,1505403118602258416,0.972580730915,-0.0300798173994,-0.230611935258
1505403118611352976,100474,1505403118611122749,0.972580730915,-0.0300798173994,-0.230611935258
1505403118614043962,100475,1505403118613840575,0.981301009655,-0.0101165054366,-0.192213594913
1505403118617828301,100476,1505403118617637202,0.981301009655,-0.0101165054366,-0.192213594913
1505403118625942040,100477,1505403118625725389,0.965031325817,-0.0201048180461,-0.26136264205
1505403118627920000,100478,1505403118627736080,0.965031325817,-0.0201048180461,-0.26136264205
1505403118634488440,100479,1505403118634244996,0.971756458282,-0.068710051477,-0.225761592388
1505403118637872833,100480,1505403118637672701,0.971756458282,-0.068710051477,-0.225761592388
1505403118643188549,100481,1505403118643009561,0.970628321171,-0.063301846385,-0.232106775045
1505403118649912257,100482,1505403118649747899,0.970628321171,-0.063301846385,-0.232106775045
1505403118656602115,100483,1505403118656380018,0.970142483711,0.0,-0.242535620928
1505403118658373032,100484,1505403118658234609,0.970142483711,0.0,-0.242535620928
1505403118663176041,100485,1505403118662993763,0.958213329315,-0.031589448452,-0.28430506587
1505403118669238312,100486,1505403118669029225,0.958213329315,-0.031589448452,-0.28430506587
1505403118678767257,100487,1505403118678533556,0.973688185215,0.0,-0.227884471416
1505403118679845432,100488,1505403118679729648,0.973688185215,0.0,-0.227884471416
1505403118684083410,100489,1505403118683961659,0.973929405212,-0.0405803918839,-0.223192155361
1505403118691270348,100490,1505403118691049234,0.973929405212,-0.0405803918839,-0.223192155361
1505403118697421670,100491,1505403118697219709,0.974992513657,0.00965339131653,-0.222028002143
1505403118698972018,100492,1505403118698835194,0.974992513657,0.00965339131653,-0.222028002143
1505403118703873347,100493,1505403118703686531,0.972972095013,-0.0100306402892,-0.230704724789
1505403118708664882,100494,1505403118708454327,0.972972095013,-0.0100306402892,-0.230704724789
1505403118716298658,100495,1505403118716077699,0.958050966263,-0.00987681373954,-0.286427617073
1505403118718261795,100496,1505403118718108281,0.958050966263,-0.00987681373954,-0.286427617073
1505403118724995335,100497,1505403118724824445,0.971463561058,-0.0306777972728,-0.235196441412
1505403118728829453,100498,1505403118728060422,0.971463561058,-0.0306777972728,-0.235196441412
1505403118733232143,100499,1505403118732979285,0.968917667866,0.0,-0.247383236885
1505403118738556147,100500,1505403118738352104,0.968917667866,0.0,-0.247383236885
1505403118743673755,100501,1505403118743376531,0.953726053238,-0.0397385843098,-0.298039376736
1505403118748539362,100502,1505403118748381585,0.953726053238,-0.0397385843098,-0.298039376736
1505403118759333691,100503,1505403118759070396,0.983349025249,-0.0200683474541,-0.180615127087
1505403118759340846,100504,1505403118759109915,0.983349025249,-0.0200683474541,-0.180615127087
1505403118763394515,100505,1505403118763279274,0.973688185215,0.0,-0.227884471416
1505403118768543711,100506,1505403118768392279,0.973688185215,0.0,-0.227884471416
1505403118775384269,100507,1505403118775149328,0.967827022076,-0.0916888788342,-0.234316021204
1505403118778686940,100508,1505403118778523220,0.967827022076,-0.0916888788342,-0.234316021204
1505403118783909681,100509,1505403118783698286,0.975716292858,0.0,-0.21903835237
1505403118791177141,100510,1505403118791015191,0.975716292858,0.0,-0.21903835237
1505403118793606128,100511,1505403118793468420,0.975387394428,0.0104880360886,-0.220248758793
1505403118798681706,100512,1505403118798463142,0.975387394428,0.0104880360886,-0.220248758793
1505403118806015268,100513,1505403118805788382,0.965226352215,0.0,-0.261415481567
1505403118808651646,100514,1505403118808480346,0.965226352215,0.0,-0.261415481567
1505403118813782012,100515,1505403118813634791,0.980392158031,-0.0196078438312,-0.196078434587
1505403118818841873,100516,1505403118818660349,0.980392158031,-0.0196078438312,-0.196078434587
1505403118824508224,100517,1505403118824218237,0.974943399429,-0.0397936105728,-0.218864843249
1505403118829623155,100518,1505403118829444813,0.974943399429,-0.0397936105728,-0.218864843249
1505403118834012138,100519,1505403118833784378,0.979608237743,-0.01999200508,-0.199920043349
1505403118840499306,100520,1505403118840250896,0.979608237743,-0.01999200508,-0.199920043349
1505403118843984436,100521,1505403118843764060,0.979707598686,0.0105344904587,-0.200155317783
1505403118849070717,100522,1505403118848840879,0.979707598686,0.0105344904587,-0.200155317783
1505403118857753534,100523,1505403118857499084,0.97927737236,-0.051540914923,-0.195855483413
1505403118858830383,100524,1505403118858714114,0.97927737236,-0.051540914923,-0.195855483413
1505403118864673567,100525,1505403118864467920,0.965810239315,-0.0394208244979,-0.256235361099
1505403118869996953,100526,1505403118869793812,0.965810239315,-0.0394208244979,-0.256235361099
1505403118874111277,100527,1505403118873914917,0.983720242977,-0.0507072284818,-0.172404572368
1505403118879076427,100528,1505403118878875416,0.983720242977,-0.0507072284818,-0.172404572368
1505403118884217993,100529,1505403118884076673,0.97066038847,0.00961049925536,-0.240262463689
1505403118891695757,100530,1505403118891372049,0.97066038847,0.00961049925536,-0.240262463689
1505403118896554167,100531,1505403118896305506,0.980110883713,-0.0309508685023,-0.196022167802
1505403118899436179,100532,1505403118899269803,0.980110883713,-0.0309508685023,-0.196022167802
1505403118904722701,100533,1505403118904541149,0.967921197414,0.0299357082695,-0.249464228749
1505403118909340174,100534,1505403118909166960,0.967921197414,0.0299357082695,-0.249464228749
1505403118914391408,100535,1505403118914220128,0.972580730915,-0.0300798173994,-0.230611935258
1505403118919283392,100536,1505403118919111989,0.972580730915,-0.0300798173994,-0.230611935258
1505403118924790007,100537,1505403118924602574,0.979021430016,-0.0399600602686,-0.199800297618
1505403118929160894,100538,1505403118929014370,0.979021430016,-0.0399600602686,-0.199800297618
1505403118934760159,100539,1505403118934570810,0.963608503342,0.0205023083836,-0.266530007124
1505403118941415594,100540,1505403118941159902,0.963608503342,0.0205023083836,-0.266530007124
1505403118944619979,100541,1505403118944465383,0.963786184788,-0.0317731723189,-0.264776438475
1505403118949601145,100542,1505403118949399784,0.963786184788,-0.0317731723189,-0.264776438475
1505403118958558028,100543,1505403118958376682,0.968306899071,0.00998254586011,-0.249563634396
1505403118959391583,100544,1505403118959227432,0.968306899071,0.00998254586011,-0.249563634396
1505403118966231494,100545,1505403118966088284,0.97695595026,-0.0212381724268,-0.212381735444
1505403118970008394,100546,1505403118969886814,0.97695595026,-0.0212381724268,-0.212381735444
1505403118980856255,100547,1505403118980633467,0.97347933054,0.0207123253495,-0.227835580707
1505403118983807328,100548,1505403118983592906,0.97347933054,0.0207123253495,-0.227835580707
1505403118991988898,100549,1505403118991110252,0.965226352215,0.0,-0.261415481567
1505403118991995156,100550,1505403118991148744,0.965226352215,0.0,-0.261415481567
1505403118994785807,100551,1505403118994618896,0.974992513657,-0.00965339131653,-0.222028002143
1505403119001224656,100552,1505403119001071489,0.974992513657,-0.00965339131653,-0.222028002143
1505403119005233327,100553,1505403119004976822,0.967024445534,-0.0101792048663,-0.25448012352
1505403119009818253,100554,1505403119009608088,0.967024445534,-0.0101792048663,-0.25448012352
1505403119014861592,100555,1505403119014670245,0.977308273315,-0.0100753428414,-0.211582198739
1505403119024519960,100556,1505403119024333072,0.977308273315,-0.0100753428414,-0.211582198739
1505403119025643210,100557,1505403119025456117,0.957589685917,-0.0407484956086,-0.285239487886
1505403119035312186,100558,1505403119035002383,0.957589685917,-0.0407484956086,-0.285239487886
1505403119035485493,100559,1505403119035042287,0.965663909912,-0.0103834830225,-0.259587079287
1505403119039967294,100560,1505403119039727554,0.965663909912,-0.0103834830225,-0.259587079287
1505403119047335396,100561,1505403119047180817,0.980528473854,-0.0103213526309,-0.19610568881
1505403119050000751,100562,1505403119049809763,0.980528473854,-0.0103213526309,-0.19610568881
1505403119060137643,100563,1505403119059952254,0.968306899071,0.00998254586011,-0.249563634396
1505403119064838715,100564,1505403119064604873,0.968306899071,0.00998254586011,-0.249563634396
1505403119066721200,100565,1505403119066436409,0.956942677498,-0.0797452256083,-0.279108285904
1505403119070310412,100566,1505403119070134030,0.956942677498,-0.0797452256083,-0.279108285904
1505403119075332808,100567,1505403119075056900,0.950618088245,0.010006505996,-0.3102016747
1505403119080317659,100568,1505403119080158087,0.950618088245,0.010006505996,-0.3102016747
1505403119085262189,100569,1505403119085080641,0.961468219757,0.0418029651046,-0.271719276905
1505403119093908972,100570,1505403119093645699,0.961468219757,0.0418029651046,-0.271719276905
1505403119095930998,100571,1505403119095731700,0.974935889244,-0.0703561976552,-0.211068600416
1505403119100547078,100572,1505403119100373356,0.974935889244,-0.0703561976552,-0.211068600416
1505403119105556027,100573,1505403119105380456,0.962309420109,0.0,-0.271957010031
1505403119110366345,100574,1505403119110180011,0.962309420109,0.0,-0.271957010031
1505403119116490146,100575,1505403119116150776,0.975387394428,-0.0104880360886,-0.220248758793
1505403119120997740,100576,1505403119120750585,0.975387394428,-0.0104880360886,-0.220248758793
1505403119125234468,100577,1505403119125068970,0.966234922409,0.0,-0.257662653923
1505403119130827322,100578,1505403119130588751,0.966234922409,0.0,-0.257662653923
1505403119138984917,100579,1505403119138766282,0.975522875786,0.0199086293578,-0.218994930387
1505403119140183323,100580,1505403119139960907,0.975522875786,0.0199086293578,-0.218994930387
1505403119146175018,100581,1505403119145936469,0.952463567257,0.0202651824802,-0.30397772789
1505403119158955988,100582,1505403119150418786,0.952463567257,0.0202651824802,-0.30397772789
1505403119159224488,100583,1505403119158794467,0.965247690678,0.0311370212585,-0.259475171566
1505403119162414111,100584,1505403119161903719,0.965247690678,0.0311370212585,-0.259475171566
1505403119167041104,100585,1505403119166868668,0.959999978542,0.0,-0.280000001192
1505403119171380309,100586,1505403119171102902,0.959999978542,0.0,-0.280000001192
1505403119175810172,100587,1505403119175563533,0.965663909912,0.0103834830225,-0.259587079287
1505403119180778658,100588,1505403119180539573,0.965663909912,0.0103834830225,-0.259587079287
1505403119186032100,100589,1505403119185893296,0.968095242977,-0.0411955416203,-0.247173249722
1505403119191577662,100590,1505403119191274334,0.968095242977,-0.0411955416203,-0.247173249722
1505403119197560850,100591,1505403119197353812,0.971106529236,0.0198184996843,-0.237821996212
1505403119200939058,100592,1505403119200758018,0.971106529236,0.0198184996843,-0.237821996212
1505403119205952949,100593,1505403119205705870,0.972972095013,0.0100306402892,-0.230704724789
1505403119211099620,100594,1505403119210833849,0.972972095013,0.0100306402892,-0.230704724789
1505403119218126111,100595,1505403119217949050,0.976376771927,0.010277650319,-0.215830653906
1505403119221872116,100596,1505403119221728956,0.976376771927,0.010277650319,-0.215830653906
1505403119226403486,100597,1505403119226170773,0.965999424458,-0.0697112977505,-0.248968929052
1505403119231475870,100598,1505403119231146488,0.965999424458,-0.0697112977505,-0.248968929052
1505403119236207369,100599,1505403119235942281,0.974011361599,0.0098384981975,-0.226285472512
1505403119241361991,100600,1505403119241086865,0.974011361599,0.0098384981975,-0.226285472512
1505403119246655398,100601,1505403119246513327,0.959808051586,0.0199960023165,-0.279944032431
1505403119251049059,100602,1505403119250827757,0.959808051586,0.0199960023165,-0.279944032431
1505403119258541572,100603,1505403119258302968,0.963608503342,-0.0205023083836,-0.266530007124
1505403119261992973,100604,1505403119261821276,0.963608503342,-0.0205023083836,-0.266530007124
1505403119266598024,100605,1505403119266379951,0.981642484665,-0.0297467429191,-0.188396036625
1505403119273977622,100606,1505403119273752364,0.981642484665,-0.0297467429191,-0.188396036625
1505403119276354174,100607,1505403119276126355,0.979707598686,-0.0105344904587,-0.200155317783
1505403119281257350,100608,1505403119281034801,0.979707598686,-0.0105344904587,-0.200155317783
1505403119290456646,100609,1505403119290265580,0.958050966263,0.00987681373954,-0.286427617073
1505403119293597094,100610,1505403119293188506,0.958050966263,0.00987681373954,-0.286427617073
1505403119296658411,100611,1505403119296342559,0.970142483711,0.0,-0.242535620928
1505403119301423014,100612,1505403119301254524,0.970142483711,0.0,-0.242535620928
1505403119306606367,100613,1505403119306412376,0.982715308666,0.00972985476255,-0.184867233038
1505403119311679962,100614,1505403119311356232,0.982715308666,0.00972985476255,-0.184867233038
1505403119316459058,100615,1505403119316203766,0.977804601192,0.0296304430813,-0.207413092256
1505403119324838215,100616,1505403119324647747,0.977804601192,0.0296304430813,-0.207413092256
1505403119326754443,100617,1505403119326606854,0.976911664009,-0.0302137639374,-0.211496338248
1505403119331741829,100618,1505403119331401254,0.976911664009,-0.0302137639374,-0.211496338248
1505403119336830305,100619,1505403119336512252,0.968095242977,-0.0411955416203,-0.247173249722
1505403119343091827,100620,1505403119342876576,0.968095242977,-0.0411955416203,-0.247173249722
1505403119346725383,100621,1505403119346538449,0.961461663246,-0.0303619466722,-0.273257523775
1505403119351783229,100622,1505403119351523579,0.961461663246,-0.0303619466722,-0.273257523775
1505403119357713988,100623,1505403119357461405,0.964446663857,-0.0401852764189,-0.261204302311
1505403119363022292,100624,1505403119362905548,0.964446663857,-0.0401852764189,-0.261204302311
1505403119368240736,100625,1505403119368016340,0.961468219757,-0.0418029651046,-0.271719276905
1505403119372193614,100626,1505403119371565166,0.961468219757,-0.0418029651046,-0.271719276905
1505403119377059243,100627,1505403119376689680,0.959999978542,0.0,-0.280000001192
1505403119381623879,100628,1505403119381420337,0.959999978542,0.0,-0.280000001192
1505403119392862552,100629,1505403119392632985,0.971799492836,-0.0500927567482,-0.230426684022
1505403119393152749,100630,1505403119392667469,0.971799492836,-0.0500927567482,-0.230426684022
1505403119398666117,100631,1505403119398433025,0.976458251476,-0.0195291638374,-0.214820817113
1505403119401952594,100632,1505403119401761426,0.976458251476,-0.0195291638374,-0.214820817113
1505403119407077691,100633,1505403119406871865,0.976376771927,-0.010277650319,-0.215830653906
1505403119412020895,100634,1505403119411744620,0.976376771927,-0.010277650319,-0.215830653906
1505403119417080238,100635,1505403119416883627,0.96603178978,0.00956467166543,-0.258246123791
1505403119423875461,100636,1505403119423726174,0.96603178978,0.00956467166543,-0.258246123791
1505403119430689439,100637,1505403119429765367,0.958213329315,-0.031589448452,-0.28430506587
1505403119432325737,100638,1505403119432114541,0.958213329315,-0.031589448452,-0.28430506587
1505403119437252480,100639,1505403119437050220,0.967444181442,-0.056908480823,-0.246603414416
1505403119442069259,100640,1505403119441907160,0.967444181442,-0.056908480823,-0.246603414416
1505403119447113938,100641,1505403119446970259,0.965999424458,-0.0697112977505,-0.248968929052
1505403119452777866,100642,1505403119452568500,0.965999424458,-0.0697112977505,-0.248968929052
1505403119463046284,100643,1505403119462747588,0.963001549244,-0.0409787893295,-0.266362130642
1505403119463049307,100644,1505403119462780786,0.963001549244,-0.0409787893295,-0.266362130642
1505403119469276120,100645,1505403119469119914,0.972822546959,-0.0732232034206,-0.219669610262
1505403119472621115,100646,1505403119472341758,0.972822546959,-0.0732232034206,-0.219669610262
1505403119477502681,100647,1505403119477240111,0.96709805727,-0.0386839210987,-0.251445502043
1505403119483588774,100648,1505403119483483331,0.96709805727,-0.0386839210987,-0.251445502043
1505403119487757294,100649,1505403119487549315,0.969350874424,-0.0403896197677,-0.242337718606
1505403119495871294,100650,1505403119495547790,0.969350874424,-0.0403896197677,-0.242337718606
1505403119499861273,100651,1505403119499681402,0.952251434326,-0.0190450288355,-0.304720461369
1505403119502402993,100652,1505403119502242618,0.952251434326,-0.0190450288355,-0.304720461369
1505403119507564206,100653,1505403119507367878,0.960674762726,-0.0505618304014,-0.273033887148
1505403119512574268,100654,1505403119512355360,0.960674762726,-0.0505618304014,-0.273033887148
1505403119524229475,100655,1505403119524100909,0.969457507133,0.0106533793733,-0.245027720928
1505403119525837079,100656,1505403119525689136,0.969457507133,0.0106533793733,-0.245027720928
1505403119527588162,100657,1505403119527445954,0.965031325817,-0.0201048180461,-0.26136264205
1505403119532711630,100658,1505403119532529445,0.965031325817,-0.0201048180461,-0.26136264205
1505403119537715551,100659,1505403119537542736,0.97347933054,-0.0207123253495,-0.227835580707
1505403119542994863,100660,1505403119542823461,0.97347933054,-0.0207123253495,-0.227835580707
1505403119547938163,100661,1505403119547729813,0.97363448143,-0.0295040756464,-0.226197913289
1505403119553423660,100662,1505403119553002256,0.97363448143,-0.0295040756464,-0.226197913289
1505403119561737563,100663,1505403119561548535,0.974732339382,0.0,-0.2233761549
1505403119564600383,100664,1505403119564306140,0.974732339382,0.0,-0.2233761549
1505403119568299497,100665,1505403119568130379,0.970277786255,-0.0312992818654,-0.239961177111
1505403119574292907,100666,1505403119573973576,0.970277786255,-0.0312992818654,-0.239961177111
1505403119577917584,100667,1505403119577702261,0.968172371387,-0.0728731900454,-0.239440485835
1505403119586180871,100668,1505403119585876259,0.968172371387,-0.0728731900454,-0.239440485835
1505403119589783897,100669,1505403119589645081,0.975900113583,-0.0390360020101,-0.214698016644
1505403119594524212,100670,1505403119594297950,0.975900113583,-0.0390360020101,-0.214698016644
1505403119598104383,100671,1505403119597914008,0.9734172225,0.0,-0.229039341211
1505403119603003153,100672,1505403119602751184,0.9734172225,0.0,-0.229039341211
1505403119607923763,100673,1505403119607761670,0.974732339382,0.0,-0.2233761549
1505403119613133044,100674,1505403119612902873,0.974732339382,0.0,-0.2233761549
1505403119618974330,100675,1505403119618702123,0.976644515991,0.0,-0.214861795306
1505403119625245359,100676,1505403119625025147,0.976644515991,0.0,-0.214861795306
1505403119628289600,100677,1505403119628124211,0.97347933054,-0.0207123253495,-0.227835580707
1505403119633287500,100678,1505403119633127718,0.97347933054,-0.0207123253495,-0.227835580707
1505403119638146915,100679,1505403119637999231,0.976911664009,-0.0302137639374,-0.211496338248
1505403119643891834,100680,1505403119643714371,0.976911664009,-0.0302137639374,-0.211496338248
1505403119652134249,100681,1505403119651854045,0.978186368942,-0.00988067034632,-0.207494080067
1505403119656910657,100682,1505403119656687059,0.978186368942,-0.00988067034632,-0.207494080067
1505403119659866149,100683,1505403119659683254,0.976911664009,-0.0302137639374,-0.211496338248
1505403119663241510,100684,1505403119663125533,0.976911664009,-0.0302137639374,-0.211496338248
1505403119668918775,100685,1505403119668780916,0.975716292858,0.0,-0.21903835237
1505403119673529680,100686,1505403119673245347,0.975716292858,0.0,-0.21903835237
1505403119679747237,100687,1505403119679577489,0.974893450737,-0.0221566688269,-0.221566691995
1505403119683745688,100688,1505403119683503283,0.974893450737,-0.0221566688269,-0.221566691995
1505403119691227891,100689,1505403119690943801,0.980098009109,-0.0505205132067,-0.191977962852
1505403119693888610,100690,1505403119693696913,0.980098009109,-0.0505205132067,-0.191977962852
1505403119698542999,100691,1505403119698367457,0.967151105404,-0.0498531498015,-0.249265760183
1505403119703433637,100692,1505403119703302926,0.967151105404,-0.0498531498015,-0.249265760183
1505403119708710233,100693,1505403119708386346,0.960784316063,-0.0392156876624,-0.274509817362
1505403119713757155,100694,1505403119713645592,0.960784316063,-0.0392156876624,-0.274509817362
1505403119724854412,100695,1505403119724628792,0.973929405212,-0.0405803918839,-0.223192155361
1505403119724913537,100696,1505403119724660534,0.973929405212,-0.0405803918839,-0.223192155361
1505403119728661626,100697,1505403119728519931,0.976119935513,-0.0503154620528,-0.211324945092
1505403119733780357,100698,1505403119733615369,0.976119935513,-0.0503154620528,-0.211324945092
1505403119738651134,100699,1505403119738458749,0.964628636837,-0.0710778981447,-0.253849625587
1505403119744013032,100700,1505403119743816444,0.964628636837,-0.0710778981447,-0.253849625587
1505403119749258179,100701,1505403119749105617,0.972928524017,-0.0608080327511,-0.222962796688
1505403119759153039,100702,1505403119758946854,0.972928524017,-0.0608080327511,-0.222962796688
1505403119762898809,100703,1505403119762753262,0.983349025249,-0.0200683474541,-0.180615127087
1505403119763498391,100704,1505403119763372539,0.983349025249,-0.0200683474541,-0.180615127087
1505403119769173743,100705,1505403119768967974,0.978105902672,0.0,-0.20810765028
1505403119773938389,100706,1505403119773731563,0.978105902672,0.0,-0.20810765028
1505403119779127742,100707,1505403119778936041,0.970301926136,-0.0288208499551,-0.240173757076
1505403119785557173,100708,1505403119785376064,0.970301926136,-0.0288208499551,-0.240173757076
1505403119792041673,100709,1505403119791079276,0.975738704205,-0.0813115611672,-0.203278899193
1505403119794745962,100710,1505403119794452855,0.975738704205,-0.0813115611672,-0.203278899193
1505403119799065619,100711,1505403119798896202,0.973979949951,-0.0596314258873,-0.218648552895
1505403119805704095,100712,1505403119805537322,0.973979949951,-0.0596314258873,-0.218648552895
1505403119809181196,100713,1505403119808987425,0.965819180012,-0.0878017395735,-0.24389372766
1505403119814370638,100714,1505403119814193177,0.965819180012,-0.0878017395735,-0.24389372766
1505403119819127131,100715,1505403119818976243,0.959498047829,-0.0706998556852,-0.272699445486
1505403119824693806,100716,1505403119824443204,0.959498047829,-0.0706998556852,-0.272699445486
1505403119829778633,100717,1505403119829564794,0.981768786907,-0.0601082928479,-0.180324867368
1505403119834761930,100718,1505403119834351362,0.981768786907,-0.0601082928479,-0.180324867368
1505403119839364606,100719,1505403119839224036,0.975716292858,0.0,-0.21903835237
1505403119847488054,100720,1505403119847265714,0.975716292858,0.0,-0.21903835237
1505403119850282700,100721,1505403119850118880,0.972928524017,-0.0608080327511,-0.222962796688
1505403119858323684,100722,1505403119858128131,0.972928524017,-0.0608080327511,-0.222962796688
1505403119859361160,100723,1505403119859217515,0.9770424366,-0.0493455789983,-0.207251429558
1505403119864558079,100724,1505403119864314590,0.9770424366,-0.0493455789983,-0.207251429558
1505403119869671607,100725,1505403119869493359,0.973910868168,-0.0717618539929,-0.215285554528
1505403119878238330,100726,1505403119877995766,0.973910868168,-0.0717618539929,-0.215285554528
1505403119880388106,100727,1505403119880184685,0.968403339386,-0.0489092580974,-0.244546294212
1505403119884547160,100728,1505403119884324477,0.968403339386,-0.0489092580974,-0.244546294212
1505403119890961950,100729,1505403119890797844,0.961526036263,-0.093050904572,-0.258474737406
1505403119894658581,100730,1505403119894348962,0.961526036263,-0.093050904572,-0.258474737406
1505403119899457902,100731,1505403119899272798,0.970915913582,-0.0990730524063,-0.217960715294
1505403119904597057,100732,1505403119904419798,0.970915913582,-0.0990730524063,-0.217960715294
1505403119910241213,100733,1505403119909966100,0.968711853027,-0.0206108912826,-0.24733068049
1505403119915023105,100734,1505403119914823279,0.968711853027,-0.0206108912826,-0.24733068049
1505403119923805544,100735,1505403119923632946,0.963001549244,-0.0409787893295,-0.266362130642
1505403119924686160,100736,1505403119924567240,0.963001549244,-0.0409787893295,-0.266362130642
1505403119930691162,100737,1505403119929693372,0.963608503342,0.0205023083836,-0.266530007124
1505403119935356450,100738,1505403119935117787,0.963608503342,0.0205023083836,-0.266530007124
1505403119939881234,100739,1505403119939638105,0.965810239315,-0.0394208244979,-0.256235361099
1505403119944982573,100740,1505403119944818129,0.965810239315,-0.0394208244979,-0.256235361099
1505403119952302458,100741,1505403119952115305,0.978045880795,-0.059880360961,-0.199601203203
1505403119959191714,100742,1505403119959008877,0.978045880795,-0.059880360961,-0.199601203203
1505403119960265429,100743,1505403119960130959,0.981132149696,-0.0192378852516,-0.192378848791
1505403119965382872,100744,1505403119965156651,0.981132149696,-0.0192378852516,-0.192378848791
1505403119971537997,100745,1505403119971235152,0.974531412125,-0.0203027371317,-0.223330125213
1505403119975430485,100746,1505403119975218382,0.974531412125,-0.0203027371317,-0.223330125213
1505403119981392610,100747,1505403119981258595,0.978045880795,-0.059880360961,-0.199601203203
1505403119985468309,100748,1505403119985190113,0.978045880795,-0.059880360961,-0.199601203203
1505403119990818463,100749,1505403119990633463,0.976803600788,-0.0383060239255,-0.210683137178
1505403119995274817,100750,1505403119995081789,0.976803600788,-0.0383060239255,-0.210683137178
1505403120000165333,100751,1505403119999955260,0.980110883713,-0.0309508685023,-0.196022167802
1505403120005199408,100752,1505403120005025381,0.980110883713,-0.0309508685023,-0.196022167802
1505403120010531565,100753,1505403120010345674,0.973979949951,-0.0596314258873,-0.218648552895
1505403120018485649,100754,1505403120018306024,0.973979949951,-0.0596314258873,-0.218648552895
1505403120023781942,100755,1505403120023565404,0.968258440495,-0.0790415033698,-0.23712451756
1505403120025544405,100756,1505403120025395965,0.968258440495,-0.0790415033698,-0.23712451756
1505403120030337599,100757,1505403120030206691,0.967452287674,-0.0744194090366,-0.241863071918
1505403120036048084,100758,1505403120035835507,0.967452287674,-0.0744194090366,-0.241863071918
1505403120042684342,100759,1505403120042467523,0.978887856007,-0.0587332732975,-0.195777580142
1505403120045766905,100760,1505403120045605422,0.978887856007,-0.0587332732975,-0.195777580142
1505403120050433901,100761,1505403120050247819,0.971813082695,-0.0620306245983,-0.227445617318
1505403120057223448,100762,1505403120057026000,0.971813082695,-0.0620306245983,-0.227445617318
1505403120060368874,100763,1505403120060217480,0.976295650005,-0.0424476377666,-0.212238192558
1505403120067421226,100764,1505403120067257105,0.976295650005,-0.0424476377666,-0.212238192558
1505403120070866872,100765,1505403120070619156,0.984530627728,-0.0304493997246,-0.172546595335
1505403120076182840,100766,1505403120075970962,0.984530627728,-0.0304493997246,-0.172546595335
1505403120084268544,100767,1505403120084070539,0.978186368942,-0.00988067034632,-0.207494080067
1505403120085764982,100768,1505403120085626792,0.978186368942,-0.00988067034632,-0.207494080067
1505403120096820247,100769,1505403120096606768,0.976119935513,-0.0503154620528,-0.211324945092
1505403120096848421,100770,1505403120096638698,0.976119935513,-0.0503154620528,-0.211324945092
1505403120100772140,100771,1505403120100600910,0.977308273315,-0.0100753428414,-0.211582198739
1505403120106111724,100772,1505403120105841284,0.977308273315,-0.0100753428414,-0.211582198739
1505403120112958610,100773,1505403120112734283,0.97065192461,-0.0510869435966,-0.234999939799
1505403120115957144,100774,1505403120115800549,0.97065192461,-0.0510869435966,-0.234999939799
1505403120120852312,100775,1505403120120702715,0.977804601192,0.0296304430813,-0.207413092256
1505403120125932338,100776,1505403120125740399,0.977804601192,0.0296304430813,-0.207413092256
1505403120130951369,100777,1505403120130793508,0.9811450243,-0.0555365122855,-0.185121700168
1505403120135895696,100778,1505403120135684789,0.9811450243,-0.0555365122855,-0.185121700168
1505403120141415456,100779,1505403120141236564,0.984600007534,-0.0193058829755,-0.173752948642
1505403120147151301,100780,1505403120147013018,0.984600007534,-0.0193058829755,-0.173752948642
1505403120151307895,100781,1505403120151148283,0.980230867863,-0.0625679269433,-0.18770378828
1505403120156282450,100782,1505403120156103119,0.980230867863,-0.0625679269433,-0.18770378828
1505403120161188745,100783,1505403120160963398,0.982666194439,-0.0204722117633,-0.184249907732
1505403120166096162,100784,1505403120165870240,0.982666194439,-0.0204722117633,-0.184249907732
1505403120171575590,100785,1505403120171279249,0.97971791029,-0.0692729875445,-0.188026681542
1505403120177535480,100786,1505403120177316735,0.97971791029,-0.0692729875445,-0.188026681542
1505403120180869550,100787,1505403120180705617,0.982471823692,-0.0589483119547,-0.176844924688
1505403120186079463,100788,1505403120185929315,0.982471823692,-0.0589483119547,-0.176844924688
1505403120191430403,100789,1505403120191129854,0.983745336533,-0.0803057402372,-0.160611480474
1505403120196352938,100790,1505403120196167041,0.983745336533,-0.0803057402372,-0.160611480474
1505403120201192166,100791,1505403120201011068,0.989322721958,-0.0206108912826,-0.144276231527
1505403120206573856,100792,1505403120206414145,0.989322721958,-0.0206108912826,-0.144276231527
1505403120211291325,100793,1505403120211072234,0.97363448143,-0.0295040756464,-0.226197913289
1505403120216335781,100794,1505403120216145286,0.97363448143,-0.0295040756464,-0.226197913289
1505403120224438575,100795,1505403120224252332,0.983888208866,-0.0310701541603,-0.17606420815
1505403120226548859,100796,1505403120226319226,0.983888208866,-0.0310701541603,-0.17606420815
1505403120231702228,100797,1505403120231499633,0.980871319771,-0.0495389550924,-0.188248023391
1505403120238060820,100798,1505403120237855107,0.980871319771,-0.0495389550924,-0.188248023391
1505403120244972211,100799,1505403120244758857,0.988724172115,-0.0293680448085,-0.146840214729
1505403120246513229,100800,1505403120246317509,0.988724172115,-0.0293680448085,-0.146840214729
1505403120251450187,100801,1505403120251262552,0.979021430016,-0.0399600602686,-0.199800297618
1505403120257562197,100802,1505403120257411785,0.979021430016,-0.0399600602686,-0.199800297618
1505403120261770499,100803,1505403120261514903,0.974935889244,-0.0703561976552,-0.211068600416
1505403120267857585,100804,1505403120267707477,0.974935889244,-0.0703561976552,-0.211068600416
1505403120273170787,100805,1505403120272983516,0.974958479404,-0.0314502716064,-0.220151916146
1505403120276789338,100806,1505403120276573336,0.974958479404,-0.0314502716064,-0.220151916146
1505403120281762156,100807,1505403120281574888,0.981132149696,-0.0192378852516,-0.192378848791
1505403120290047113,100808,1505403120289832308,0.981132149696,-0.0192378852516,-0.192378848791
1505403120291810877,100809,1505403120291586286,0.983833670616,-0.0681864917278,-0.165595769882
1505403120296748549,100810,1505403120296554610,0.983833670616,-0.0681864917278,-0.165595769882
1505403120301950411,100811,1505403120301794122,0.971870183945,-0.0102302124724,-0.235294893384
1505403120310480722,100812,1505403120310296118,0.971870183945,-0.0102302124724,-0.235294893384
1505403120311923757,100813,1505403120311767094,0.981022953987,-0.0613139346242,-0.183941796422
1505403120317808838,100814,1505403120317624300,0.981022953987,-0.0613139346242,-0.183941796422
1505403120323877136,100815,1505403120323757965,0.964873552322,-0.0590738914907,-0.255986869335
1505403120328668348,100816,1505403120328548305,0.964873552322,-0.0590738914907,-0.255986869335
1505403120332329030,100817,1505403120331761740,0.969434022903,-0.0521201081574,-0.239752486348
1505403120337325258,100818,1505403120337177167,0.969434022903,-0.0521201081574,-0.239752486348
1505403120342069267,100819,1505403120341893506,0.968258440495,-0.0790415033698,-0.23712451756
1505403120348161142,100820,1505403120347960295,0.968258440495,-0.0790415033698,-0.23712451756
1505403120352404185,100821,1505403120352212759,0.973979949951,-0.0596314258873,-0.218648552895
1505403120357579648,100822,1505403120357407050,0.973979949951,-0.0596314258873,-0.218648552895
1505403120362020797,100823,1505403120361879988,0.976795017719,-0.0563535578549,-0.206629708409
1505403120367318937,100824,1505403120367158427,0.976795017719,-0.0563535578549,-0.206629708409
1505403120377060107,100825,1505403120376771396,0.96356678009,-0.0786585137248,-0.255640149117
1505403120379658036,100826,1505403120379391760,0.96356678009,-0.0786585137248,-0.255640149117
1505403120382334007,100827,1505403120382070255,0.966987550259,-0.0805822983384,-0.241746887565
1505403120390440723,100828,1505403120390244197,0.966987550259,-0.0805822983384,-0.241746887565
1505403120392467505,100829,1505403120392260673,0.979608237743,-0.01999200508,-0.199920043349
1505403120397313186,100830,1505403120397089353,0.979608237743,-0.01999200508,-0.199920043349
1505403120402512968,100831,1505403120402351601,0.976684868336,-0.0797293782234,-0.199323445559
1505403120407401687,100832,1505403120407217874,0.976684868336,-0.0797293782234,-0.199323445559
1505403120412413638,100833,1505403120412169973,0.970362186432,-0.0825840160251,-0.227106034756
1505403120417401147,100834,1505403120417237090,0.970362186432,-0.0825840160251,-0.227106034756
1505403120423097545,100835,1505403120422864862,0.978899478912,-0.0706422328949,-0.191743195057
1505403120427339494,100836,1505403120427191373,0.978899478912,-0.0706422328949,-0.191743195057
1505403120434164764,100837,1505403120433987509,0.975141465664,-0.0513232350349,-0.215557590127
1505403120440816608,100838,1505403120440612859,0.975141465664,-0.0513232350349,-0.215557590127
1505403120442446195,100839,1505403120442301039,0.965789794922,-0.10730997473,-0.236081942916
1505403120447521096,100840,1505403120447359057,0.965789794922,-0.10730997473,-0.236081942916
1505403120452793714,100841,1505403120452597563,0.983720242977,-0.0507072284818,-0.172404572368
1505403120457544511,100842,1505403120457380305,0.983720242977,-0.0507072284818,-0.172404572368
1505403120465489298,100843,1505403120465314306,0.970534920692,-0.0396136716008,-0.237682029605
1505403120468367254,100844,1505403120468068702,0.970534920692,-0.0396136716008,-0.237682029605
1505403120478323798,100845,1505403120478055120,0.965824246407,-0.0508328564465,-0.254164278507
1505403120478328416,100846,1505403120478087884,0.965824246407,-0.0508328564465,-0.254164278507
1505403120482702254,100847,1505403120482519741,0.964934527874,-0.0771947652102,-0.250882983208
1505403120488198667,100848,1505403120488035649,0.964934527874,-0.0771947652102,-0.250882983208
1505403120492786398,100849,1505403120492582292,0.964470148087,-0.0894869193435,-0.248574778438
1505403120498026307,100850,1505403120497818922,0.964470148087,-0.0894869193435,-0.248574778438
1505403120505814221,100851,1505403120505587116,0.970592558384,-0.0761249065399,-0.22837471962
1505403120507805916,100852,1505403120507668339,0.970592558384,-0.0761249065399,-0.22837471962
1505403120513156877,100853,1505403120512903608,0.95954978466,-0.089030392468,-0.267091184855
1505403120518041226,100854,1505403120517874591,0.95954978466,-0.089030392468,-0.267091184855
1505403120524633178,100855,1505403120524502461,0.981768786907,-0.0601082928479,-0.180324867368
1505403120531926011,100856,1505403120531711744,0.981768786907,-0.0601082928479,-0.180324867368
1505403120536236235,100857,1505403120536043264,0.968364059925,-0.0605227537453,-0.242091014981
1505403120537962165,100858,1505403120537754050,0.968364059925,-0.0605227537453,-0.242091014981
1505403120543119265,100859,1505403120542971088,0.955213487148,-0.0812947675586,-0.28453168273
1505403120548275561,100860,1505403120547933086,0.955213487148,-0.0812947675586,-0.28453168273
1505403120555138104,100861,1505403120554929333,0.970705091953,-0.0471216067672,-0.235608026385
1505403120558858531,100862,1505403120558699714,0.970705091953,-0.0471216067672,-0.235608026385
1505403120563611774,100863,1505403120563454668,0.9690797925,-0.129876673222,-0.209800779819
1505403120571770879,100864,1505403120571539300,0.9690797925,-0.129876673222,-0.209800779819
1505403120573159222,100865,1505403120572920827,0.967293262482,-0.0683944746852,-0.244265973568
1505403120578687733,100866,1505403120578517046,0.967293262482,-0.0683944746852,-0.244265973568
1505403120583269737,100867,1505403120583084101,0.971532523632,-0.0809610411525,-0.222642868757
1505403120589460085,100868,1505403120589311338,0.971532523632,-0.0809610411525,-0.222642868757
1505403120594878349,100869,1505403120594602275,0.981014847755,-0.073839828372,-0.179325297475
1505403120600426992,100870,1505403120600226166,0.981014847755,-0.073839828372,-0.179325297475
1505403120603550032,100871,1505403120603355368,0.974388659,-0.0885807871819,-0.206688508391
1505403120608467652,100872,1505403120608266053,0.974388659,-0.0885807871819,-0.206688508391
1505403120613587395,100873,1505403120613415790,0.975141465664,-0.0513232350349,-0.215557590127
1505403120618529419,100874,1505403120618387748,0.975141465664,-0.0513232350349,-0.215557590127
1505403120625005833,100875,1505403120624853347,0.965819180012,-0.0878017395735,-0.24389372766
1505403120629986531,100876,1505403120629784135,0.965819180012,-0.0878017395735,-0.24389372766
1505403120636599272,100877,1505403120636348941,0.955815851688,-0.0689764022827,-0.285759359598
1505403120639241637,100878,1505403120639044492,0.955815851688,-0.0689764022827,-0.285759359598
1505403120643638869,100879,1505403120643485089,0.975738704205,-0.0813115611672,-0.203278899193
1505403120648511749,100880,1505403120648335853,0.975738704205,-0.0813115611672,-0.203278899193
1505403120654179692,100881,1505403120653966531,0.969746470451,-0.101015254855,-0.222233563662
1505403120663650899,100882,1505403120663464847,0.969746470451,-0.101015254855,-0.222233563662
1505403120666331997,100883,1505403120666170460,0.958716034889,-0.131192713976,-0.252293676138
1505403120668965374,100884,1505403120668826713,0.958716034889,-0.131192713976,-0.252293676138
1505403120673890050,100885,1505403120673723936,0.962309420109,-0.104598850012,-0.251037240028
1505403120680757199,100886,1505403120680609817,0.962309420109,-0.104598850012,-0.251037240028
1505403120683960761,100887,1505403120683796205,0.957677364349,-0.108602590859,-0.266570001841
1505403120690235202,100888,1505403120690074508,0.957677364349,-0.108602590859,-0.266570001841
1505403120694077793,100889,1505403120693884832,0.959990799427,-0.0755048915744,-0.269660353661
1505403120701556895,100890,1505403120701352498,0.959990799427,-0.0755048915744,-0.269660353661
1505403120704020936,100891,1505403120703822487,0.974943399429,-0.0994840189815,-0.198968037963
1505403120709014411,100892,1505403120708837868,0.974943399429,-0.0994840189815,-0.198968037963
1505403120714150918,100893,1505403120714011436,0.957847058773,-0.0720960199833,-0.278084635735
1505403120722258057,100894,1505403120721980603,0.957847058773,-0.0720960199833,-0.278084635735
1505403120729766888,100895,1505403120729499601,0.957087934017,-0.104031302035,-0.27048137784
1505403120729770769,100896,1505403120729523785,0.957087934017,-0.104031302035,-0.27048137784
1505403120734194579,100897,1505403120733992576,0.970246911049,-0.112344376743,-0.214475631714
1505403120739100962,100898,1505403120738913934,0.970246911049,-0.112344376743,-0.214475631714
1505403120744197437,100899,1505403120744037159,0.972827494144,-0.119121737778,-0.198536232114
1505403120750434534,100900,1505403120750199536,0.972827494144,-0.119121737778,-0.198536232114
1505403120754400467,100901,1505403120754180981,0.963474750519,-0.0602171719074,-0.2609410882
1505403120759533414,100902,1505403120759357384,0.963474750519,-0.0602171719074,-0.2609410882
1505403120766122192,100903,1505403120765977665,0.952154457569,-0.144893065095,-0.269087135792
1505403120769286027,100904,1505403120769093400,0.952154457569,-0.144893065095,-0.269087135792
1505403120775314484,100905,1505403120775038734,0.957211434841,-0.111303657293,-0.267128765583
1505403120779298053,100906,1505403120779166030,0.957211434841,-0.111303657293,-0.267128765583
1505403120784729333,100907,1505403120784550686,0.976684868336,-0.0797293782234,-0.199323445559
1505403120790610574,100908,1505403120790449440,0.976684868336,-0.0797293782234,-0.199323445559
1505403120794970761,100909,1505403120794782763,0.966497838497,-0.0935320481658,-0.239026352763
1505403120799521562,100910,1505403120799303973,0.966497838497,-0.0935320481658,-0.239026352763
1505403120804484197,100911,1505403120804248641,0.975198030472,-0.0635998696089,-0.211999565363
1505403120809606981,100912,1505403120809430997,0.975198030472,-0.0635998696089,-0.211999565363
1505403120814561978,100913,1505403120814354099,0.960584938526,-0.0817519128323,-0.265693694353
1505403120819586830,100914,1505403120819390074,0.960584938526,-0.0817519128323,-0.265693694353
1505403120826333493,100915,1505403120826146485,0.958784401417,-0.101998344064,-0.265195697546
1505403120831733895,100916,1505403120831467953,0.958784401417,-0.101998344064,-0.265195697546
1505403120834546047,100917,1505403120834337401,0.967070043087,-0.061727873981,-0.246911495924
1505403120839986328,100918,1505403120839681877,0.967070043087,-0.061727873981,-0.246911495924
1505403120844485016,100919,1505403120844327898,0.959498047829,-0.0706998556852,-0.272699445486
1505403120850859151,100920,1505403120850628966,0.959498047829,-0.0706998556852,-0.272699445486
1505403120859465085,100921,1505403120859258974,0.967827022076,-0.0916888788342,-0.234316021204
1505403120861166941,100922,1505403120860934754,0.967827022076,-0.0916888788342,-0.234316021204
1505403120867261141,100923,1505403120867062455,0.971799492836,-0.0500927567482,-0.230426684022
1505403120869429337,100924,1505403120869296076,0.971799492836,-0.0500927567482,-0.230426684022
1505403120875074789,100925,1505403120874850119,0.962526917458,-0.0680574625731,-0.262507349253
1505403120879957193,100926,1505403120879798989,0.962526917458,-0.0680574625731,-0.262507349253
1505403120886080049,100927,1505403120885887627,0.968506157398,-0.103032574058,-0.226671651006
1505403120891752552,100928,1505403120891333243,0.968506157398,-0.103032574058,-0.226671651006
1505403120894720324,100929,1505403120894482518,0.957476973534,-0.136782422662,-0.254024505615
1505403120899956148,100930,1505403120899725605,0.957476973534,-0.136782422662,-0.254024505615
1505403120905077433,100931,1505403120904842258,0.954210102558,-0.112863555551,-0.277028739452
1505403120910150077,100932,1505403120909954863,0.954210102558,-0.112863555551,-0.277028739452
1505403120916517608,100933,1505403120916290631,0.964846253395,-0.125849500299,-0.230724096298
1505403120924508096,100934,1505403120924302105,0.964846253395,-0.125849500299,-0.230724096298
1505403120925883324,100935,1505403120925686816,0.972228825092,-0.165485754609,-0.165485754609
1505403120932153342,100936,1505403120931970992,0.972228825092,-0.165485754609,-0.165485754609
1505403120935178920,100937,1505403120934975053,0.973363935947,-0.0903121158481,-0.210728272796
1505403120940296329,100938,1505403120940130061,0.973363935947,-0.0903121158481,-0.210728272796
1505403120945485228,100939,1505403120945220104,0.964210152626,-0.0838443562388,-0.251533091068
1505403120950056920,100940,1505403120949911498,0.964210152626,-0.0838443562388,-0.251533091068
1505403120957529878,100941,1505403120957327925,0.967151105404,-0.109676934779,-0.229324489832
1505403120961574695,100942,1505403120961458236,0.967151105404,-0.109676934779,-0.229324489832
1505403120966077573,100943,1505403120965780275,0.954210102558,-0.112863555551,-0.277028739452
1505403120971750241,100944,1505403120971478407,0.954210102558,-0.112863555551,-0.277028739452
1505403120976576291,100945,1505403120976356248,0.966987550259,-0.0805822983384,-0.241746887565
1505403120980281917,100946,1505403120980127699,0.966987550259,-0.0805822983384,-0.241746887565
1505403120985452047,100947,1505403120985292192,0.967701911926,-0.116974957287,-0.223315820098
1505403120993132285,100948,1505403120992868551,0.967701911926,-0.116974957287,-0.223315820098
1505403120996709221,100949,1505403120996520533,0.962119042873,-0.0801765844226,-0.260573893785
1505403121000815519,100950,1505403121000602919,0.962119042873,-0.0801765844226,-0.260573893785
1505403121005602915,100951,1505403121005406519,0.963001549244,-0.0409787893295,-0.266362130642
1505403121010471364,100952,1505403121010327736,0.963001549244,-0.0409787893295,-0.266362130642
1505403121015520028,100953,1505403121015312253,0.967070043087,-0.061727873981,-0.246911495924
1505403121025548702,100954,1505403121025368558,0.967070043087,-0.061727873981,-0.246911495924
1505403121028167952,100955,1505403121027969320,0.965696334839,-0.0629801973701,-0.25192078948
1505403121030668537,100956,1505403121030508963,0.965696334839,-0.0629801973701,-0.25192078948
1505403121036095777,100957,1505403121035833805,0.963986039162,-0.107109554112,-0.243430808187
1505403121040932910,100958,1505403121040770329,0.963986039162,-0.107109554112,-0.243430808187
1505403121045837111,100959,1505403121045676274,0.969746470451,-0.101015254855,-0.222233563662
1505403121052135778,100960,1505403121051867923,0.969746470451,-0.101015254855,-0.222233563662
1505403121059566888,100961,1505403121059342482,0.967889904976,-0.144153818488,-0.205934017897
1505403121061607816,100962,1505403121061444381,0.967889904976,-0.144153818488,-0.205934017897
1505403121065841661,100963,1505403121065642235,0.976684868336,-0.0797293782234,-0.199323445559
1505403121071025926,100964,1505403121070858454,0.976684868336,-0.0797293782234,-0.199323445559
1505403121076129049,100965,1505403121075915725,0.973248541355,-0.11511541903,-0.198835730553
1505403121081014737,100966,1505403121080825863,0.973248541355,-0.11511541903,-0.198835730553
1505403121090447742,100967,1505403121090311696,0.978741943836,-0.0832971855998,-0.187418669462
1505403121092106797,100968,1505403121091591689,0.978741943836,-0.0832971855998,-0.187418669462
1505403121096173310,100969,1505403121095956565,0.962309420109,-0.104598850012,-0.251037240028
1505403121102412783,100970,1505403121102175002,0.962309420109,-0.104598850012,-0.251037240028
1505403121106161821,100971,1505403121105946719,0.967827022076,-0.0916888788342,-0.234316021204
1505403121112363963,100972,1505403121112137308,0.967827022076,-0.0916888788342,-0.234316021204
1505403121117998291,100973,1505403121117813781,0.969012916088,-0.11461442709,-0.218809366226
1505403121123891446,100974,1505403121123681096,0.969012916088,-0.11461442709,-0.218809366226
1505403121126211545,100975,1505403121126055352,0.966252207756,-0.123351342976,-0.226144134998
1505403121131202867,100976,1505403121130985615,0.966252207756,-0.123351342976,-0.226144134998
1505403121137624358,100977,1505403121137427056,0.963086783886,-0.120385847986,-0.240771695971
1505403121141264181,100978,1505403121141082566,0.963086783886,-0.120385847986,-0.240771695971
1505403121146282453,100979,1505403121146107899,0.967189371586,-0.105129279196,-0.231284409761
1505403121151748268,100980,1505403121151465814,0.967189371586,-0.105129279196,-0.231284409761
1505403121158183923,100981,1505403121157974858,0.975537180901,-0.121942147613,-0.182913228869
1505403121161964805,100982,1505403121161754797,0.975537180901,-0.121942147613,-0.182913228869
1505403121166574417,100983,1505403121166292499,0.982508301735,-0.0709026604891,-0.172192186117
1505403121171536254,100984,1505403121171236475,0.982508301735,-0.0709026604891,-0.172192186117
1505403121176411326,100985,1505403121176160546,0.965640187263,-0.0821821391582,-0.246546432376
1505403121184960676,100986,1505403121184809678,0.965640187263,-0.0821821391582,-0.246546432376
1505403121186739117,100987,1505403121186534721,0.974935889244,-0.0703561976552,-0.211068600416
1505403121191900217,100988,1505403121191568709,0.974935889244,-0.0703561976552,-0.211068600416
1505403121200390862,100989,1505403121200128634,0.974958479404,-0.0314502716064,-0.220151916146
1505403121201772134,100990,1505403121201581089,0.974958479404,-0.0314502716064,-0.220151916146
1505403121206570348,100991,1505403121206360726,0.969438254833,-0.0714322924614,-0.234706103802
1505403121211665434,100992,1505403121211331675,0.969438254833,-0.0714322924614,-0.234706103802
1505403121218270678,100993,1505403121218060851,0.965397357941,-0.0759301260114,-0.249484717846
1505403121226003337,100994,1505403121225778858,0.965397357941,-0.0759301260114,-0.249484717846
1505403121228015993,100995,1505403121227878007,0.967151105404,-0.109676934779,-0.229324489832
1505403121231876279,100996,1505403121231662043,0.967151105404,-0.109676934779,-0.229324489832
1505403121238934467,100997,1505403121238721446,0.978045880795,-0.059880360961,-0.199601203203
1505403121241824319,100998,1505403121241647306,0.978045880795,-0.059880360961,-0.199601203203
1505403121248529079,100999,1505403121248368015,0.964846253395,-0.125849500299,-0.230724096298
1505403121254951483,101000,1505403121254650920,0.964846253395,-0.125849500299,-0.230724096298
1505403121257362011,101001,1505403121257185782,0.969746470451,-0.101015254855,-0.222233563662
1505403121267187487,101002,1505403121266967920,0.969746470451,-0.101015254855,-0.222233563662
1505403121267215032,101003,1505403121266992127,0.968258440495,-0.0790415033698,-0.23712451756
1505403121272284789,101004,1505403121272087702,0.968258440495,-0.0790415033698,-0.23712451756
1505403121277202236,101005,1505403121276879435,0.967189371586,-0.105129279196,-0.231284409761
1505403121282453662,101006,1505403121282283082,0.967189371586,-0.105129279196,-0.231284409761
1505403121292563213,101007,1505403121292328304,0.981022953987,-0.0613139346242,-0.183941796422
1505403121292595174,101008,1505403121292362668,0.981022953987,-0.0613139346242,-0.183941796422
1505403121297268726,101009,1505403121297075582,0.981642484665,-0.0297467429191,-0.188396036625
1505403121302146086,101010,1505403121301989672,0.981642484665,-0.0297467429191,-0.188396036625
1505403121308369681,101011,1505403121308157431,0.965226352215,-0.100544415414,-0.241306588054
1505403121312544125,101012,1505403121312234483,0.965226352215,-0.100544415414,-0.241306588054
1505403121317756775,101013,1505403121317490326,0.959990799427,-0.0755048915744,-0.269660353661
1505403121323959253,101014,1505403121323795172,0.959990799427,-0.0755048915744,-0.269660353661
1505403121327398511,101015,1505403121327089238,0.973062753677,-0.0953983068466,-0.209876284003
1505403121332314513,101016,1505403121332129893,0.973062753677,-0.0953983068466,-0.209876284003
1505403121337342841,101017,1505403121337131837,0.984524786472,-0.0615327991545,-0.164087459445
1505403121342167890,101018,1505403121341988162,0.984524786472,-0.0615327991545,-0.164087459445
1505403121348054026,101019,1505403121347918152,0.969119250774,-0.0842712372541,-0.231745913625
1505403121359405204,101020,1505403121359093266,0.969119250774,-0.0842712372541,-0.231745913625
1505403121359557880,101021,1505403121359358522,0.9690797925,-0.0899146199226,-0.229781806469
1505403121362764054,101022,1505403121362457830,0.9690797925,-0.0899146199226,-0.229781806469
1505403121367585080,101023,1505403121367319814,0.972881913185,-0.0491354502738,-0.226023077965
1505403121372760158,101024,1505403121372519820,0.972881913185,-0.0491354502738,-0.226023077965
1505403121377765075,101025,1505403121377552112,0.979714930058,0.0,-0.200396239758
1505403121382733695,101026,1505403121382572898,0.979714930058,0.0,-0.200396239758
1505403121389973344,101027,1505403121389649539,0.985749959946,-0.0711365938187,-0.152435556054
1505403121392733522,101028,1505403121392565162,0.985749959946,-0.0711365938187,-0.152435556054
1505403121399216781,101029,1505403121399042772,0.97927737236,-0.051540914923,-0.195855483413
1505403121402718344,101030,1505403121402534359,0.97927737236,-0.051540914923,-0.195855483413
1505403121407726698,101031,1505403121407500095,0.971463561058,-0.0306777972728,-0.235196441412
1505403121414367057,101032,1505403121414180895,0.971463561058,-0.0306777972728,-0.235196441412
1505403121417793637,101033,1505403121417531853,0.976127445698,-0.0750867277384,-0.203806832433
1505403121423376001,101034,1505403121423101103,0.976127445698,-0.0750867277384,-0.203806832433
1505403121427831756,101035,1505403121427671583,0.97049498558,-0.043133109808,-0.237232103944
1505403121432943057,101036,1505403121432717441,0.97049498558,-0.043133109808,-0.237232103944
1505403121438055320,101037,1505403121437804035,0.979804098606,0.0,-0.199960008264
1505403121446083074,101038,1505403121445886817,0.979804098606,0.0,-0.199960008264
1505403121449832823,101039,1505403121449573231,0.965696334839,-0.0629801973701,-0.25192078948
1505403121453235376,101040,1505403121452767340,0.965696334839,-0.0629801973701,-0.25192078948
1505403121458043648,101041,1505403121457823143,0.979272961617,-0.0947683528066,-0.179006889462
1505403121463144586,101042,1505403121462916888,0.979272961617,-0.0947683528066,-0.179006889462
1505403121468063502,101043,1505403121467810667,0.981768786907,-0.0601082928479,-0.180324867368
1505403121476870275,101044,1505403121476604503,0.981768786907,-0.0601082928479,-0.180324867368
1505403121479622077,101045,1505403121479481496,0.971532523632,-0.0809610411525,-0.222642868757
1505403121485021243,101046,1505403121484838947,0.971532523632,-0.0809610411525,-0.222642868757
1505403121492458409,101047,1505403121492094868,0.965819180012,-0.0878017395735,-0.24389372766
1505403121493403936,101048,1505403121493200927,0.965819180012,-0.0878017395735,-0.24389372766
1505403121498422763,101049,1505403121498223975,0.967827022076,-0.132439494133,-0.213940709829
1505403121503120556,101050,1505403121502907165,0.967827022076,-0.132439494133,-0.213940709829
1505403121508609702,101051,1505403121508411030,0.979272961617,-0.0947683528066,-0.179006889462
1505403121513538572,101052,1505403121513248072,0.979272961617,-0.0947683528066,-0.179006889462
1505403121519261422,101053,1505403121519062197,0.972580730915,-0.0300798173994,-0.230611935258
1505403121524055479,101054,1505403121523846617,0.972580730915,-0.0300798173994,-0.230611935258
1505403121528414624,101055,1505403121528246765,0.981768786907,-0.0601082928479,-0.180324867368
1505403121533384949,101056,1505403121533048775,0.981768786907,-0.0601082928479,-0.180324867368
1505403121539274870,101057,1505403121538988814,0.97049498558,-0.10783277452,-0.21566554904
1505403121543763204,101058,1505403121543546041,0.97049498558,-0.10783277452,-0.21566554904
1505403121549893433,101059,1505403121549702578,0.980392217636,-0.0800320208073,-0.180072039366
1505403121559731725,101060,1505403121559104942,0.980392217636,-0.0800320208073,-0.180072039366
1505403121559737404,101061,1505403121559143145,0.982508301735,-0.0709026604891,-0.172192186117
1505403121563680519,101062,1505403121563565750,0.982508301735,-0.0709026604891,-0.172192186117
1505403121568423505,101063,1505403121568241218,0.964416980743,-0.051850374788,-0.259251862764
1505403121574345737,101064,1505403121573831922,0.964416980743,-0.051850374788,-0.259251862764
1505403121581761295,101065,1505403121581492546,0.982020735741,-0.0971229299903,-0.161871552467
1505403121583678648,101066,1505403121583387530,0.982020735741,-0.0971229299903,-0.161871552467
1505403121591239899,101067,1505403121590989183,0.976205289364,-0.062310975045,-0.207703247666
1505403121596237329,101068,1505403121595940179,0.976205289364,-0.062310975045,-0.207703247666
1505403121599624980,101069,1505403121599418855,0.970700502396,-0.13568931818,-0.198315158486
1505403121605312512,101070,1505403121605086996,0.970700502396,-0.13568931818,-0.198315158486
1505403121608986999,101071,1505403121608801936,0.982661604881,-0.0982661545277,-0.157225847244
1505403121613875824,101072,1505403121613635384,0.982661604881,-0.0982661545277,-0.157225847244
1505403121623234912,101073,1505403121623044047,0.969012916088,-0.11461442709,-0.218809366226
1505403121624375509,101074,1505403121624252367,0.969012916088,-0.11461442709,-0.218809366226
1505403121628823786,101075,1505403121628676164,0.956225514412,-0.0925379544497,-0.277613848448
1505403121634008036,101076,1505403121633723763,0.956225514412,-0.0925379544497,-0.277613848448
1505403121641478340,101077,1505403121641278179,0.968095242977,-0.0411955416203,-0.247173249722
1505403121645477248,101078,1505403121645270465,0.968095242977,-0.0411955416203,-0.247173249722
1505403121649077898,101079,1505403121648900026,0.975738704205,-0.0813115611672,-0.203278899193
1505403121656835643,101080,1505403121656615120,0.975738704205,-0.0813115611672,-0.203278899193
1505403121659048261,101081,1505403121658889025,0.950162470341,-0.14780305326,-0.274491369724
1505403121663922823,101082,1505403121663735550,0.950162470341,-0.14780305326,-0.274491369724
1505403121672718190,101083,1505403121672502204,0.970246911049,-0.112344376743,-0.214475631714
1505403121674359799,101084,1505403121674195352,0.970246911049,-0.112344376743,-0.214475631714
1505403121679500739,101085,1505403121679307021,0.978741943836,-0.0832971855998,-0.187418669462
1505403121684324294,101086,1505403121684117507,0.978741943836,-0.0832971855998,-0.187418669462
1505403121690393232,101087,1505403121690238280,0.963608503342,-0.143516167998,-0.225525394082
1505403121694325882,101088,1505403121693976631,0.963608503342,-0.143516167998,-0.225525394082
1505403121700030828,101089,1505403121699864643,0.972635865211,-0.0793988481164,-0.218346819282
1505403121707163415,101090,1505403121706939245,0.972635865211,-0.0793988481164,-0.218346819282
1505403121711775979,101091,1505403121711405933,0.973688185215,0.0,-0.227884471416
1505403121714993669,101092,1505403121714120113,0.973688185215,0.0,-0.227884471416
1505403121724128915,101093,1505403121723917994,0.973363935947,-0.0903121158481,-0.210728272796
1505403121725047619,101094,1505403121724918524,0.973363935947,-0.0903121158481,-0.210728272796
1505403121732492434,101095,1505403121732244413,0.969586312771,-0.105598509312,-0.220796883106
1505403121735033924,101096,1505403121734844598,0.969586312771,-0.105598509312,-0.220796883106
